,OBJECTID,SOURCE,VIL_UID,CENTER,CNTR_CODE,AFG_UID,POPULATION,LANGUAGE_,LANG_CODE,ELEVATION,LAT_Y,LON_X,MISTI_PROV,MISTI_DIST,VILLAGE_NA,DIST_CODE,DIST_NA_EN,DIST_NA_DA,PROV_NA_EN,PROV_NA_DA,PROV_CODE
25049,25050,Yale POP_MASTER,MTM-198,,0,LGM-MTM-198,205,Pashai,6,1049.474976,34.7327,70.1623,LGM,MTM,Tangi Badrow,701,Mehtarlam,???? ???,Laghman,?????,7
25050,25051,Yale POP_MASTER,QGI-151,,0,LGM-QGI-151,88,Pashai,6,2020.875,34.6416,70.4097,LGM,QGI,Walkank,703,Qarghayi,???? ??,Laghman,?????,7
25051,25052,Yale POP_MASTER,ALR-055,,0,LGM-ALR-055,678,Pashai,6,1953.875,34.6692,70.3918,LGM,ALR,Koz Kahomar Khabi,704,Alingar,???????,Laghman,?????,7
25052,25053,USAID AIDVillageView,QGI-005,,0,LGM-QGI-005,0,Pashai,6,1292.42395,34.6403,70.4801,LGM,QGI,Lontawrak,703,Qarghayi,???? ??,Laghman,?????,7
25053,25054,CSO AIMS Villages (ACSOR),ALR-010,,0,LGM-ALR-010,616,Pashai,6,1824.744995,34.72056,70.47093000000001,LGM,ALR,Kundalam,704,Alingar,???????,Laghman,?????,7
25059,25060,Yale POP_MASTER,QGI-035,,0,LGM-QGI-035,59,Pashai,6,1481.031982,34.6477,70.4368,LGM,QGI,Bala Kacha,703,Qarghayi,???? ??,Laghman,?????,7
25060,25061,Yale POP_MASTER,QGI-041,,0,LGM-QGI-041,381,Pashai,6,1831.2430420000003,34.6672,70.4817,LGM,QGI,Bar Kashmon,703,Qarghayi,???? ??,Laghman,?????,7
25061,25062,Yale POP_MASTER,QGI-045,,0,LGM-QGI-045,196,Pashai,6,1223.285034,34.6438,70.4595,LGM,QGI,Chanar,703,Qarghayi,???? ??,Laghman,?????,7
25062,25063,Yale POP_MASTER,QGI-058,,0,LGM-QGI-058,133,Pashai,6,1588.291992,34.6397,70.5044,LGM,QGI,Gala Kunda,703,Qarghayi,???? ??,Laghman,?????,7
25063,25064,Yale POP_MASTER,QGI-066,,0,LGM-QGI-066,53,Pashai,6,1005.960999,34.6246,70.4531,LGM,QGI,Gundak,703,Qarghayi,???? ??,Laghman,?????,7
25064,25065,Yale POP_MASTER,QGI-071,,0,LGM-QGI-071,33,Pashai,6,1286.746948,34.6328,70.4358,LGM,QGI,Hazara Banda,703,Qarghayi,???? ??,Laghman,?????,7
25065,25066,Yale POP_MASTER,QGI-090,,0,LGM-QGI-090,63,Dari,1,1654.081055,34.6447,70.4962,LGM,QGI,Lontorak,703,Qarghayi,???? ??,Laghman,?????,7
25066,25067,Yale POP_MASTER,QGI-101,,0,LGM-QGI-101,42,Pashai,6,1393.892944,34.643,70.436,LGM,QGI,Mohabat Banda,703,Qarghayi,???? ??,Laghman,?????,7
25067,25068,Yale POP_MASTER,QGI-102,,0,LGM-QGI-102,111,Pashai,6,1740.6350100000002,34.6598,70.4442,LGM,QGI,Mohammad Amin Banda,703,Qarghayi,???? ??,Laghman,?????,7
25068,25069,Yale POP_MASTER,QGI-106,,0,LGM-QGI-106,45,Pashai,6,1471.199951,34.656,70.467,LGM,QGI,Najolak,703,Qarghayi,???? ??,Laghman,?????,7
25069,25070,Yale POP_MASTER,QGI-141,,0,LGM-QGI-141,122,Pashai,6,1527.077026,34.6531,70.4523,LGM,QGI,Shadi Bagh,703,Qarghayi,???? ??,Laghman,?????,7
25070,25071,Yale POP_MASTER,QGI-153,,0,LGM-QGI-153,51,Pashai,6,1615.746948,34.6481,70.4237,LGM,QGI,Wastagak,703,Qarghayi,???? ??,Laghman,?????,7
25071,25072,Yale POP_MASTER,ALR-034,,0,LGM-ALR-034,474,Pashai,6,1728.5179440000002,34.7202,70.4635,LGM,ALR,Gorjen,704,Alingar,???????,Laghman,?????,7
25072,25073,Yale POP_MASTER,ALR-049,,0,LGM-ALR-049,917,Pashai,6,1846.5369870000002,34.7168,70.4654,LGM,ALR,Khorak,704,Alingar,???????,Laghman,?????,7
25073,25074,Yale POP_MASTER,ALR-075,,0,LGM-ALR-075,859,Pashai,6,1881.067017,34.7152,70.4711,LGM,ALR,Parj,704,Alingar,???????,Laghman,?????,7
25120,25121,USAID AIDVillageView,QGI-015,,0,LGM-QGI-015,0,Pashai,6,782.1392212000001,34.5921,70.4485,LGM,QGI,Shinzai,703,Qarghayi,???? ??,Laghman,?????,7
25121,25122,Yale POP_MASTER,QGI-056,,0,LGM-QGI-056,118,Pashai,6,812.3549805,34.6077,70.4625,LGM,QGI,Dogar,703,Qarghayi,???? ??,Laghman,?????,7
25122,25123,Yale POP_MASTER,QGI-111,,0,LGM-QGI-111,598,Pashai,6,928.5394897,34.6187,70.4505,LGM,QGI,Omara Khan Kalay,703,Qarghayi,???? ??,Laghman,?????,7
25124,25125,Yale POP_MASTER,ALG-124,,0,LGM-ALG-124,363,Pashai,6,1208.088013,34.8551,70.109,LGM,ALG,Shamsha Khail,702,Alishang,??????,Laghman,?????,7
25125,25126,Yale POP_MASTER,ALG-138,,0,LGM-ALG-138,708,Pashai,6,1182.57605,34.8403,70.0989,LGM,ALG,Watan Gato,702,Alishang,??????,Laghman,?????,7
25126,25127,Yale POP_MASTER,ALG-063,,0,LGM-ALG-063,205,Pashai,6,1609.753052,34.8183,70.0187,LGM,ALG,Khando,702,Alishang,??????,Laghman,?????,7
25127,25128,Yale POP_MASTER,ALG-064,,0,LGM-ALG-064,66,Pashai,6,1651.14502,34.8216,70.0207,LGM,ALG,Khord Nagal,702,Alishang,??????,Laghman,?????,7
25128,25129,Yale POP_MASTER,ALG-066,,0,LGM-ALG-066,248,Pashto,2,1116.977051,34.8167,70.1007,LGM,ALG,Kohnna Ghazi Abad,702,Alishang,??????,Laghman,?????,7
25129,25130,Yale POP_MASTER,ALG-072,,0,LGM-ALG-072,485,Pashai,6,1384.60498,34.7877,70.0352,LGM,ALG,Lashte Bel,702,Alishang,??????,Laghman,?????,7
25130,25131,Yale POP_MASTER,ALG-076,,0,LGM-ALG-076,577,Pashto,2,1103.3480220000001,34.8102,70.1022,LGM,ALG,Manjan,702,Alishang,??????,Laghman,?????,7
25131,25132,Yale POP_MASTER,ALG-078,,0,LGM-ALG-078,1454,Pashto,2,1663.178955,34.8376,70.1556,LGM,ALG,Masmod Bala,702,Alishang,??????,Laghman,?????,7
25132,25133,Yale POP_MASTER,ALG-079,,0,LGM-ALG-079,1131,Pashai,6,1480.766968,34.8463,70.1418,LGM,ALG,Masmod Payen,702,Alishang,??????,Laghman,?????,7
25133,25134,Yale POP_MASTER,ALG-082,,0,LGM-ALG-082,122,Pashai,6,1543.650024,34.8075,70.0175,LGM,ALG,Mohammad Kalam,702,Alishang,??????,Laghman,?????,7
25134,25135,Yale POP_MASTER,ALG-083,,0,LGM-ALG-083,509,Pashai,6,1703.515015,34.8176,70.0142,LGM,ALG,Moka,702,Alishang,??????,Laghman,?????,7
25135,25136,Yale POP_MASTER,ALG-089,,0,LGM-ALG-089,297,Pashai,6,1194.3120119999999,34.8471,70.1051,LGM,ALG,Nolo,702,Alishang,??????,Laghman,?????,7
25136,25137,Yale POP_MASTER,ALG-090,,0,LGM-ALG-090,371,Pashai,6,1159.793945,34.8034,70.089,LGM,ALG,Nooram Hulya,702,Alishang,??????,Laghman,?????,7
25137,25138,Yale POP_MASTER,ALG-091,,0,LGM-ALG-091,446,Pashai,6,1144.4219970000001,34.8122,70.095,LGM,ALG,Nooram Sufla,702,Alishang,??????,Laghman,?????,7
25138,25139,Yale POP_MASTER,ALG-008,,0,LGM-ALG-008,258,Pashto,2,1087.0839839999999,34.795,70.0968,LGM,ALG,Andar Wal,702,Alishang,??????,Laghman,?????,7
25139,25140,Yale POP_MASTER,ALG-057,,0,LGM-ALG-057,485,Pashai,6,1254.834961,34.8535,70.1023,LGM,ALG,Karandaly,702,Alishang,??????,Laghman,?????,7
25140,25141,Yale POP_MASTER,ALG-058,,0,LGM-ALG-058,539,Pashai,6,1696.656982,34.81,70.1588,LGM,ALG,Kasegar,702,Alishang,??????,Laghman,?????,7
25141,25142,Yale POP_MASTER,ALG-060,,0,LGM-ALG-060,1171,Pashto,2,1091.18103,34.804,70.1021,LGM,ALG,Katoly,702,Alishang,??????,Laghman,?????,7
25142,25143,Yale POP_MASTER,ALG-095,,0,LGM-ALG-095,249,Pashai,6,1342.11499,34.8229,70.0818,LGM,ALG,Palayen,702,Alishang,??????,Laghman,?????,7
25143,25144,Yale POP_MASTER,ALG-097,,0,LGM-ALG-097,495,Pashai,6,1342.2380369999998,34.8013,70.0371,LGM,ALG,Paradoly,702,Alishang,??????,Laghman,?????,7
25144,25145,Yale POP_MASTER,ALG-100,,0,LGM-ALG-100,640,Pashto,2,1101.974976,34.7995,70.0965,LGM,ALG,Peya Khail,702,Alishang,??????,Laghman,?????,7
25145,25146,Yale POP_MASTER,ALG-101,,0,LGM-ALG-101,701,Pashai,6,1499.0620119999999,34.852,70.0768,LGM,ALG,Poyen,702,Alishang,??????,Laghman,?????,7
25146,25147,Yale POP_MASTER,ALG-009,,0,LGM-ALG-009,600,Pashai,6,1238.713013,34.8358,70.1137,LGM,ALG,Andara,702,Alishang,??????,Laghman,?????,7
25147,25148,Yale POP_MASTER,ALG-017,,0,LGM-ALG-017,357,Pashto,2,1236.1519779999999,34.8577,70.1134,LGM,ALG,Banda,702,Alishang,??????,Laghman,?????,7
25148,25149,Yale POP_MASTER,ALG-024,,0,LGM-ALG-024,471,Pashai,6,1748.516968,34.8276,70.02199999999999,LGM,ALG,Boteyan,702,Alishang,??????,Laghman,?????,7
25149,25150,Yale POP_MASTER,ALG-034,,0,LGM-ALG-034,212,Pashai,6,1162.547974,34.8358,70.1024,LGM,ALG,Do Burja,702,Alishang,??????,Laghman,?????,7
25150,25151,Yale POP_MASTER,ALG-035,,0,LGM-ALG-035,56,Pashai,6,1337.26001,34.7915,70.0411,LGM,ALG,Domya,702,Alishang,??????,Laghman,?????,7
25151,25152,Yale POP_MASTER,ALG-042,,0,LGM-ALG-042,74,Pashai,6,1258.239014,34.8442,70.0971,LGM,ALG,Gasgen,702,Alishang,??????,Laghman,?????,7
25152,25153,Yale POP_MASTER,ALG-043,,0,LGM-ALG-043,1288,Pashai,6,1141.875977,34.8245,70.0992,LGM,ALG,Ghazi Abad,702,Alishang,??????,Laghman,?????,7
25153,25154,Yale POP_MASTER,ALG-049,,0,LGM-ALG-049,330,Pashai,6,1107.767944,34.8136,70.1,LGM,ALG,Haji Abad,702,Alishang,??????,Laghman,?????,7
25154,25155,Yale POP_MASTER,ALG-053,,0,LGM-ALG-053,836,Pashai,6,1154.375977,34.8305,70.1003,LGM,ALG,Jamshed Abad,702,Alishang,??????,Laghman,?????,7
25155,25156,Yale POP_MASTER,ALG-054,,0,LGM-ALG-054,111,Pashto,2,1230.078979,34.8024,70.0844,LGM,ALG,Kachra,702,Alishang,??????,Laghman,?????,7
25156,25157,Yale POP_MASTER,ALG-056,,0,LGM-ALG-056,370,Pashto,2,1554.953979,34.8166,70.04,LGM,ALG,Kandon,702,Alishang,??????,Laghman,?????,7
25157,25158,Yale POP_MASTER,ALG-128,,0,LGM-ALG-128,520,Pashai,6,1961.272949,34.8223,69.9656,LGM,ALG,Sobon,702,Alishang,??????,Laghman,?????,7
25158,25159,Yale POP_MASTER,ALG-130,,0,LGM-ALG-130,503,Pashai,6,1614.619019,34.8074,70.00399999999999,LGM,ALG,Swch,702,Alishang,??????,Laghman,?????,7
25159,25160,Yale POP_MASTER,ALG-135,,0,LGM-ALG-135,444,Pashai,6,1917.980957,34.8284,69.9939,LGM,ALG,Tarawo,702,Alishang,??????,Laghman,?????,7
25160,25161,Yale POP_MASTER,ALG-137,,0,LGM-ALG-137,394,Pashai,6,2059.014893,34.8182,69.9686,LGM,ALG,Waryan,702,Alishang,??????,Laghman,?????,7
25161,25162,Yale POP_MASTER,ALG-073,,0,LGM-ALG-073,190,Pashai,6,1953.359009,34.8203,69.9693,LGM,ALG,Lowar Khandow,702,Alishang,??????,Laghman,?????,7
25162,25163,Yale POP_MASTER,ALG-087,,0,LGM-ALG-087,95,Pashai,6,1958.4659420000003,34.8294,69.9688,LGM,ALG,Najlam,702,Alishang,??????,Laghman,?????,7
25163,25164,Yale POP_MASTER,ALG-088,,0,LGM-ALG-088,300,Pashai,6,1805.4790039999998,34.8145,69.984,LGM,ALG,Nangi Show,702,Alishang,??????,Laghman,?????,7
25164,25165,Yale POP_MASTER,ALG-109,,0,LGM-ALG-109,378,Pashai,6,2216.157959,34.8311,69.9611,LGM,ALG,Qandala,702,Alishang,??????,Laghman,?????,7
25165,25166,Yale POP_MASTER,ALG-013,,0,LGM-ALG-013,227,Pashai,6,1764.1149899999998,34.819,69.9788,LGM,ALG,Awshotor,702,Alishang,??????,Laghman,?????,7
25166,25167,Yale POP_MASTER,ALG-022,,0,LGM-ALG-022,199,Pashai,6,1743.991943,34.8237,69.9967,LGM,ALG,Barandak,702,Alishang,??????,Laghman,?????,7
25167,25168,Yale POP_MASTER,ALG-032,,0,LGM-ALG-032,315,Pashai,6,1997.026978,34.8251,69.9681,LGM,ALG,Dawlat Khandow,702,Alishang,??????,Laghman,?????,7
25168,25169,CSO AIMS Villages (ACSOR),ALR-002,,0,LGM-ALR-002,285,Pashai,6,1469.462036,34.7777,70.40099000000001,LGM,ALR,Bodlam (1),704,Alingar,???????,Laghman,?????,7
25169,25170,CSO AIMS Villages (ACSOR),ALR-003,,0,LGM-ALR-003,377,Pashai,6,1665.151001,34.72051,70.45225,LGM,ALR,Bodlam (2),704,Alingar,???????,Laghman,?????,7
25170,25171,CSO AIMS Villages (ACSOR),ALR-004,,0,LGM-ALR-004,226,Pashai,6,1125.8630369999998,34.77308,70.39373,LGM,ALR,Char Qala (1),704,Alingar,???????,Laghman,?????,7
25171,25172,CSO AIMS Villages (ACSOR),ALR-013,,0,LGM-ALR-013,640,Pashai,6,1006.856018,34.7665,70.38146,LGM,ALR,Shaikhan (1),704,Alingar,???????,Laghman,?????,7
25172,25173,USAID AIDVillageView,ALR-115,,0,LGM-ALR-115,0,Pashai,6,1280.469971,34.8582,70.4434,LGM,ALR,Nuralam,704,Alingar,???????,Laghman,?????,7
25173,25174,USAID AIDVillageView,ALR-117,,0,LGM-ALR-117,0,Pashai,6,932.3474120999999,34.8657,70.3631,LGM,ALR,Parwa'i,704,Alingar,???????,Laghman,?????,7
25174,25175,USAID AIDVillageView,ALR-113,,0,LGM-ALR-113,0,Pashai,6,1426.25,34.6954,70.3808,LGM,ALR,Bayanlu,704,Alingar,???????,Laghman,?????,7
25175,25176,Yale POP_MASTER,ALR-016,,0,LGM-ALR-016,417,Pashto,2,1371.350952,34.8919,70.3168,LGM,ALR,Abelam,704,Alingar,???????,Laghman,?????,7
25176,25177,Yale POP_MASTER,ALR-017,,0,LGM-ALR-017,187,Pashto,2,918.9307251,34.8305,70.3621,LGM,ALR,Alinigar Makazi Wolluswaly,704,Alingar,???????,Laghman,?????,7
25177,25178,Yale POP_MASTER,ALR-020,,0,LGM-ALR-020,197,Pashto,2,931.4348755000001,34.8259,70.3574,LGM,ALR,Barikot Shamaly,704,Alingar,???????,Laghman,?????,7
25178,25179,Yale POP_MASTER,ALR-021,,0,LGM-ALR-021,1658,Pashai,6,1744.405029,34.7639,70.4497,LGM,ALR,Baylam,704,Alingar,???????,Laghman,?????,7
25179,25180,Yale POP_MASTER,ALR-022,,0,LGM-ALR-022,1584,Pashai,6,1524.758057,34.8413,70.4825,LGM,ALR,Chamtala,704,Alingar,???????,Laghman,?????,7
25180,25181,Yale POP_MASTER,ALR-024,,0,LGM-ALR-024,267,Pashai,6,1372.939941,34.8652,70.4789,LGM,ALR,Dahan Mamor,704,Alingar,???????,Laghman,?????,7
25181,25182,Yale POP_MASTER,ALR-025,,0,LGM-ALR-025,79,Pashto,2,1348.883057,34.8262,70.3786,LGM,ALR,Dak Kala,704,Alingar,???????,Laghman,?????,7
25182,25183,Yale POP_MASTER,ALR-027,,0,LGM-ALR-027,646,Pashai,6,1484.641968,34.8403,70.4696,LGM,ALR,Dak Maly,704,Alingar,???????,Laghman,?????,7
25183,25184,Yale POP_MASTER,ALR-029,,0,LGM-ALR-029,548,Pashai,6,1343.775024,34.8602,70.46,LGM,ALR,Degar Qala Mandal,704,Alingar,???????,Laghman,?????,7
25184,25185,Yale POP_MASTER,ALR-030,,0,LGM-ALR-030,253,Pashai,6,1405.214966,34.7341,70.4333,LGM,ALR,Dumbalak,704,Alingar,???????,Laghman,?????,7
25185,25186,Yale POP_MASTER,ALR-031,,0,LGM-ALR-031,1690,Pashai,6,1706.714966,34.7733,70.4772,LGM,ALR,Eshkamesh,704,Alingar,???????,Laghman,?????,7
25186,25187,Yale POP_MASTER,ALR-038,,0,LGM-ALR-038,854,Pashai,6,1379.963989,34.847,70.4498,LGM,ALR,Hooghulam,704,Alingar,???????,Laghman,?????,7
25187,25188,Yale POP_MASTER,ALR-041,,0,LGM-ALR-041,1061,Pashto,2,1161.100952,34.8353,70.3096,LGM,ALR,Kachor,704,Alingar,???????,Laghman,?????,7
25188,25189,Yale POP_MASTER,ALR-046,,0,LGM-ALR-046,756,Pashto,2,901.612793,34.8206,70.3573,LGM,ALR,Kampa,704,Alingar,???????,Laghman,?????,7
25189,25190,Yale POP_MASTER,ALR-047,,0,LGM-ALR-047,1917,Pashai,6,1267.3120119999999,34.728,70.4225,LGM,ALR,Kasar Dadga,704,Alingar,???????,Laghman,?????,7
25190,25191,Yale POP_MASTER,ALR-050,,0,LGM-ALR-050,390,Pashai,6,1310.626953,34.8886,70.3284,LGM,ALR,Khowja Kot,704,Alingar,???????,Laghman,?????,7
25191,25192,Yale POP_MASTER,ALR-051,,0,LGM-ALR-051,113,Pashto,2,977.9777832000001,34.8621,70.3592,LGM,ALR,Kokar Mango,704,Alingar,???????,Laghman,?????,7
25192,25193,Yale POP_MASTER,ALR-053,,0,LGM-ALR-053,936,Pashai,6,1212.165039,34.8602,70.4371,LGM,ALR,Kolag,704,Alingar,???????,Laghman,?????,7
25193,25194,Yale POP_MASTER,ALR-060,,0,LGM-ALR-060,619,Pashai,6,1465.2459720000002,34.8452,70.4641,LGM,ALR,Mach Kala,704,Alingar,???????,Laghman,?????,7
25194,25195,Yale POP_MASTER,ALR-061,,0,LGM-ALR-061,961,Pashai,6,1308.213013,34.8522,70.449,LGM,ALR,Mandol,704,Alingar,???????,Laghman,?????,7
25195,25196,Yale POP_MASTER,ALR-062,,0,LGM-ALR-062,470,Pashto,2,1035.612061,34.7581,70.388,LGM,ALR,Mandozai,704,Alingar,???????,Laghman,?????,7
25196,25197,Yale POP_MASTER,ALR-063,,0,LGM-ALR-063,1929,Pashto,2,958.7844848999999,34.8843,70.3777,LGM,ALR,Mango,704,Alingar,???????,Laghman,?????,7
25197,25198,Yale POP_MASTER,ALR-068,,0,LGM-ALR-068,728,Pashto,2,936.2015991000001,34.8351,70.3593,LGM,ALR,Musken Abad,704,Alingar,???????,Laghman,?????,7
25198,25199,Yale POP_MASTER,ALR-071,,0,LGM-ALR-071,1219,Pashai,6,1272.0,34.8616,70.4525,LGM,ALR,Nooralam,704,Alingar,???????,Laghman,?????,7
25199,25200,Yale POP_MASTER,ALR-073,,0,LGM-ALR-073,478,Pashai,6,1128.956055,34.7425,70.3996,LGM,ALR,Palwasa,704,Alingar,???????,Laghman,?????,7
25200,25201,Yale POP_MASTER,ALR-076,,0,LGM-ALR-076,2136,Pashto,2,994.6942139,34.8676,70.38,LGM,ALR,Parwaye Hulya,704,Alingar,???????,Laghman,?????,7
25201,25202,Yale POP_MASTER,ALR-077,,0,LGM-ALR-077,1754,Pashai,6,965.111084,34.865,70.3691,LGM,ALR,Parwaye Sufla,704,Alingar,???????,Laghman,?????,7
25202,25203,Yale POP_MASTER,ALR-078,,0,LGM-ALR-078,3018,Pashto,2,1139.639038,34.8606,70.4206,LGM,ALR,Paryana,704,Alingar,???????,Laghman,?????,7
25203,25204,Yale POP_MASTER,ALR-080,,0,LGM-ALR-080,1009,Pashai,6,1573.144043,34.7743,70.4671,LGM,ALR,Qala,704,Alingar,???????,Laghman,?????,7
25204,25205,Yale POP_MASTER,ALR-081,,0,LGM-ALR-081,1060,Pashto,2,1260.811035,34.7752,70.4328,LGM,ALR,Qaltak,704,Alingar,???????,Laghman,?????,7
25205,25206,Yale POP_MASTER,ALR-085,,0,LGM-ALR-085,286,Pashai,6,1906.312988,34.8394,70.5275,LGM,ALR,Sahor,704,Alingar,???????,Laghman,?????,7
25206,25207,Yale POP_MASTER,ALR-086,,0,LGM-ALR-086,273,Pashto,2,887.1975707999999,34.8151,70.3527,LGM,ALR,Sakhar,704,Alingar,???????,Laghman,?????,7
25207,25208,Yale POP_MASTER,ALR-087,,0,LGM-ALR-087,335,Pashai,6,1471.619019,34.7748,70.4549,LGM,ALR,Salawa,704,Alingar,???????,Laghman,?????,7
25208,25209,Yale POP_MASTER,ALR-088,,0,LGM-ALR-088,2032,Pashai,6,1460.572998,34.8514,70.2726,LGM,ALR,Salo Hulya,704,Alingar,???????,Laghman,?????,7
25209,25210,Yale POP_MASTER,ALR-089,,0,LGM-ALR-089,1735,Pashto,2,1337.45105,34.8488,70.29,LGM,ALR,Salo Sufla,704,Alingar,???????,Laghman,?????,7
25210,25211,Yale POP_MASTER,ALR-090,,0,LGM-ALR-090,723,Pashai,6,1348.426025,34.7763,70.4415,LGM,ALR,Sami,704,Alingar,???????,Laghman,?????,7
25211,25212,Yale POP_MASTER,ALR-091,,0,LGM-ALR-091,429,Pashai,6,988.3784789999999,34.8715,70.3586,LGM,ALR,Sand Rowa,704,Alingar,???????,Laghman,?????,7
25212,25213,Yale POP_MASTER,ALR-092,,0,LGM-ALR-092,553,Pashai,6,1769.552002,34.8399,70.5129,LGM,ALR,Sangarak,704,Alingar,???????,Laghman,?????,7
25213,25214,Yale POP_MASTER,ALR-093,,0,LGM-ALR-093,781,Pashto,2,1026.475952,34.7659,70.3911,LGM,ALR,Saram Khail,704,Alingar,???????,Laghman,?????,7
25214,25215,Yale POP_MASTER,ALR-094,,0,LGM-ALR-094,457,Pashai,6,1609.962036,34.7656,70.4542,LGM,ALR,See Tan,704,Alingar,???????,Laghman,?????,7
25215,25216,Yale POP_MASTER,ALR-095,,0,LGM-ALR-095,537,Pashto,2,1067.352051,34.7674,70.4027,LGM,ALR,Shafalam Hazat Khail,704,Alingar,???????,Laghman,?????,7
25216,25217,Yale POP_MASTER,ALR-097,,0,LGM-ALR-097,517,Pashto,2,924.6276855000001,34.842,70.3629,LGM,ALR,Shahi,704,Alingar,???????,Laghman,?????,7
25217,25218,Yale POP_MASTER,ALR-101,,0,LGM-ALR-101,744,Pashai,6,1387.5529789999998,34.8487,70.4605,LGM,ALR,Shorot,704,Alingar,???????,Laghman,?????,7
25218,25219,Yale POP_MASTER,ALR-102,,0,LGM-ALR-102,561,Pashto,2,1031.5629880000001,34.7598,70.3785,LGM,ALR,Showar Khail,704,Alingar,???????,Laghman,?????,7
25219,25220,Yale POP_MASTER,ALR-103,,0,LGM-ALR-103,349,Pashai,6,1166.071045,34.738,70.4086,LGM,ALR,Sorak,704,Alingar,???????,Laghman,?????,7
25220,25221,Yale POP_MASTER,ALR-104,,0,LGM-ALR-104,1004,Pashai,6,1504.248047,34.8948,70.3038,LGM,ALR,Tag,704,Alingar,???????,Laghman,?????,7
25221,25222,Yale POP_MASTER,ALR-108,,0,LGM-ALR-108,1319,Pashto,2,955.2940062999999,34.8807,70.3674,LGM,ALR,Warnata,704,Alingar,???????,Laghman,?????,7
25222,25223,Yale POP_MASTER,ALR-109,,0,LGM-ALR-109,952,Pashai,6,1079.739014,34.8636,70.3996,LGM,ALR,Wat Jabar Khail,704,Alingar,???????,Laghman,?????,7
25223,25224,Yale POP_MASTER,ALR-110,District,1,LGM-ALR-110,900,Pashto,2,912.5927124,34.8409,70.3639,LGM,ALR,Alingar,704,Alingar,???????,Laghman,?????,7
25224,25225,Yale POP_MASTER,ALR-111,,0,LGM-ALR-111,900,Pashto,2,1059.5410160000001,34.766,70.3999,LGM,ALR,Garoch,704,Alingar,???????,Laghman,?????,7
25225,25226,Yale POP_MASTER,ALR-042,,0,LGM-ALR-042,1215,Pashai,6,1667.217041,34.6852,70.3866,LGM,ALR,Kaho,704,Alingar,???????,Laghman,?????,7
25226,25227,Yale POP_MASTER,ALR-048,,0,LGM-ALR-048,148,Pashai,6,1407.467041,34.7087,70.3809,LGM,ALR,Khalila,704,Alingar,???????,Laghman,?????,7
25227,25228,Yale POP_MASTER,ALR-059,,0,LGM-ALR-059,444,Pashai,6,1697.714966,34.7028,70.437,LGM,ALR,Lamteak,704,Alingar,???????,Laghman,?????,7
25228,25229,USAID AIDVillageView,ALG-143,,0,LGM-ALG-143,0,Pashai,6,1969.4000239999998,34.9275,70.2076,LGM,ALG,Pandaw,702,Alishang,??????,Laghman,?????,7
25229,25230,USAID AIDVillageView,DAI-005,,0,LGM-DAI-005,0,Pashai,6,1706.9659420000003,34.9745,70.0631,LGM,DAI,Darrah-e Nawia,705,Dawlatshah,???? ???,Laghman,?????,7
25230,25231,CSO AIMS Villages (ACSOR),DAI-012,,0,LGM-DAI-012,1028,Pashai,6,2008.4790039999998,35.00853,70.08085,LGM,DAI,Dala Dahi,705,Dawlatshah,???? ???,Laghman,?????,7
25231,25232,CSO AIMS Villages (ACSOR),DAI-013,,0,LGM-DAI-013,392,Pashai,6,1752.512939,34.978590000000004,70.10861,LGM,DAI,Suliman Kacha,705,Dawlatshah,???? ???,Laghman,?????,7
25232,25233,Yale POP_MASTER,ALG-127,,0,LGM-ALG-127,414,Pashai,6,1648.6719970000001,34.9084,70.1658,LGM,ALG,Shella Gul,702,Alishang,??????,Laghman,?????,7
25233,25234,Yale POP_MASTER,ALG-131,,0,LGM-ALG-131,1222,Pashai,6,1607.983032,34.9128,70.1675,LGM,ALG,Taely,702,Alishang,??????,Laghman,?????,7
25234,25235,Yale POP_MASTER,ALG-132,,0,LGM-ALG-132,339,Pashai,6,1518.515015,34.8749,70.1309,LGM,ALG,Tamen,702,Alishang,??????,Laghman,?????,7
25235,25236,Yale POP_MASTER,ALG-133,,0,LGM-ALG-133,1032,Pashai,6,1878.05896,34.9067,70.1993,LGM,ALG,Tapa Kal,702,Alishang,??????,Laghman,?????,7
25236,25237,Yale POP_MASTER,ALG-136,,0,LGM-ALG-136,417,Pashai,6,1643.541992,34.9018,70.0733,LGM,ALG,Wahd Toon,702,Alishang,??????,Laghman,?????,7
25237,25238,Yale POP_MASTER,ALG-061,,0,LGM-ALG-061,308,Pashai,6,1916.2130129999998,34.8854,70.0344,LGM,ALG,Kawni,702,Alishang,??????,Laghman,?????,7
25238,25239,Yale POP_MASTER,ALG-062,,0,LGM-ALG-062,1216,Pashai,6,2015.44397,34.8907,70.0109,LGM,ALG,Khandly,702,Alishang,??????,Laghman,?????,7
25239,25240,Yale POP_MASTER,ALG-067,,0,LGM-ALG-067,543,Pashai,6,1407.036011,34.9013,70.1009,LGM,ALG,Kotta,702,Alishang,??????,Laghman,?????,7
25240,25241,Yale POP_MASTER,ALG-068,,0,LGM-ALG-068,715,Pashai,6,1614.362061,34.8919,70.0599,LGM,ALG,Kotwal Khando,702,Alishang,??????,Laghman,?????,7
25241,25242,Yale POP_MASTER,ALG-071,,0,LGM-ALG-071,429,Pashai,6,1441.366943,34.9025,70.1392,LGM,ALG,Kundi,702,Alishang,??????,Laghman,?????,7
25242,25243,Yale POP_MASTER,ALG-077,,0,LGM-ALG-077,963,Pashai,6,2047.244995,34.8879,70.0237,LGM,ALG,Manjelam,702,Alishang,??????,Laghman,?????,7
25243,25244,Yale POP_MASTER,ALG-080,,0,LGM-ALG-080,252,Pashai,6,1904.328979,34.8848,70.0687,LGM,ALG,Melam,702,Alishang,??????,Laghman,?????,7
25244,25245,Yale POP_MASTER,ALG-086,,0,LGM-ALG-086,502,Pashto,2,1276.0629880000001,34.8788,70.1078,LGM,ALG,Najel,702,Alishang,??????,Laghman,?????,7
25245,25246,Yale POP_MASTER,ALG-006,,0,LGM-ALG-006,283,Pashai,6,1732.9790039999998,34.8932,70.0957,LGM,ALG,Ahangaroto,702,Alishang,??????,Laghman,?????,7
25246,25247,Yale POP_MASTER,ALG-059,,0,LGM-ALG-059,472,Pashai,6,1284.790039,34.8698,70.1049,LGM,ALG,Kasi Gar,702,Alishang,??????,Laghman,?????,7
25247,25248,Yale POP_MASTER,ALG-092,,0,LGM-ALG-092,471,Pashai,6,1832.793945,34.9155,70.1977,LGM,ALG,Noori Hulya,702,Alishang,??????,Laghman,?????,7
25248,25249,Yale POP_MASTER,ALG-093,,0,LGM-ALG-093,559,Pashai,6,1740.812988,34.913000000000004,70.1848,LGM,ALG,Noori Sufla,702,Alishang,??????,Laghman,?????,7
25249,25250,Yale POP_MASTER,ALG-094,,0,LGM-ALG-094,98,Pashai,6,1806.7159420000003,34.8992,70.0395,LGM,ALG,Palak Wato,702,Alishang,??????,Laghman,?????,7
25250,25251,Yale POP_MASTER,ALG-096,,0,LGM-ALG-096,868,Pashai,6,2138.832031,34.9067,70.2174,LGM,ALG,Panda,702,Alishang,??????,Laghman,?????,7
25251,25252,Yale POP_MASTER,ALG-098,,0,LGM-ALG-098,385,Pashai,6,1329.703979,34.8804,70.1046,LGM,ALG,Pat Gana,702,Alishang,??????,Laghman,?????,7
25252,25253,Yale POP_MASTER,ALG-102,,0,LGM-ALG-102,92,Pashai,6,1747.089966,34.9129,70.1908,LGM,ALG,Qachar Khandow,702,Alishang,??????,Laghman,?????,7
25253,25254,Yale POP_MASTER,ALG-106,,0,LGM-ALG-106,1537,Pashai,6,1308.6719970000001,34.8906,70.1096,LGM,ALG,Qala Najel,702,Alishang,??????,Laghman,?????,7
25254,25255,Yale POP_MASTER,ALG-112,,0,LGM-ALG-112,241,Pashai,6,1968.718018,34.8829,70.0804,LGM,ALG,Rajakott,702,Alishang,??????,Laghman,?????,7
25255,25256,Yale POP_MASTER,ALG-115,,0,LGM-ALG-115,267,Pashai,6,1513.840942,34.8968,70.0802,LGM,ALG,Samar Lam,702,Alishang,??????,Laghman,?????,7
25256,25257,Yale POP_MASTER,ALG-118,,0,LGM-ALG-118,427,Pashai,6,1315.994019,34.8856,70.1063,LGM,ALG,Shaikh Ator,702,Alishang,??????,Laghman,?????,7
25257,25258,Yale POP_MASTER,ALG-121,,0,LGM-ALG-121,645,Pashai,6,1546.072998,34.9089,70.1555,LGM,ALG,Shama,702,Alishang,??????,Laghman,?????,7
25258,25259,Yale POP_MASTER,ALG-010,,0,LGM-ALG-010,79,Pashai,6,2372.239014,34.8825,70.0064,LGM,ALG,Andoli,702,Alishang,??????,Laghman,?????,7
25259,25260,Yale POP_MASTER,ALG-014,,0,LGM-ALG-014,786,Pashai,6,2116.22998,34.8784,70.0256,LGM,ALG,Baber Khandow,702,Alishang,??????,Laghman,?????,7
25260,25261,Yale POP_MASTER,ALG-015,,0,LGM-ALG-015,626,Pashai,6,2085.381104,34.8979,70.0311,LGM,ALG,Bam Hussain Hulya,702,Alishang,??????,Laghman,?????,7
25261,25262,Yale POP_MASTER,ALG-016,,0,LGM-ALG-016,305,Pashai,6,1973.4739989999998,34.8913,70.0338,LGM,ALG,Bam Hussain Sufla,702,Alishang,??????,Laghman,?????,7
25262,25263,Yale POP_MASTER,ALG-023,,0,LGM-ALG-023,193,Pashai,6,1583.625977,34.8922,70.066,LGM,ALG,Baz Khanda,702,Alishang,??????,Laghman,?????,7
25263,25264,Yale POP_MASTER,ALG-025,,0,LGM-ALG-025,345,Pashai,6,1543.546021,34.9027,70.1477,LGM,ALG,Burawon,702,Alishang,??????,Laghman,?????,7
25264,25265,Yale POP_MASTER,ALG-031,,0,LGM-ALG-031,448,Pashai,6,1681.9169920000002,34.9151,70.179,LGM,ALG,Darzi,702,Alishang,??????,Laghman,?????,7
25265,25266,Yale POP_MASTER,ALG-037,,0,LGM-ALG-037,562,Pashai,6,1317.1639400000001,34.8954,70.1099,LGM,ALG,Dum Lam,702,Alishang,??????,Laghman,?????,7
25266,25267,Yale POP_MASTER,ALG-038,,0,LGM-ALG-038,350,Pashai,6,1419.935059,34.9068,70.0946,LGM,ALG,Dum Leach,702,Alishang,??????,Laghman,?????,7
25267,25268,Yale POP_MASTER,ALG-044,,0,LGM-ALG-044,596,Pashai,6,1549.9470210000002,34.9092,70.1592,LGM,ALG,Gow Manda,702,Alishang,??????,Laghman,?????,7
25268,25269,Yale POP_MASTER,ALG-046,,0,LGM-ALG-046,935,Pashai,6,1282.256958,34.8825,70.112,LGM,ALG,Gul Ota,702,Alishang,??????,Laghman,?????,7
25269,25270,Yale POP_MASTER,ALG-048,,0,LGM-ALG-048,296,Pashai,6,1390.758057,34.9014,70.1267,LGM,ALG,Gumrahi,702,Alishang,??????,Laghman,?????,7
25270,25271,Yale POP_MASTER,DAI-014,,0,LGM-DAI-014,169,Dari,1,2069.061035,35.003,69.9832,LGM,DAI,Ab Too,705,Dawlatshah,???? ???,Laghman,?????,7
25271,25272,Yale POP_MASTER,DAI-015,,0,LGM-DAI-015,292,Pashai,6,2215.218018,35.0107,70.1394,LGM,DAI,Angosh,705,Dawlatshah,???? ???,Laghman,?????,7
25272,25273,Yale POP_MASTER,DAI-017,,0,LGM-DAI-017,405,Pashai,6,1652.64502,34.9698,70.0912,LGM,DAI,Atak Chakla,705,Dawlatshah,???? ???,Laghman,?????,7
25273,25274,Yale POP_MASTER,DAI-018,,0,LGM-DAI-018,736,Pashai,6,1760.505005,34.9765,70.0626,LGM,DAI,Atorow,705,Dawlatshah,???? ???,Laghman,?????,7
25274,25275,Yale POP_MASTER,DAI-019,,0,LGM-DAI-019,259,Pashai,6,1463.410034,34.9388,70.0854,LGM,DAI,Awalak,705,Dawlatshah,???? ???,Laghman,?????,7
25275,25276,Yale POP_MASTER,DAI-020,,0,LGM-DAI-020,1875,Pashai,6,1933.301025,34.996,69.9946,LGM,DAI,Awdor Mak,705,Dawlatshah,???? ???,Laghman,?????,7
25276,25277,Yale POP_MASTER,DAI-021,,0,LGM-DAI-021,614,Pashai,6,1559.355957,34.9585,70.078,LGM,DAI,Bangari,705,Dawlatshah,???? ???,Laghman,?????,7
25277,25278,Yale POP_MASTER,DAI-023,,0,LGM-DAI-023,352,Pashai,6,1970.290039,34.9809,70.1351,LGM,DAI,Bar Khando,705,Dawlatshah,???? ???,Laghman,?????,7
25278,25279,Yale POP_MASTER,DAI-024,,0,LGM-DAI-024,687,Pashai,6,1562.845947,34.9242,70.1076,LGM,DAI,Bomby,705,Dawlatshah,???? ???,Laghman,?????,7
25279,25280,Yale POP_MASTER,DAI-027,,0,LGM-DAI-027,923,Pashai,6,1690.489014,34.961,70.0394,LGM,DAI,Chandal,705,Dawlatshah,???? ???,Laghman,?????,7
25280,25281,Yale POP_MASTER,DAI-032,,0,LGM-DAI-032,286,Pashai,6,1415.243042,34.9203,70.0944,LGM,DAI,Darangi,705,Dawlatshah,???? ???,Laghman,?????,7
25281,25282,Yale POP_MASTER,DAI-033,,0,LGM-DAI-033,501,Pashai,6,1496.4689939999998,34.9192,70.1033,LGM,DAI,Darata,705,Dawlatshah,???? ???,Laghman,?????,7
25282,25283,Yale POP_MASTER,DAI-034,,0,LGM-DAI-034,388,Pashai,6,1586.6130369999998,34.9464,70.0696,LGM,DAI,Darona Qala,705,Dawlatshah,???? ???,Laghman,?????,7
25283,25284,Yale POP_MASTER,DAI-035,,0,LGM-DAI-035,684,Pashai,6,1657.7230220000001,34.9406,70.062,LGM,DAI,Dawlat Shah Markaz Wolluswaly,705,Dawlatshah,???? ???,Laghman,?????,7
25284,25285,Yale POP_MASTER,DAI-036,,0,LGM-DAI-036,203,Pashai,6,1898.6190190000002,34.9877,70.1122,LGM,DAI,Do Koh Chakla,705,Dawlatshah,???? ???,Laghman,?????,7
25285,25286,Yale POP_MASTER,DAI-037,,0,LGM-DAI-037,1087,Pashai,6,1789.250977,34.9843,70.0646,LGM,DAI,Domer,705,Dawlatshah,???? ???,Laghman,?????,7
25286,25287,Yale POP_MASTER,DAI-038,,0,LGM-DAI-038,587,Pashai,6,1923.287964,34.9556,70.0169,LGM,DAI,Gadyala,705,Dawlatshah,???? ???,Laghman,?????,7
25287,25288,Yale POP_MASTER,DAI-040,,0,LGM-DAI-040,439,Pashai,6,1419.198975,34.9263,70.0903,LGM,DAI,Ganda Gar,705,Dawlatshah,???? ???,Laghman,?????,7
25288,25289,Yale POP_MASTER,DAI-041,,0,LGM-DAI-041,380,Dari,1,2001.7910160000001,35.0023,70.07600000000001,LGM,DAI,Gosh Dor,705,Dawlatshah,???? ???,Laghman,?????,7
25289,25290,Yale POP_MASTER,DAI-042,,0,LGM-DAI-042,958,Pashai,6,2110.445068,34.9901,69.9955,LGM,DAI,Kail,705,Dawlatshah,???? ???,Laghman,?????,7
25290,25291,Yale POP_MASTER,DAI-043,,0,LGM-DAI-043,183,Pashai,6,2329.2919920000004,35.0368,70.0927,LGM,DAI,Kalder,705,Dawlatshah,???? ???,Laghman,?????,7
25291,25292,Yale POP_MASTER,DAI-045,,0,LGM-DAI-045,1075,Pashai,6,1904.015991,34.9938,70.0723,LGM,DAI,Kashlam,705,Dawlatshah,???? ???,Laghman,?????,7
25292,25293,Yale POP_MASTER,DAI-047,,0,LGM-DAI-047,149,Pashai,6,2678.224121,35.0467,70.0906,LGM,DAI,Khanda Low,705,Dawlatshah,???? ???,Laghman,?????,7
25293,25294,Yale POP_MASTER,DAI-048,,0,LGM-DAI-048,687,Pashai,6,2440.281982,34.989000000000004,70.1553,LGM,DAI,Khando,705,Dawlatshah,???? ???,Laghman,?????,7
25294,25295,Yale POP_MASTER,DAI-049,,0,LGM-DAI-049,1037,Pashai,6,1642.671021,34.9649,70.0546,LGM,DAI,Khojal Khando,705,Dawlatshah,???? ???,Laghman,?????,7
25295,25296,Yale POP_MASTER,DAI-050,,0,LGM-DAI-050,501,Pashai,6,2278.083984,34.9832,70.154,LGM,DAI,Kolal Kott,705,Dawlatshah,???? ???,Laghman,?????,7
25296,25297,Yale POP_MASTER,DAI-051,,0,LGM-DAI-051,439,Pashai,6,1374.985962,34.9116,70.0979,LGM,DAI,Koshak,705,Dawlatshah,???? ???,Laghman,?????,7
25297,25298,Yale POP_MASTER,DAI-052,,0,LGM-DAI-052,316,Pashai,6,1883.901978,34.9509,70.0884,LGM,DAI,Kulalan,705,Dawlatshah,???? ???,Laghman,?????,7
25298,25299,Yale POP_MASTER,DAI-053,,0,LGM-DAI-053,697,Pashai,6,1536.462036,34.9372,70.0818,LGM,DAI,Lambri,705,Dawlatshah,???? ???,Laghman,?????,7
25299,25300,Yale POP_MASTER,DAI-054,,0,LGM-DAI-054,750,Pashai,6,1826.7709960000002,34.9346,70.0627,LGM,DAI,Maho,705,Dawlatshah,???? ???,Laghman,?????,7
25300,25301,Yale POP_MASTER,DAI-055,,0,LGM-DAI-055,347,Pashai,6,2313.805908,35.0243,70.0868,LGM,DAI,Makel,705,Dawlatshah,???? ???,Laghman,?????,7
25301,25302,Yale POP_MASTER,DAI-056,,0,LGM-DAI-056,736,Pashai,6,1541.848999,34.9439,70.0781,LGM,DAI,Malangani,705,Dawlatshah,???? ???,Laghman,?????,7
25302,25303,Yale POP_MASTER,DAI-057,,0,LGM-DAI-057,777,Pashai,6,1884.6040039999998,34.9325,70.0468,LGM,DAI,Manan Gor,705,Dawlatshah,???? ???,Laghman,?????,7
25303,25304,Yale POP_MASTER,DAI-058,,0,LGM-DAI-058,488,Pashai,6,1395.89502,34.9157,70.0991,LGM,DAI,Mandor,705,Dawlatshah,???? ???,Laghman,?????,7
25304,25305,Yale POP_MASTER,DAI-060,,0,LGM-DAI-060,310,Pashai,6,1541.920044,34.9524,70.0696,LGM,DAI,Mara,705,Dawlatshah,???? ???,Laghman,?????,7
25305,25306,Yale POP_MASTER,DAI-061,,0,LGM-DAI-061,813,Pashai,6,1972.516968,34.9865,70.0067,LGM,DAI,Mash Kundi,705,Dawlatshah,???? ???,Laghman,?????,7
25306,25307,Yale POP_MASTER,DAI-062,,0,LGM-DAI-062,1081,Pashai,6,1653.2070310000001,34.9568,70.0558,LGM,DAI,Masmote,705,Dawlatshah,???? ???,Laghman,?????,7
25307,25308,Yale POP_MASTER,DAI-064,,0,LGM-DAI-064,391,Pashai,6,2049.173096,34.9842,69.9974,LGM,DAI,Meyou,705,Dawlatshah,???? ???,Laghman,?????,7
25308,25309,Yale POP_MASTER,DAI-065,,0,LGM-DAI-065,407,Pashai,6,1685.930054,34.9726,70.0972,LGM,DAI,Nala,705,Dawlatshah,???? ???,Laghman,?????,7
25309,25310,Yale POP_MASTER,DAI-067,,0,LGM-DAI-067,229,Pashai,6,1526.915039,34.9278,70.0825,LGM,DAI,Noora,705,Dawlatshah,???? ???,Laghman,?????,7
25310,25311,Yale POP_MASTER,DAI-071,,0,LGM-DAI-071,286,Pashai,6,2382.844971,34.9765,70.1458,LGM,DAI,Rendi,705,Dawlatshah,???? ???,Laghman,?????,7
25311,25312,Yale POP_MASTER,DAI-074,,0,LGM-DAI-074,488,Pashai,6,2537.114014,34.9678,70.1565,LGM,DAI,Sayak,705,Dawlatshah,???? ???,Laghman,?????,7
25312,25313,Yale POP_MASTER,DAI-075,,0,LGM-DAI-075,747,Pashai,6,1896.375977,34.981,70.1223,LGM,DAI,Shad Mir,705,Dawlatshah,???? ???,Laghman,?????,7
25313,25314,Yale POP_MASTER,DAI-076,,0,LGM-DAI-076,259,Pashai,6,1499.6290279999998,34.9143,70.0921,LGM,DAI,Shahi,705,Dawlatshah,???? ???,Laghman,?????,7
25314,25315,Yale POP_MASTER,DAI-077,,0,LGM-DAI-077,1081,Pashai,6,1590.737061,34.9622,70.083,LGM,DAI,Shair Bakami,705,Dawlatshah,???? ???,Laghman,?????,7
25315,25316,Yale POP_MASTER,DAI-078,,0,LGM-DAI-078,423,Pashai,6,1776.4549559999998,34.9656,70.0262,LGM,DAI,Tambala,705,Dawlatshah,???? ???,Laghman,?????,7
25316,25317,Yale POP_MASTER,DAI-079,,0,LGM-DAI-079,681,Pashai,6,1555.4959720000002,34.951,70.0783,LGM,DAI,Wais,705,Dawlatshah,???? ???,Laghman,?????,7
25317,25318,Yale POP_MASTER,DAI-080,,0,LGM-DAI-080,548,Pashai,6,2135.13501,35.0044,70.1389,LGM,DAI,Zhorandi,705,Dawlatshah,???? ???,Laghman,?????,7
25318,25319,Yale POP_MASTER,DAI-081,District,1,LGM-DAI-081,4974,Pashai,6,1527.465942,34.9487,70.0725,LGM,DAI,Daulatshahi,705,Dawlatshah,???? ???,Laghman,?????,7
25319,25320,Yale POP_MASTER,DAI-039,,0,LGM-DAI-039,995,Dari,1,3023.73999,34.9921,69.8927,LGM,DAI,Gaman Dok,705,Dawlatshah,???? ???,Laghman,?????,7
25320,25321,Yale POP_MASTER,DAI-063,,0,LGM-DAI-063,987,Pashai,6,2707.354004,34.9954,69.9243,LGM,DAI,Menjaghan,705,Dawlatshah,???? ???,Laghman,?????,7
26213,26214,USAID AIDVillageView,DAI-002,,0,LGM-DAI-002,0,Dari,1,2420.229004,35.0486,69.9427,LGM,DAI,Chasht Dara-i- Sufla,705,Dawlatshah,???? ???,Laghman,?????,7
26214,26215,USAID AIDVillageView,DAI-007,,0,LGM-DAI-007,0,Dari,1,2919.139893,35.0805,69.985,LGM,DAI,Jorkani Payan,705,Dawlatshah,???? ???,Laghman,?????,7
26215,26216,USAID AIDVillageView,DAI-010,,0,LGM-DAI-010,0,Dari,1,2764.5939940000003,35.073,69.9585,LGM,DAI,Sare Qol,705,Dawlatshah,???? ???,Laghman,?????,7
26216,26217,CSO AIMS Villages (ACSOR),DAI-011,,0,LGM-DAI-011,306,Dari,1,2315.6879879999997,35.02418,69.93465,LGM,DAI,Bala Dahi,705,Dawlatshah,???? ???,Laghman,?????,7
26217,26218,Yale POP_MASTER,DAI-025,,0,LGM-DAI-025,718,Pashai,6,3102.579102,35.0888,69.9878,LGM,DAI,Chakar Kani Bala,705,Dawlatshah,???? ???,Laghman,?????,7
26218,26219,Yale POP_MASTER,DAI-026,,0,LGM-DAI-026,494,Dari,1,2875.123047,35.0787,69.9859,LGM,DAI,Chakar Katepayen,705,Dawlatshah,???? ???,Laghman,?????,7
26219,26220,Yale POP_MASTER,DAI-028,,0,LGM-DAI-028,1155,Dari,1,2609.85498,35.0804,69.9327,LGM,DAI,Chashedar,705,Dawlatshah,???? ???,Laghman,?????,7
26220,26221,Yale POP_MASTER,DAI-030,,0,LGM-DAI-030,468,Dari,1,2646.591064,35.062,69.9782,LGM,DAI,Dahan Geran,705,Dawlatshah,???? ???,Laghman,?????,7
26221,26222,Yale POP_MASTER,DAI-031,,0,LGM-DAI-031,740,Dari,1,2388.096924,35.0469,69.9549,LGM,DAI,Dahi Kalan,705,Dawlatshah,???? ???,Laghman,?????,7
26222,26223,Yale POP_MASTER,DAI-044,,0,LGM-DAI-044,303,Dari,1,2269.054932,35.0325,69.9551,LGM,DAI,Kark,705,Dawlatshah,???? ???,Laghman,?????,7
26223,26224,Yale POP_MASTER,DAI-046,,0,LGM-DAI-046,449,Dari,1,2496.063965,35.0524,69.9413,LGM,DAI,Khad Nekah,705,Dawlatshah,???? ???,Laghman,?????,7
26224,26225,Yale POP_MASTER,DAI-059,,0,LGM-DAI-059,238,Dari,1,2148.4760739999997,35.022,69.9546,LGM,DAI,Mangal Pour,705,Dawlatshah,???? ???,Laghman,?????,7
26225,26226,Yale POP_MASTER,DAI-066,,0,LGM-DAI-066,1870,Dari,1,2143.5830079999996,35.0141,69.961,LGM,DAI,Neil Khan,705,Dawlatshah,???? ???,Laghman,?????,7
26226,26227,Yale POP_MASTER,DAI-073,,0,LGM-DAI-073,375,Dari,1,2207.0979,35.022,69.9472,LGM,DAI,Sar Mangalpour,705,Dawlatshah,???? ???,Laghman,?????,7
26227,26228,Yale POP_MASTER,DAI-016,,0,LGM-DAI-016,263,Dari,1,2564.417969,35.0219,69.9205,LGM,DAI,Ari Wa,705,Dawlatshah,???? ???,Laghman,?????,7
26228,26229,Yale POP_MASTER,DAI-022,,0,LGM-DAI-022,199,Dari,1,2586.050049,35.0449,69.906,LGM,DAI,Baqoul Paya,705,Dawlatshah,???? ???,Laghman,?????,7
26229,26230,Yale POP_MASTER,DAI-069,,0,LGM-DAI-069,182,Dari,1,2509.334961,35.0356,69.9202,LGM,DAI,Obra,705,Dawlatshah,???? ???,Laghman,?????,7
26230,26231,Yale POP_MASTER,DAI-070,,0,LGM-DAI-070,1027,Dari,1,2404.863037,35.0165,69.9281,LGM,DAI,Paitak,705,Dawlatshah,???? ???,Laghman,?????,7
26231,26232,Yale POP_MASTER,DAI-029,,0,LGM-DAI-029,410,Dari,1,2886.64502,35.0529,69.8773,LGM,DAI,Choshak Zar,705,Dawlatshah,???? ???,Laghman,?????,7
26232,26233,Yale POP_MASTER,DAI-068,,0,LGM-DAI-068,136,Dari,1,2878.184082,35.0447,69.8903,LGM,DAI,Now Safa,705,Dawlatshah,???? ???,Laghman,?????,7
26233,26234,Yale POP_MASTER,DAI-072,,0,LGM-DAI-072,401,Dari,1,2687.456055,35.0489,69.8933,LGM,DAI,Sang Paitak,705,Dawlatshah,???? ???,Laghman,?????,7
27045,27046,USAID AIDVillageView,QGI-007,,0,LGM-QGI-007,0,Pashto,2,2028.64502,34.4311,69.9407,LGM,QGI,Myakhel,703,Qarghayi,???? ??,Laghman,?????,7
27065,27066,Yale POP_MASTER,QGI-026,,0,LGM-QGI-026,193,Pashto,2,1762.0219730000001,34.4435,69.899,LGM,QGI,Abdulrahim Zaye,703,Qarghayi,???? ??,Laghman,?????,7
27189,27190,Yale POP_MASTER,QGI-054,,0,LGM-QGI-054,112,Pashto,2,1402.505005,34.4365,70.071,LGM,QGI,Darga,703,Qarghayi,???? ??,Laghman,?????,7
27190,27191,Yale POP_MASTER,QGI-061,,0,LGM-QGI-061,85,Pashto,2,1655.410034,34.4293,70.0477,LGM,QGI,Garoche,703,Qarghayi,???? ??,Laghman,?????,7
27191,27192,Yale POP_MASTER,QGI-069,,0,LGM-QGI-069,58,Pashto,2,872.484314,34.4786,70.0222,LGM,QGI,Halyas Khail,703,Qarghayi,???? ??,Laghman,?????,7
27192,27193,Yale POP_MASTER,QGI-100,,0,LGM-QGI-100,106,Pashto,2,1591.4139400000001,34.4367,69.9842,LGM,QGI,Miran,703,Qarghayi,???? ??,Laghman,?????,7
27193,27194,Yale POP_MASTER,QGI-117,,0,LGM-QGI-117,102,Pashto,2,1933.5209960000002,34.4179,69.9723,LGM,QGI,Qala,703,Qarghayi,???? ??,Laghman,?????,7
27194,27195,Yale POP_MASTER,QGI-136,,0,LGM-QGI-136,110,Pashto,2,1142.171021,34.4496,70.0783,LGM,QGI,Sar Ki Sapraye,703,Qarghayi,???? ??,Laghman,?????,7
27195,27196,Yale POP_MASTER,QGI-138,,0,LGM-QGI-138,138,Pashto,2,1505.255981,34.4359,70.0555,LGM,QGI,Sarwak,703,Qarghayi,???? ??,Laghman,?????,7
27196,27197,Yale POP_MASTER,QGI-145,,0,LGM-QGI-145,90,Pashto,2,1056.498047,34.4726,69.9933,LGM,QGI,Shoye,703,Qarghayi,???? ??,Laghman,?????,7
27579,27580,Yale POP_MASTER,QGI-046,,0,LGM-QGI-046,122,Pashto,2,1198.911011,34.4523,70.1404,LGM,QGI,Changi,703,Qarghayi,???? ??,Laghman,?????,7
27580,27581,Yale POP_MASTER,QGI-137,,0,LGM-QGI-137,141,Pashto,2,1407.9219970000001,34.4329,70.0986,LGM,QGI,Sarok,703,Qarghayi,???? ??,Laghman,?????,7
27647,27648,USAID AIDVillageView,QGI-001,,0,LGM-QGI-001,0,Pashto,2,620.5725097999999,34.5233,70.2964,LGM,QGI,Charbagh(laghman),703,Qarghayi,???? ??,Laghman,?????,7
27648,27649,USAID AIDVillageView,QGI-002,,0,LGM-QGI-002,0,Pashto,2,636.5999756,34.5414,70.273,LGM,QGI,Dahandar,703,Qarghayi,???? ??,Laghman,?????,7
27649,27650,USAID AIDVillageView,QGI-003,,0,LGM-QGI-003,0,Pashto,2,608.3007202,34.5019,70.3049,LGM,QGI,Kolalan,703,Qarghayi,???? ??,Laghman,?????,7
27650,27651,USAID AIDVillageView,QGI-009,,0,LGM-QGI-009,0,Pashto,2,1458.740967,34.6343,70.3759,LGM,QGI,Parch Bandeh,703,Qarghayi,???? ??,Laghman,?????,7
27651,27652,USAID AIDVillageView,QGI-010,,0,LGM-QGI-010,0,Pashto,2,717.1444702,34.4839,70.2838,LGM,QGI,Pashah Gar (parak),703,Qarghayi,???? ??,Laghman,?????,7
27652,27653,USAID AIDVillageView,QGI-011,,0,LGM-QGI-011,0,Pashto,2,625.6353149,34.5338,70.26,LGM,QGI,Qal'eh Ye Mofti,703,Qarghayi,???? ??,Laghman,?????,7
27653,27654,USAID AIDVillageView,QGI-012,,0,LGM-QGI-012,0,Pashto,2,638.3338012999999,34.5444,70.2634,LGM,QGI,Qalatak,703,Qarghayi,???? ??,Laghman,?????,7
27654,27655,USAID AIDVillageView,QGI-014,,0,LGM-QGI-014,0,Pashto,2,618.6140747000001,34.5241,70.2697,LGM,QGI,Sawatay,703,Qarghayi,???? ??,Laghman,?????,7
27655,27656,CSO AIMS Villages (ACSOR),QGI-018,,0,LGM-QGI-018,529,Pashto,2,612.3997192,34.50692,70.2696,LGM,QGI,Dara Ghar,703,Qarghayi,???? ??,Laghman,?????,7
27656,27657,CSO AIMS Villages (ACSOR),QGI-020,,0,LGM-QGI-020,1692,Pashto,2,660.6157227000001,34.534459999999996,70.20989,LGM,QGI,Farman Khail (1),703,Qarghayi,???? ??,Laghman,?????,7
27657,27658,CSO AIMS Villages (ACSOR),QGI-021,,0,LGM-QGI-021,210,Pashto,2,610.901001,34.50607,70.27438000000001,LGM,QGI,Gadra,703,Qarghayi,???? ??,Laghman,?????,7
27658,27659,CSO AIMS Villages (ACSOR),QGI-022,,0,LGM-QGI-022,290,Pashto,2,695.6220703,34.54795,70.35477,LGM,QGI,Now Abad (1),703,Qarghayi,???? ??,Laghman,?????,7
27659,27660,CSO AIMS Villages (ACSOR),QGI-023,,0,LGM-QGI-023,291,Pashto,2,674.4747925,34.54603,70.31792,LGM,QGI,Now Abad (2),703,Qarghayi,???? ??,Laghman,?????,7
27660,27661,CSO AIMS Villages (ACSOR),QGI-024,,0,LGM-QGI-024,206,Pashto,2,613.0233764999999,34.5197,70.29097,LGM,QGI,Qala Qazi (1),703,Qarghayi,???? ??,Laghman,?????,7
27661,27662,CSO AIMS Villages (ACSOR),QGI-025,,0,LGM-QGI-025,671,Pashto,2,657.2324829,34.54809,70.21512,LGM,QGI,Qala Qazi (2),703,Qarghayi,???? ??,Laghman,?????,7
27662,27663,USAID AIDVillageView,MTM-040,,0,LGM-MTM-040,0,Pashto,2,793.3552246,34.5888,70.2576,LGM,MTM,Shahlatak,701,Mehtarlam,???? ???,Laghman,?????,7
27663,27664,Yale POP_MASTER,QGI-027,,0,LGM-QGI-027,968,Pashto,2,641.5258789,34.542,70.2358,LGM,QGI,Aghar Abad,703,Qarghayi,???? ??,Laghman,?????,7
27664,27665,Yale POP_MASTER,QGI-028,,0,LGM-QGI-028,858,Pashto,2,718.9749146,34.556999999999995,70.3429,LGM,QGI,Ahmad Zai Hulya,703,Qarghayi,???? ??,Laghman,?????,7
27665,27666,Yale POP_MASTER,QGI-029,,0,LGM-QGI-029,397,Pashto,2,748.28302,34.5502,70.3778,LGM,QGI,Ahmad Zai Sufla,703,Qarghayi,???? ??,Laghman,?????,7
27666,27667,Yale POP_MASTER,QGI-030,,0,LGM-QGI-030,358,Pashai,6,1500.801025,34.647,70.37899999999999,LGM,QGI,Amber,703,Qarghayi,???? ??,Laghman,?????,7
27667,27668,Yale POP_MASTER,QGI-031,,0,LGM-QGI-031,1177,Pashto,2,645.4868164,34.5401,70.22399999999999,LGM,QGI,Amir Kalay,703,Qarghayi,???? ??,Laghman,?????,7
27668,27669,Yale POP_MASTER,QGI-032,,0,LGM-QGI-032,230,Pashto,2,640.7678833,34.5331,70.2202,LGM,QGI,Andor,703,Qarghayi,???? ??,Laghman,?????,7
27669,27670,Yale POP_MASTER,QGI-033,,0,LGM-QGI-033,521,Pashto,2,616.0609131,34.5133,70.3565,LGM,QGI,Aziz Khan Kalay,703,Qarghayi,???? ??,Laghman,?????,7
27670,27671,Yale POP_MASTER,QGI-036,,0,LGM-QGI-036,318,Pashto,2,622.4354248,34.493,70.2708,LGM,QGI,Balo Kalay,703,Qarghayi,???? ??,Laghman,?????,7
27671,27672,Yale POP_MASTER,QGI-037,,0,LGM-QGI-037,786,Pashto,2,634.8024292,34.5312,70.238,LGM,QGI,Baloch Abad,703,Qarghayi,???? ??,Laghman,?????,7
27672,27673,Yale POP_MASTER,QGI-038,,0,LGM-QGI-038,16,Pashto,2,884.9824219000001,34.4842,70.3532,LGM,QGI,Band Daronta,703,Qarghayi,???? ??,Laghman,?????,7
27673,27674,Yale POP_MASTER,QGI-040,,0,LGM-QGI-040,255,Pashto,2,610.236084,34.4987,70.2868,LGM,QGI,Banda Mahr Dail,703,Qarghayi,???? ??,Laghman,?????,7
27674,27675,Yale POP_MASTER,QGI-042,,0,LGM-QGI-042,576,Pashai,6,1547.651001,34.6418,70.3906,LGM,QGI,Barch Banda,703,Qarghayi,???? ??,Laghman,?????,7
27675,27676,Yale POP_MASTER,QGI-043,,0,LGM-QGI-043,182,Pashto,2,608.6746216,34.5118,70.2815,LGM,QGI,Bela,703,Qarghayi,???? ??,Laghman,?????,7
27676,27677,Yale POP_MASTER,QGI-044,,0,LGM-QGI-044,815,Pashto,2,628.0153197999999,34.5184,70.2384,LGM,QGI,Bolan,703,Qarghayi,???? ??,Laghman,?????,7
27677,27678,Yale POP_MASTER,QGI-047,,0,LGM-QGI-047,597,Pashto,2,603.4492187999999,34.4964,70.3606,LGM,QGI,Chapa Dara,703,Qarghayi,???? ??,Laghman,?????,7
27678,27679,Yale POP_MASTER,QGI-048,,0,LGM-QGI-048,1493,Pashai,6,626.7199707000001,34.5302,70.2865,LGM,QGI,Char Bagh,703,Qarghayi,???? ??,Laghman,?????,7
27679,27680,Yale POP_MASTER,QGI-049,,0,LGM-QGI-049,199,Pashto,2,648.9218139999999,34.5439,70.227,LGM,QGI,Char Qala,703,Qarghayi,???? ??,Laghman,?????,7
27680,27681,Yale POP_MASTER,QGI-051,,0,LGM-QGI-051,467,Pashto,2,637.7418822999999,34.5422,70.2483,LGM,QGI,Dahandar,703,Qarghayi,???? ??,Laghman,?????,7
27681,27682,Yale POP_MASTER,QGI-052,,0,LGM-QGI-052,1123,Pashto,2,648.4113159,34.552,70.2417,LGM,QGI,Dahmazang,703,Qarghayi,???? ??,Laghman,?????,7
27682,27683,Yale POP_MASTER,QGI-053,,0,LGM-QGI-053,514,Pashto,2,625.6456909,34.5215,70.2512,LGM,QGI,Dara Lam,703,Qarghayi,???? ??,Laghman,?????,7
27683,27684,Yale POP_MASTER,QGI-055,,0,LGM-QGI-055,226,Pashto,2,604.0687866000001,34.5076,70.3133,LGM,QGI,Darzeyan,703,Qarghayi,???? ??,Laghman,?????,7
27684,27685,Yale POP_MASTER,QGI-059,,0,LGM-QGI-059,182,Pashto,2,1080.532959,34.6273,70.3508,LGM,QGI,Gar Kash,703,Qarghayi,???? ??,Laghman,?????,7
27685,27686,Yale POP_MASTER,QGI-062,,0,LGM-QGI-062,1494,Pashto,2,623.3317261,34.5273,70.2746,LGM,QGI,Ghondi,703,Qarghayi,???? ??,Laghman,?????,7
27686,27687,Yale POP_MASTER,QGI-063,,0,LGM-QGI-063,276,Pashto,2,626.4815062999999,34.5054,70.2336,LGM,QGI,Ghundi,703,Qarghayi,???? ??,Laghman,?????,7
27687,27688,Yale POP_MASTER,QGI-064,,0,LGM-QGI-064,354,Pashto,2,633.3427734,34.5146,70.2195,LGM,QGI,Gula Khail,703,Qarghayi,???? ??,Laghman,?????,7
27688,27689,Yale POP_MASTER,QGI-065,,0,LGM-QGI-065,817,Pashto,2,613.96521,34.4923,70.2966,LGM,QGI,Gunda Ghar,703,Qarghayi,???? ??,Laghman,?????,7
27689,27690,Yale POP_MASTER,QGI-067,,0,LGM-QGI-067,180,Pashto,2,603.5819702,34.5033,70.3116,LGM,QGI,Haidar Banda,703,Qarghayi,???? ??,Laghman,?????,7
27690,27691,Yale POP_MASTER,QGI-068,,0,LGM-QGI-068,431,Pashto,2,648.6486206000001,34.5476,70.2289,LGM,QGI,Haji Guldad,703,Qarghayi,???? ??,Laghman,?????,7
27691,27692,Yale POP_MASTER,QGI-070,,0,LGM-QGI-070,235,Hazaragi,8,646.6348267000001,34.5485,70.2699,LGM,QGI,Harwa,703,Qarghayi,???? ??,Laghman,?????,7
27692,27693,Yale POP_MASTER,QGI-072,,0,LGM-QGI-072,678,Pashto,2,617.7332153,34.5065,70.2574,LGM,QGI,Hussain Abad,703,Qarghayi,???? ??,Laghman,?????,7
27693,27694,Yale POP_MASTER,QGI-073,,0,LGM-QGI-073,526,Pashto,2,624.1691284,34.5066,70.2286,LGM,QGI,Ibrahim Khail,703,Qarghayi,???? ??,Laghman,?????,7
27694,27695,Yale POP_MASTER,QGI-075,,0,LGM-QGI-075,218,Pashto,2,676.9597167999999,34.4859,70.2925,LGM,QGI,Kachor Kalay,703,Qarghayi,???? ??,Laghman,?????,7
27695,27696,Yale POP_MASTER,QGI-076,,0,LGM-QGI-076,89,Pashto,2,661.9490967,34.5708,70.2283,LGM,QGI,Kachra,703,Qarghayi,???? ??,Laghman,?????,7
27696,27697,Yale POP_MASTER,QGI-077,,0,LGM-QGI-077,494,Pashai,6,635.0861206000001,34.535,70.2904,LGM,QGI,Kala Lan,703,Qarghayi,???? ??,Laghman,?????,7
27697,27698,Yale POP_MASTER,QGI-078,,0,LGM-QGI-078,967,Pashto,2,630.4096069,34.5318,70.2472,LGM,QGI,Kamal Pur,703,Qarghayi,???? ??,Laghman,?????,7
27698,27699,Yale POP_MASTER,QGI-080,,0,LGM-QGI-080,544,Pashto,2,633.9517822,34.5184,70.2169,LGM,QGI,Karim Abad,703,Qarghayi,???? ??,Laghman,?????,7
27699,27700,Yale POP_MASTER,QGI-081,,0,LGM-QGI-081,509,Pashto,2,676.2913208,34.5042,70.1566,LGM,QGI,Khairo Khail,703,Qarghayi,???? ??,Laghman,?????,7
27700,27701,Yale POP_MASTER,QGI-082,,0,LGM-QGI-082,2315,Pashto,2,671.7943726,34.5567,70.2105,LGM,QGI,Kharoti,703,Qarghayi,???? ??,Laghman,?????,7
27701,27702,Yale POP_MASTER,QGI-085,,0,LGM-QGI-085,155,Pashto,2,638.7421264999999,34.5453,70.2439,LGM,QGI,Lal Khan Abad,703,Qarghayi,???? ??,Laghman,?????,7
27702,27703,Yale POP_MASTER,QGI-086,,0,LGM-QGI-086,180,Dari,1,661.1668091,34.5607,70.217,LGM,QGI,Lamtak,703,Qarghayi,???? ??,Laghman,?????,7
27703,27704,Yale POP_MASTER,QGI-087,,0,LGM-QGI-087,427,Pashto,2,626.6740722999999,34.5293,70.2542,LGM,QGI,Lamte,703,Qarghayi,???? ??,Laghman,?????,7
27704,27705,Yale POP_MASTER,QGI-088,,0,LGM-QGI-088,663,Pashto,2,618.916687,34.5153,70.2659,LGM,QGI,Lara Mora,703,Qarghayi,???? ??,Laghman,?????,7
27705,27706,Yale POP_MASTER,QGI-089,,0,LGM-QGI-089,589,Pashto,2,655.3410034,34.5532,70.2202,LGM,QGI,Logar Lam,703,Qarghayi,???? ??,Laghman,?????,7
27706,27707,Yale POP_MASTER,QGI-091,,0,LGM-QGI-091,2114,Pashto,2,651.7672119,34.5446,70.2156,LGM,QGI,Mandor,703,Qarghayi,???? ??,Laghman,?????,7
27707,27708,Yale POP_MASTER,QGI-092,,0,LGM-QGI-092,905,Hazaragi,8,633.3751831000001,34.4906,70.3091,LGM,QGI,Mansoor Kalay,703,Qarghayi,???? ??,Laghman,?????,7
27708,27709,Yale POP_MASTER,QGI-093,,0,LGM-QGI-093,310,Pashto,2,802.5187988,34.5842,70.3157,LGM,QGI,Marwandi,703,Qarghayi,???? ??,Laghman,?????,7
27709,27710,Yale POP_MASTER,QGI-094,,0,LGM-QGI-094,409,Pashto,2,619.7943115,34.5131,70.2567,LGM,QGI,Mashena,703,Qarghayi,???? ??,Laghman,?????,7
27710,27711,Yale POP_MASTER,QGI-095,,0,LGM-QGI-095,473,Pashto,2,615.1738281,34.4945,70.3037,LGM,QGI,Meya Band,703,Qarghayi,???? ??,Laghman,?????,7
27711,27712,Yale POP_MASTER,QGI-096,,0,LGM-QGI-096,890,Pashto,2,635.1276245,34.5249,70.2287,LGM,QGI,Meya Khail,703,Qarghayi,???? ??,Laghman,?????,7
27712,27713,Yale POP_MASTER,QGI-099,,0,LGM-QGI-099,333,Pashto,2,641.0471191,34.535,70.23100000000001,LGM,QGI,Mir Alam Qala,703,Qarghayi,???? ??,Laghman,?????,7
27713,27714,Yale POP_MASTER,QGI-103,,0,LGM-QGI-103,201,Pashto,2,617.1204834,34.5212,70.2784,LGM,QGI,Mufte Qala,703,Qarghayi,???? ??,Laghman,?????,7
27714,27715,Yale POP_MASTER,QGI-104,,0,LGM-QGI-104,398,Pashto,2,613.8790893999999,34.5112,70.2732,LGM,QGI,Mullah Khail,703,Qarghayi,???? ??,Laghman,?????,7
27715,27716,Yale POP_MASTER,QGI-105,,0,LGM-QGI-105,407,Pashai,6,673.1123047,34.5404,70.342,LGM,QGI,Nahr Karim,703,Qarghayi,???? ??,Laghman,?????,7
27716,27717,Yale POP_MASTER,QGI-107,,0,LGM-QGI-107,278,Pashto,2,638.4724121,34.5365,70.2359,LGM,QGI,Noor,703,Qarghayi,???? ??,Laghman,?????,7
27717,27718,Yale POP_MASTER,QGI-108,,0,LGM-QGI-108,825,Pashto,2,650.8516235000001,34.5496,70.2854,LGM,QGI,Now Abad Safat Khan,703,Qarghayi,???? ??,Laghman,?????,7
27718,27719,Yale POP_MASTER,QGI-109,,0,LGM-QGI-109,105,Pashto,2,918.8754882999999,34.5689,70.2456,LGM,QGI,Nowi Kanchra Kalay,703,Qarghayi,???? ??,Laghman,?????,7
27719,27720,Yale POP_MASTER,QGI-110,,0,LGM-QGI-110,840,Pashai,6,820.1467285,34.5902,70.3439,LGM,QGI,Omar Khail,703,Qarghayi,???? ??,Laghman,?????,7
27720,27721,Yale POP_MASTER,QGI-112,,0,LGM-QGI-112,709,Pashto,2,641.5675049,34.5401,70.279,LGM,QGI,Pator Gamba,703,Qarghayi,???? ??,Laghman,?????,7
27721,27722,Yale POP_MASTER,QGI-113,,0,LGM-QGI-113,357,Pashto,2,631.5999756,34.5076,70.2212,LGM,QGI,Payra Khail,703,Qarghayi,???? ??,Laghman,?????,7
27722,27723,Yale POP_MASTER,QGI-114,,0,LGM-QGI-114,498,Pashto,2,606.4801025,34.5047,70.2934,LGM,QGI,Peroz Abad,703,Qarghayi,???? ??,Laghman,?????,7
27723,27724,Yale POP_MASTER,QGI-115,,0,LGM-QGI-115,60,Pashto,2,644.5775146000001,34.5088,70.2013,LGM,QGI,Pul Surkhakan,703,Qarghayi,???? ??,Laghman,?????,7
27724,27725,Yale POP_MASTER,QGI-116,,0,LGM-QGI-116,291,Pashto,2,620.8358764999999,34.5205,70.2623,LGM,QGI,Qabela,703,Qarghayi,???? ??,Laghman,?????,7
27725,27726,Yale POP_MASTER,QGI-118,,0,LGM-QGI-118,519,Pashto,2,635.6038208,34.5279,70.3125,LGM,QGI,Qala Mahegeran,703,Qarghayi,???? ??,Laghman,?????,7
27726,27727,Yale POP_MASTER,QGI-119,,0,LGM-QGI-119,259,Pashto,2,625.06073,34.5224,70.3143,LGM,QGI,Qala Malik,703,Qarghayi,???? ??,Laghman,?????,7
27727,27728,Yale POP_MASTER,QGI-120,,0,LGM-QGI-120,656,Pashto,2,655.9061889999999,34.5604,70.2309,LGM,QGI,Qala Mami,703,Qarghayi,???? ??,Laghman,?????,7
27728,27729,Yale POP_MASTER,QGI-121,,0,LGM-QGI-121,712,Pashto,2,619.8834839,34.4909,70.2878,LGM,QGI,Qala Mirak,703,Qarghayi,???? ??,Laghman,?????,7
27729,27730,Yale POP_MASTER,QGI-122,,0,LGM-QGI-122,322,Pashto,2,632.2578125,34.5366,70.2761,LGM,QGI,Qala Mufta,703,Qarghayi,???? ??,Laghman,?????,7
27730,27731,Yale POP_MASTER,QGI-123,,0,LGM-QGI-123,626,Pashto,2,626.3356934,34.5275,70.3011,LGM,QGI,Qala Najaran,703,Qarghayi,???? ??,Laghman,?????,7
27731,27732,Yale POP_MASTER,QGI-124,,0,LGM-QGI-124,864,Pashto,2,610.7858276000001,34.5159,70.2934,LGM,QGI,Qala Padshah,703,Qarghayi,???? ??,Laghman,?????,7
27732,27733,Yale POP_MASTER,QGI-125,,0,LGM-QGI-125,1103,Pashto,2,652.6036987000001,34.5407,70.3069,LGM,QGI,Qala Qazi Ya Seya Khail,703,Qarghayi,???? ??,Laghman,?????,7
27733,27734,Yale POP_MASTER,QGI-126,,0,LGM-QGI-126,1152,Dari,1,650.2984008999999,34.5527,70.2661,LGM,QGI,Qala Rahim,703,Qarghayi,???? ??,Laghman,?????,7
27734,27735,Yale POP_MASTER,QGI-127,,0,LGM-QGI-127,876,Hazaragi,8,641.7479857999999,34.5461,70.2749,LGM,QGI,Qala Tak,703,Qarghayi,???? ??,Laghman,?????,7
27735,27736,Yale POP_MASTER,QGI-128,,0,LGM-QGI-128,231,Pashto,2,625.8453979,34.5335,70.2767,LGM,QGI,Qala Zaman Khan,703,Qarghayi,???? ??,Laghman,?????,7
27736,27737,Yale POP_MASTER,QGI-129,,0,LGM-QGI-129,85,Pashto,2,639.0775146000001,34.5444,70.2567,LGM,QGI,Qarghaye,703,Qarghayi,???? ??,Laghman,?????,7
27737,27738,Yale POP_MASTER,QGI-130,,0,LGM-QGI-130,68,Pashto,2,621.9281006,34.510999999999996,70.2412,LGM,QGI,Qasim Abad,703,Qarghayi,???? ??,Laghman,?????,7
27738,27739,Yale POP_MASTER,QGI-131,,0,LGM-QGI-131,465,Dari,1,634.8948975,34.5388,70.2608,LGM,QGI,Qoul Qoul Abad,703,Qarghayi,???? ??,Laghman,?????,7
27739,27740,Yale POP_MASTER,QGI-132,,0,LGM-QGI-132,687,Pashai,6,620.0932007,34.5052,70.2437,LGM,QGI,Sangeri,703,Qarghayi,???? ??,Laghman,?????,7
27740,27741,Yale POP_MASTER,QGI-133,,0,LGM-QGI-133,808,Dari,1,641.9000854,34.5258,70.212,LGM,QGI,Sapo Khail,703,Qarghayi,???? ??,Laghman,?????,7
27741,27742,Yale POP_MASTER,QGI-134,,0,LGM-QGI-134,550,Pashto,2,644.4158936000001,34.5505,70.2568,LGM,QGI,Sar Feraz Khan,703,Qarghayi,???? ??,Laghman,?????,7
27742,27743,Yale POP_MASTER,QGI-139,,0,LGM-QGI-139,926,Pashto,2,624.3466187000001,34.5302,70.2651,LGM,QGI,Sayate,703,Qarghayi,???? ??,Laghman,?????,7
27743,27744,Yale POP_MASTER,QGI-140,,0,LGM-QGI-140,87,Pashto,2,1421.718018,34.6115,70.3218,LGM,QGI,Sayid Jan Banda,703,Qarghayi,???? ??,Laghman,?????,7
27744,27745,Yale POP_MASTER,QGI-143,,0,LGM-QGI-143,258,Pashto,2,621.9177856000001,34.5227,70.3054,LGM,QGI,Shamshir Abad,703,Qarghayi,???? ??,Laghman,?????,7
27745,27746,Yale POP_MASTER,QGI-144,,0,LGM-QGI-144,444,Pashai,6,632.49823,34.5273,70.3325,LGM,QGI,Shor Ghondi,703,Qarghayi,???? ??,Laghman,?????,7
27746,27747,Yale POP_MASTER,QGI-146,,0,LGM-QGI-146,673,Pashai,6,651.1107787999999,34.5363,70.3199,LGM,QGI,Surkh Abi,703,Qarghayi,???? ??,Laghman,?????,7
27747,27748,Yale POP_MASTER,QGI-147,,0,LGM-QGI-147,2352,Pashto,2,693.229126,34.5094,70.1825,LGM,QGI,Surkhakan,703,Qarghayi,???? ??,Laghman,?????,7
27748,27749,Yale POP_MASTER,QGI-148,,0,LGM-QGI-148,266,Pashto,2,618.4822998,34.5253,70.288,LGM,QGI,Surukh Sqangi,703,Qarghayi,???? ??,Laghman,?????,7
27749,27750,Yale POP_MASTER,QGI-149,,0,LGM-QGI-149,307,Hazaragi,8,865.1655273,34.4878,70.3359,LGM,QGI,Taragar,703,Qarghayi,???? ??,Laghman,?????,7
27750,27751,Yale POP_MASTER,QGI-150,,0,LGM-QGI-150,811,Pashto,2,638.8538818,34.5369,70.243,LGM,QGI,Tarang,703,Qarghayi,???? ??,Laghman,?????,7
27751,27752,Yale POP_MASTER,QGI-154,,0,LGM-QGI-154,232,Pashto,2,695.3773193,34.4873,70.2366,LGM,QGI,Zango Abdul Arhim Zai,703,Qarghayi,???? ??,Laghman,?????,7
27752,27753,Yale POP_MASTER,QGI-158,,0,LGM-QGI-158,9545,Pashto,2,653.9802856000001,34.5535,70.2424,LGM,QGI,Lal Khanabad,703,Qarghayi,???? ??,Laghman,?????,7
27753,27754,Yale POP_MASTER,QGI-159,District,1,LGM-QGI-159,9712,Pashto,2,643.2036743,34.534,70.2949,LGM,QGI,Qarghayi,703,Qarghayi,???? ??,Laghman,?????,7
27755,27756,Yale POP_MASTER,ALR-043,,0,LGM-ALR-043,748,Pashai,6,1259.660034,34.6737,70.3404,LGM,ALR,Kalaram Payen Kalay,704,Alingar,???????,Laghman,?????,7
27756,27757,Yale POP_MASTER,MTM-114,,0,LGM-MTM-114,359,Pashto,2,1157.974976,34.6398,70.3263,LGM,MTM,Kohestani,701,Mehtarlam,???? ???,Laghman,?????,7
28559,28560,CSO AIMS Villages (ACSOR),QGI-019,,0,LGM-QGI-019,1334,Pashto,2,694.8878784,34.50334,70.04691,LGM,QGI,Farman Khail (2),703,Qarghayi,???? ??,Laghman,?????,7
28560,28561,CSO AIMS Villages (ACSOR),ALR-007,,0,LGM-ALR-007,950,Pashto,2,776.6362915,34.708890000000004,70.2724,LGM,ALR,Gunbad Bela,704,Alingar,???????,Laghman,?????,7
28561,28562,CSO AIMS Villages (ACSOR),ALR-012,,0,LGM-ALR-012,623,Pashto,2,780.2031860000001,34.71439,70.27043,LGM,ALR,Salangar,704,Alingar,???????,Laghman,?????,7
28562,28563,USAID AIDVillageView,MTM-001,,0,LGM-MTM-001,0,Pashto,2,833.5911865,34.6813,70.1589,LGM,MTM,Adokhel,701,Mehtarlam,???? ???,Laghman,?????,7
28563,28564,USAID AIDVillageView,MTM-007,,0,LGM-MTM-007,0,Pashto,2,754.0338745,34.6713,70.2154,LGM,MTM,Chehelmati,701,Mehtarlam,???? ???,Laghman,?????,7
28564,28565,USAID AIDVillageView,MTM-012,,0,LGM-MTM-012,0,Pashto,2,732.972229,34.6561,70.2215,LGM,MTM,Gumayn,701,Mehtarlam,???? ???,Laghman,?????,7
28565,28566,USAID AIDVillageView,MTM-025,,0,LGM-MTM-025,0,Pashto,2,820.9401245,34.6893,70.165,LGM,MTM,Maskura,701,Mehtarlam,???? ???,Laghman,?????,7
28566,28567,USAID AIDVillageView,MTM-028,,0,LGM-MTM-028,0,Pashto,2,762.3712158,34.6626,70.2032,LGM,MTM,Nanikzi,701,Mehtarlam,???? ???,Laghman,?????,7
28567,28568,USAID AIDVillageView,MTM-030,,0,LGM-MTM-030,0,Pashto,2,818.8956299,34.6761,70.1657,LGM,MTM,Qadzyan,701,Mehtarlam,???? ???,Laghman,?????,7
28568,28569,USAID AIDVillageView,MTM-033,,0,LGM-MTM-033,0,Pashto,2,727.994812,34.635,70.2158,LGM,MTM,Qal'eh-ye Mansur,701,Mehtarlam,???? ???,Laghman,?????,7
28569,28570,USAID AIDVillageView,MTM-036,,0,LGM-MTM-036,0,Pashto,2,771.5255737000001,34.6425,70.1957,LGM,MTM,Qal'eh-ye Segeh,701,Mehtarlam,???? ???,Laghman,?????,7
28570,28571,USAID AIDVillageView,MTM-037,,0,LGM-MTM-037,0,Pashto,2,763.7506714,34.6844,70.2238,LGM,MTM,Seh Sada,701,Mehtarlam,???? ???,Laghman,?????,7
28571,28572,USAID AIDVillageView,MTM-039,,0,LGM-MTM-039,0,Pashto,2,790.2656860000001,34.7252,70.2736,LGM,MTM,Shahabad,701,Mehtarlam,???? ???,Laghman,?????,7
28572,28573,USAID AIDVillageView,MTM-041,,0,LGM-MTM-041,0,Pashto,2,707.6751098999999,34.635999999999996,70.2378,LGM,MTM,Shamangal,701,Mehtarlam,???? ???,Laghman,?????,7
28573,28574,USAID AIDVillageView,MTM-043,,0,LGM-MTM-043,0,Pashto,2,815.1118774,34.6609,70.1683,LGM,MTM,Shergar,701,Mehtarlam,???? ???,Laghman,?????,7
28574,28575,USAID AIDVillageView,MTM-045,,0,LGM-MTM-045,0,Pashto,2,1055.8129880000001,34.7307,70.2119,LGM,MTM,Tarakay,701,Mehtarlam,???? ???,Laghman,?????,7
28575,28576,USAID AIDVillageView,MTM-046,,0,LGM-MTM-046,0,Pashto,2,727.6145019999999,34.658,70.2392,LGM,MTM,Tarakhel,701,Mehtarlam,???? ???,Laghman,?????,7
28576,28577,USAID AIDVillageView,MTM-048,,0,LGM-MTM-048,0,Pashto,2,819.4465942,34.6715,70.1608,LGM,MTM,Umar Zayee,701,Mehtarlam,???? ???,Laghman,?????,7
28577,28578,USAID AIDVillageView,MTM-049,,0,LGM-MTM-049,0,Pashto,2,809.1671752999999,34.6687,70.1663,LGM,MTM,Zor Kalay,701,Mehtarlam,???? ???,Laghman,?????,7
28578,28579,CSO AIMS Villages (ACSOR),MTM-050,,0,LGM-MTM-050,364,Pashto,2,799.9741211,34.71787,70.25204000000001,LGM,MTM,Sayid Abad (1),701,Mehtarlam,???? ???,Laghman,?????,7
28579,28580,CSO AIMS Villages (ACSOR),MTM-051,,0,LGM-MTM-051,875,Pashto,2,696.5335083,34.5877,70.21108000000001,LGM,MTM,Sayid Abad (2),701,Mehtarlam,???? ???,Laghman,?????,7
28580,28581,CSO AIMS Villages (ACSOR),MTM-052,,0,LGM-MTM-052,1168,Pashto,2,791.9865722999999,34.65992,70.17218000000001,LGM,MTM,Tera Gar,701,Mehtarlam,???? ???,Laghman,?????,7
28581,28582,Yale POP_MASTER,QGI-034,,0,LGM-QGI-034,370,Pashto,2,686.0067138999999,34.5634,70.2076,LGM,QGI,Bagheyan,703,Qarghayi,???? ??,Laghman,?????,7
28582,28583,Yale POP_MASTER,QGI-050,,0,LGM-QGI-050,175,Pashto,2,805.9058227999999,34.473,70.0856,LGM,QGI,Cheno Kalay,703,Qarghayi,???? ??,Laghman,?????,7
28583,28584,Yale POP_MASTER,QGI-060,,0,LGM-QGI-060,283,Pashto,2,672.4260864,34.5025,70.1054,LGM,QGI,Gardi Kas,703,Qarghayi,???? ??,Laghman,?????,7
28584,28585,Yale POP_MASTER,QGI-074,,0,LGM-QGI-074,1537,Pashto,2,686.6203002999999,34.4955,70.0598,LGM,QGI,Ka Kas,703,Qarghayi,???? ??,Laghman,?????,7
28585,28586,Yale POP_MASTER,QGI-083,,0,LGM-QGI-083,799,Pashto,2,673.0651855000001,34.5679,70.2123,LGM,QGI,Kunda,703,Qarghayi,???? ??,Laghman,?????,7
28586,28587,Yale POP_MASTER,QGI-084,,0,LGM-QGI-084,836,Pashto,2,788.3731079,34.5578,70.1884,LGM,QGI,Kutob Khail,703,Qarghayi,???? ??,Laghman,?????,7
28587,28588,Yale POP_MASTER,QGI-097,,0,LGM-QGI-097,186,Pashto,2,690.6599121,34.501999999999995,70.0777,LGM,QGI,Meya Khan Kas Sufla,703,Qarghayi,???? ??,Laghman,?????,7
28588,28589,Yale POP_MASTER,QGI-098,,0,LGM-QGI-098,251,Pashto,2,671.3599243,34.5058,70.0941,LGM,QGI,Meya Khan Sal Hulya,703,Qarghayi,???? ??,Laghman,?????,7
28589,28590,Yale POP_MASTER,QGI-142,,0,LGM-QGI-142,949,Pashto,2,700.2213135,34.5168,70.0099,LGM,QGI,Shahidan,703,Qarghayi,???? ??,Laghman,?????,7
28590,28591,Yale POP_MASTER,QGI-152,,0,LGM-QGI-152,141,Pashto,2,718.2907104,34.4877,70.1159,LGM,QGI,Wara Gala,703,Qarghayi,???? ??,Laghman,?????,7
28591,28592,Yale POP_MASTER,QGI-155,,0,LGM-QGI-155,1167,Pashto,2,702.7755737000001,34.5107,70.0323,LGM,QGI,Zara Qala,703,Qarghayi,???? ??,Laghman,?????,7
28592,28593,Yale POP_MASTER,QGI-156,,0,LGM-QGI-156,840,Pashto,2,662.8289795,34.5177,70.1342,LGM,QGI,Zerani Hulya,703,Qarghayi,???? ??,Laghman,?????,7
28593,28594,Yale POP_MASTER,QGI-157,,0,LGM-QGI-157,375,Pashto,2,650.2053833,34.5186,70.149,LGM,QGI,Zerani Sufla,703,Qarghayi,???? ??,Laghman,?????,7
28594,28595,Yale POP_MASTER,MTM-117,,0,LGM-MTM-117,32,Pashto,2,1094.795044,34.7532,70.2264,LGM,MTM,Kumaki,701,Mehtarlam,???? ???,Laghman,?????,7
28595,28596,Yale POP_MASTER,MTM-127,,0,LGM-MTM-127,393,Pashto,2,1093.475952,34.7644,70.2408,LGM,MTM,Mano,701,Mehtarlam,???? ???,Laghman,?????,7
28596,28597,Yale POP_MASTER,ALR-028,,0,LGM-ALR-028,173,Pashto,2,786.0106812000001,34.7177,70.2788,LGM,ALR,Daman,704,Alingar,???????,Laghman,?????,7
28597,28598,Yale POP_MASTER,ALR-064,,0,LGM-ALR-064,110,Pashto,2,1079.6519779999999,34.6778,70.3267,LGM,ALR,Manz Banda,704,Alingar,???????,Laghman,?????,7
28598,28599,Yale POP_MASTER,ALR-082,,0,LGM-ALR-082,1702,Pashto,2,805.4876709,34.728,70.2877,LGM,ALR,Qasaba,704,Alingar,???????,Laghman,?????,7
28599,28600,Yale POP_MASTER,ALR-096,,0,LGM-ALR-096,362,Pashto,2,790.4462891,34.7222,70.2802,LGM,ALR,Shah Abad,704,Alingar,???????,Laghman,?????,7
28600,28601,Yale POP_MASTER,MTM-055,,0,LGM-MTM-055,63,Pashto,2,849.8469238,34.6857,70.1526,LGM,MTM,Akhund Zadagan,701,Mehtarlam,???? ???,Laghman,?????,7
28601,28602,Yale POP_MASTER,MTM-056,,0,LGM-MTM-056,1023,Dari,1,782.8682861000001,34.6745,70.1936,LGM,MTM,Ali Khail,701,Mehtarlam,???? ???,Laghman,?????,7
28602,28603,Yale POP_MASTER,MTM-057,,0,LGM-MTM-057,3738,Pashto,2,870.2050171,34.7065,70.1579,LGM,MTM,Alishing,701,Mehtarlam,???? ???,Laghman,?????,7
28603,28604,Yale POP_MASTER,MTM-058,,0,LGM-MTM-058,463,Pashto,2,862.4951172,34.671,70.1577,LGM,MTM,Alkozai,701,Mehtarlam,???? ???,Laghman,?????,7
28604,28605,Yale POP_MASTER,MTM-059,,0,LGM-MTM-059,840,Pashto,2,797.3906860000001,34.7238,70.2645,LGM,MTM,Arsallah Kalay,701,Mehtarlam,???? ???,Laghman,?????,7
28605,28606,Yale POP_MASTER,MTM-062,,0,LGM-MTM-062,623,Pashto,2,874.0972289999999,34.6923,70.1445,LGM,MTM,Badddin Khail,701,Mehtarlam,???? ???,Laghman,?????,7
28606,28607,Yale POP_MASTER,MTM-063,,0,LGM-MTM-063,1450,Pashto,2,811.4533081000001,34.7387,70.2828,LGM,MTM,Badi Abad,701,Mehtarlam,???? ???,Laghman,?????,7
28607,28608,Yale POP_MASTER,MTM-064,,0,LGM-MTM-064,1370,Pashto,2,719.3745117000001,34.6141,70.214,LGM,MTM,Bagh Mirza,701,Mehtarlam,???? ???,Laghman,?????,7
28608,28609,Yale POP_MASTER,MTM-065,,0,LGM-MTM-065,274,Dari,1,927.40802,34.7131,70.157,LGM,MTM,Baghaly,701,Mehtarlam,???? ???,Laghman,?????,7
28609,28610,Yale POP_MASTER,MTM-066,,0,LGM-MTM-066,86,Dari,1,696.9110718,34.6178,70.2321,LGM,MTM,Baila,701,Mehtarlam,???? ???,Laghman,?????,7
28610,28611,Yale POP_MASTER,MTM-067,,0,LGM-MTM-067,429,Pashto,2,811.8242187999999,34.728,70.2645,LGM,MTM,Basram,701,Mehtarlam,???? ???,Laghman,?????,7
28611,28612,Yale POP_MASTER,MTM-068,,0,LGM-MTM-068,283,Pashto,2,789.8145752,34.6752,70.1866,LGM,MTM,Baz Khail,701,Mehtarlam,???? ???,Laghman,?????,7
28612,28613,Yale POP_MASTER,MTM-069,,0,LGM-MTM-069,6295,Dari,1,772.1406860000001,34.6811,70.2172,LGM,MTM,Chalmate,701,Mehtarlam,???? ???,Laghman,?????,7
28613,28614,Yale POP_MASTER,MTM-071,,0,LGM-MTM-071,663,Pashto,2,797.2808838,34.6787,70.1826,LGM,MTM,Chand Lam,701,Mehtarlam,???? ???,Laghman,?????,7
28614,28615,Yale POP_MASTER,MTM-072,,0,LGM-MTM-072,403,Dari,1,858.0499877999998,34.6961,70.1707,LGM,MTM,Chapar,701,Mehtarlam,???? ???,Laghman,?????,7
28615,28616,Yale POP_MASTER,MTM-073,,0,LGM-MTM-073,606,Pashto,2,791.2645263999999,34.6991,70.2287,LGM,MTM,Dado Kalay,701,Mehtarlam,???? ???,Laghman,?????,7
28616,28617,Yale POP_MASTER,MTM-074,,0,LGM-MTM-074,470,Pashto,2,743.1901855000001,34.6684,70.2206,LGM,MTM,Dahi Baghalak,701,Mehtarlam,???? ???,Laghman,?????,7
28617,28618,Yale POP_MASTER,MTM-075,,0,LGM-MTM-075,779,Pashto,2,761.1749877999999,34.6597,70.1989,LGM,MTM,Dahi Malakh,701,Mehtarlam,???? ???,Laghman,?????,7
28618,28619,Yale POP_MASTER,MTM-076,,0,LGM-MTM-076,687,Pashto,2,761.5020752,34.6508,70.1901,LGM,MTM,Dahi Zeyarat,701,Mehtarlam,???? ???,Laghman,?????,7
28619,28620,Yale POP_MASTER,MTM-077,,0,LGM-MTM-077,965,Dari,1,788.3652954,34.6774,70.1927,LGM,MTM,Daman Chand Lam,701,Mehtarlam,???? ???,Laghman,?????,7
28620,28621,Yale POP_MASTER,MTM-078,,0,LGM-MTM-078,896,Pashto,2,793.7097778,34.6632,70.1741,LGM,MTM,Danda,701,Mehtarlam,???? ???,Laghman,?????,7
28621,28622,Yale POP_MASTER,MTM-079,,0,LGM-MTM-079,536,Pashto,2,867.8004761,34.6786,70.1532,LGM,MTM,Dewa,701,Mehtarlam,???? ???,Laghman,?????,7
28622,28623,Yale POP_MASTER,MTM-080,,0,LGM-MTM-080,339,Pashto,2,751.2686767999999,34.674,70.2205,LGM,MTM,Dol Abad,701,Mehtarlam,???? ???,Laghman,?????,7
28623,28624,Yale POP_MASTER,MTM-081,,0,LGM-MTM-081,389,Pashto,2,669.3444214,34.575,70.2191,LGM,MTM,Dope,701,Mehtarlam,???? ???,Laghman,?????,7
28624,28625,Yale POP_MASTER,MTM-082,,0,LGM-MTM-082,591,Dari,1,699.4885864,34.6194,70.2275,LGM,MTM,Dope,701,Mehtarlam,???? ???,Laghman,?????,7
28625,28626,Yale POP_MASTER,MTM-083,,0,LGM-MTM-083,104,Pashto,2,918.6520995999999,34.6302,70.2808,LGM,MTM,Durgi Panj Pai,701,Mehtarlam,???? ???,Laghman,?????,7
28626,28627,Yale POP_MASTER,MTM-084,,0,LGM-MTM-084,785,Pashai,6,897.8521729,34.7109,70.1414,LGM,MTM,Gajawan,701,Mehtarlam,???? ???,Laghman,?????,7
28627,28628,Yale POP_MASTER,MTM-085,,0,LGM-MTM-085,2911,Pashto,2,744.9431762999999,34.6585,70.2142,LGM,MTM,Gamen,701,Mehtarlam,???? ???,Laghman,?????,7
28628,28629,Yale POP_MASTER,MTM-087,,0,LGM-MTM-087,1020,Pashto,2,699.930481,34.5821,70.2081,LGM,MTM,Ghund Kohi,701,Mehtarlam,???? ???,Laghman,?????,7
28629,28630,Yale POP_MASTER,MTM-088,,0,LGM-MTM-088,1187,Pashto,2,787.4077147999999,34.6473,70.185,LGM,MTM,Ghundi,701,Mehtarlam,???? ???,Laghman,?????,7
28630,28631,Yale POP_MASTER,MTM-090,,0,LGM-MTM-090,1232,Pashto,2,723.2108154,34.6574,70.22800000000001,LGM,MTM,Gul Baila,701,Mehtarlam,???? ???,Laghman,?????,7
28631,28632,Yale POP_MASTER,MTM-091,,0,LGM-MTM-091,1769,Pashto,2,757.5493774,34.6557,70.1929,LGM,MTM,Gulkari,701,Mehtarlam,???? ???,Laghman,?????,7
28632,28633,Yale POP_MASTER,MTM-092,,0,LGM-MTM-092,254,Pashto,2,713.7807007,34.6299,70.2226,LGM,MTM,Gum Kor,701,Mehtarlam,???? ???,Laghman,?????,7
28633,28634,Yale POP_MASTER,MTM-093,,0,LGM-MTM-093,711,Dari,1,700.5737305,34.6007,70.2157,LGM,MTM,Haidar Khani Hulya,701,Mehtarlam,???? ???,Laghman,?????,7
28634,28635,Yale POP_MASTER,MTM-094,,0,LGM-MTM-094,1639,Dari,1,678.1702881,34.592,70.2198,LGM,MTM,Haidar Khani Payen,701,Mehtarlam,???? ???,Laghman,?????,7
28635,28636,Yale POP_MASTER,MTM-095,,0,LGM-MTM-095,1156,Pashto,2,774.3623047,34.6988,70.2619,LGM,MTM,Hakim Abad,701,Mehtarlam,???? ???,Laghman,?????,7
28636,28637,Yale POP_MASTER,MTM-097,,0,LGM-MTM-097,1038,Pashto,2,793.9331055,34.6922,70.2213,LGM,MTM,Harmal,701,Mehtarlam,???? ???,Laghman,?????,7
28637,28638,Yale POP_MASTER,MTM-098,,0,LGM-MTM-098,142,Pashto,2,769.2689819,34.6589,70.1873,LGM,MTM,Hussain Khail,701,Mehtarlam,???? ???,Laghman,?????,7
28638,28639,Yale POP_MASTER,MTM-099,,0,LGM-MTM-099,321,Pashto,2,804.7435912999999,34.73,70.2704,LGM,MTM,Kachi,701,Mehtarlam,???? ???,Laghman,?????,7
28639,28640,Yale POP_MASTER,MTM-100,,0,LGM-MTM-100,507,Pashto,2,793.1157837000001,34.728,70.2758,LGM,MTM,Kachi Qala Agha,701,Mehtarlam,???? ???,Laghman,?????,7
28640,28641,Yale POP_MASTER,MTM-101,,0,LGM-MTM-101,841,Dari,1,760.4627075,34.6872,70.2512,LGM,MTM,Kachor,701,Mehtarlam,???? ???,Laghman,?????,7
28641,28642,Yale POP_MASTER,MTM-102,,0,LGM-MTM-102,573,Dari,1,678.362915,34.5867,70.2167,LGM,MTM,Kala Kot,701,Mehtarlam,???? ???,Laghman,?????,7
28642,28643,Yale POP_MASTER,MTM-107,,0,LGM-MTM-107,256,Dari,1,694.6356812000001,34.6053,70.2201,LGM,MTM,Karo,701,Mehtarlam,???? ???,Laghman,?????,7
28643,28644,Yale POP_MASTER,MTM-108,,0,LGM-MTM-108,2089,Pashto,2,786.7866821,34.7115,70.2523,LGM,MTM,Katal,701,Mehtarlam,???? ???,Laghman,?????,7
28644,28645,Yale POP_MASTER,MTM-109,,0,LGM-MTM-109,102,Pashto,2,842.6154175,34.6615,70.1638,LGM,MTM,Khair Abad,701,Mehtarlam,???? ???,Laghman,?????,7
28645,28646,Yale POP_MASTER,MTM-110,,0,LGM-MTM-110,176,Pashto,2,997.8864136,34.725,70.1691,LGM,MTM,Khak Zar,701,Mehtarlam,???? ???,Laghman,?????,7
28646,28647,Yale POP_MASTER,MTM-111,,0,LGM-MTM-111,467,Pashto,2,706.1469727000001,34.6381,70.2351,LGM,MTM,Khala Khail,701,Mehtarlam,???? ???,Laghman,?????,7
28647,28648,Yale POP_MASTER,MTM-112,,0,LGM-MTM-112,718,Pashto,2,814.8493042,34.6512,70.1771,LGM,MTM,Kharote Noori Khail,701,Mehtarlam,???? ???,Laghman,?????,7
28648,28649,Yale POP_MASTER,MTM-115,,0,LGM-MTM-115,1514,Pashto,2,765.3815917999999,34.6656,70.2051,LGM,MTM,Kota Tour,701,Mehtarlam,???? ???,Laghman,?????,7
28649,28650,Yale POP_MASTER,MTM-116,,0,LGM-MTM-116,802,Pashai,6,1141.467041,34.6719,70.3104,LGM,MTM,Koz Kalay Banda,701,Mehtarlam,???? ???,Laghman,?????,7
28650,28651,Yale POP_MASTER,MTM-118,,0,LGM-MTM-118,445,Pashto,2,854.9434204,34.6538,70.1524,LGM,MTM,Kunj,701,Mehtarlam,???? ???,Laghman,?????,7
28651,28652,Yale POP_MASTER,MTM-119,,0,LGM-MTM-119,459,Dari,1,819.8718872000001,34.6941,70.1977,LGM,MTM,Kutab Zai,701,Mehtarlam,???? ???,Laghman,?????,7
28652,28653,Yale POP_MASTER,MTM-120,,0,LGM-MTM-120,186,Other,9,744.8262938999999,34.6788,70.2452,LGM,MTM,Lakri,701,Mehtarlam,???? ???,Laghman,?????,7
28653,28654,Yale POP_MASTER,MTM-121,,0,LGM-MTM-121,350,Pashto,2,834.0913696,34.6942,70.1576,LGM,MTM,Landa Khail,701,Mehtarlam,???? ???,Laghman,?????,7
28654,28655,Yale POP_MASTER,MTM-122,,0,LGM-MTM-122,12,Pashto,2,706.4218139999999,34.6085,70.219,LGM,MTM,Latef Abad,701,Mehtarlam,???? ???,Laghman,?????,7
28655,28656,Yale POP_MASTER,MTM-124,,0,LGM-MTM-124,2053,Pashto,2,799.8292847,34.7047,70.2339,LGM,MTM,Maidani,701,Mehtarlam,???? ???,Laghman,?????,7
28656,28657,Yale POP_MASTER,MTM-125,,0,LGM-MTM-125,252,Pashto,2,865.7675171,34.7069,70.1427,LGM,MTM,Manduzai,701,Mehtarlam,???? ???,Laghman,?????,7
28657,28658,Yale POP_MASTER,MTM-126,,0,LGM-MTM-126,308,Pashto,2,783.7097167999999,34.7056,70.2446,LGM,MTM,Manjuma,701,Mehtarlam,???? ???,Laghman,?????,7
28658,28659,Yale POP_MASTER,MTM-130,,0,LGM-MTM-130,1144,Pashto,2,763.8739013999999,34.6638,70.2,LGM,MTM,Maryam,701,Mehtarlam,???? ???,Laghman,?????,7
28659,28660,Yale POP_MASTER,MTM-131,,0,LGM-MTM-131,1023,Pashto,2,739.1851196,34.6484,70.2089,LGM,MTM,Maryam Kora,701,Mehtarlam,???? ???,Laghman,?????,7
28660,28661,Yale POP_MASTER,MTM-132,,0,LGM-MTM-132,256,Pashto,2,717.671875,34.6466,70.2355,LGM,MTM,Meya Kalay,701,Mehtarlam,???? ???,Laghman,?????,7
28661,28662,Yale POP_MASTER,MTM-133,,0,LGM-MTM-133,419,Pashto,2,775.117981,34.6952,70.2353,LGM,MTM,Mira Khord,701,Mehtarlam,???? ???,Laghman,?????,7
28662,28663,Yale POP_MASTER,MTM-134,,0,LGM-MTM-134,894,Pashto,2,738.7119751,34.6769,70.2358,LGM,MTM,Mohammad Khail,701,Mehtarlam,???? ???,Laghman,?????,7
28663,28664,Yale POP_MASTER,MTM-135,,0,LGM-MTM-135,527,Dari,1,780.236084,34.6603,70.1811,LGM,MTM,Mohammad Pur,701,Mehtarlam,???? ???,Laghman,?????,7
28664,28665,Yale POP_MASTER,MTM-136,,0,LGM-MTM-136,452,Pashto,2,797.6616211,34.7203,70.2593,LGM,MTM,Muskin Abad,701,Mehtarlam,???? ???,Laghman,?????,7
28665,28666,Yale POP_MASTER,MTM-137,,0,LGM-MTM-137,520,Pashto,2,799.5875244,34.677,70.1719,LGM,MTM,Mussa Khail,701,Mehtarlam,???? ???,Laghman,?????,7
28666,28667,Yale POP_MASTER,MTM-138,,0,LGM-MTM-138,1109,Pashto,2,747.1063843,34.6843,70.2427,LGM,MTM,Nallaye,701,Mehtarlam,???? ???,Laghman,?????,7
28667,28668,Yale POP_MASTER,MTM-139,,0,LGM-MTM-139,1176,Pashto,2,753.8953247000001,34.6543,70.1956,LGM,MTM,Nangazi,701,Mehtarlam,???? ???,Laghman,?????,7
28668,28669,Yale POP_MASTER,MTM-140,,0,LGM-MTM-140,453,Pashto,2,791.6511230000001,34.6352,70.2484,LGM,MTM,Nelowat,701,Mehtarlam,???? ???,Laghman,?????,7
28669,28670,Yale POP_MASTER,MTM-141,,0,LGM-MTM-141,1401,Pashto,2,779.5261841,34.7122,70.2624,LGM,MTM,Noora,701,Mehtarlam,???? ???,Laghman,?????,7
28670,28671,Yale POP_MASTER,MTM-142,,0,LGM-MTM-142,819,Pashto,2,804.6589966,34.7238,70.258,LGM,MTM,Now Abad,701,Mehtarlam,???? ???,Laghman,?????,7
28671,28672,Yale POP_MASTER,MTM-143,,0,LGM-MTM-143,232,Dari,1,815.8494262999999,34.6894,70.2096,LGM,MTM,Now Abad Chand Lam,701,Mehtarlam,???? ???,Laghman,?????,7
28672,28673,Yale POP_MASTER,MTM-144,,0,LGM-MTM-144,416,Dari,1,805.9558716,34.681,70.1733,LGM,MTM,Now Lam,701,Mehtarlam,???? ???,Laghman,?????,7
28673,28674,Yale POP_MASTER,MTM-145,,0,LGM-MTM-145,201,Pashto,2,816.0645752,34.6857,70.1718,LGM,MTM,Pacha Khail,701,Mehtarlam,???? ???,Laghman,?????,7
28674,28675,Yale POP_MASTER,MTM-147,,0,LGM-MTM-147,965,Pashto,2,806.9019775,34.7347,70.2766,LGM,MTM,Panj Padar,701,Mehtarlam,???? ???,Laghman,?????,7
28675,28676,Yale POP_MASTER,MTM-148,,0,LGM-MTM-148,235,Pashai,6,975.1143799,34.6524,70.2993,LGM,MTM,Panj Pai Mir Ali Khail,701,Mehtarlam,???? ???,Laghman,?????,7
28676,28677,Yale POP_MASTER,MTM-149,,0,LGM-MTM-149,1103,Pashto,2,749.2033081000001,34.6562,70.2075,LGM,MTM,Pasha Ye,701,Mehtarlam,???? ???,Laghman,?????,7
28677,28678,Yale POP_MASTER,MTM-151,,0,LGM-MTM-151,623,Pashto,2,760.4611816,34.6893,70.2375,LGM,MTM,Qabela,701,Mehtarlam,???? ???,Laghman,?????,7
28678,28679,Yale POP_MASTER,MTM-152,,0,LGM-MTM-152,393,Dari,1,782.1005859,34.7004,70.2377,LGM,MTM,Qala Akhond Zada,701,Mehtarlam,???? ???,Laghman,?????,7
28679,28680,Yale POP_MASTER,MTM-153,,0,LGM-MTM-153,911,Pashto,2,711.4838257,34.6199,70.2171,LGM,MTM,Qala Akhund,701,Mehtarlam,???? ???,Laghman,?????,7
28680,28681,Yale POP_MASTER,MTM-154,,0,LGM-MTM-154,165,Pashto,2,832.1890869,34.6651,70.1621,LGM,MTM,Qala Baghal,701,Mehtarlam,???? ???,Laghman,?????,7
28681,28682,Yale POP_MASTER,MTM-155,,0,LGM-MTM-155,3352,Pashto,2,758.9594727000001,34.6775,70.2189,LGM,MTM,Qala Daman,701,Mehtarlam,???? ???,Laghman,?????,7
28682,28683,Yale POP_MASTER,MTM-156,,0,LGM-MTM-156,940,Pashto,2,761.8948975,34.6875,70.234,LGM,MTM,Qala Fatahullah,701,Mehtarlam,???? ???,Laghman,?????,7
28683,28684,Yale POP_MASTER,MTM-158,,0,LGM-MTM-158,545,Pashto,2,706.3682251,34.6321,70.2279,LGM,MTM,Qala Jougi,701,Mehtarlam,???? ???,Laghman,?????,7
28684,28685,Yale POP_MASTER,MTM-159,,0,LGM-MTM-159,812,Pashto,2,743.6303711,34.6817,70.2405,LGM,MTM,Qala Khan,701,Mehtarlam,???? ???,Laghman,?????,7
28685,28686,Yale POP_MASTER,MTM-160,,0,LGM-MTM-160,425,Pashto,2,720.7476807,34.6278,70.2162,LGM,MTM,Qala Malik,701,Mehtarlam,???? ???,Laghman,?????,7
28686,28687,Yale POP_MASTER,MTM-161,,0,LGM-MTM-161,95,Pashto,2,774.2728271000001,34.656,70.1822,LGM,MTM,Qala Not,701,Mehtarlam,???? ???,Laghman,?????,7
28687,28688,Yale POP_MASTER,MTM-162,,0,LGM-MTM-162,423,Pashto,2,798.184082,34.7066,70.2385,LGM,MTM,Qala Now,701,Mehtarlam,???? ???,Laghman,?????,7
28688,28689,Yale POP_MASTER,MTM-163,,0,LGM-MTM-163,86,Pashto,2,777.3809204,34.6692,70.1933,LGM,MTM,Qala Sahib,701,Mehtarlam,???? ???,Laghman,?????,7
28689,28690,Yale POP_MASTER,MTM-164,,0,LGM-MTM-164,172,Dari,1,704.7802124,34.6235,70.2269,LGM,MTM,Qala Salla,701,Mehtarlam,???? ???,Laghman,?????,7
28690,28691,Yale POP_MASTER,MTM-165,,0,LGM-MTM-165,511,Pashto,2,759.5681152000001,34.6461,70.1951,LGM,MTM,Qala Sangi Dar Kunda,701,Mehtarlam,???? ???,Laghman,?????,7
28691,28692,Yale POP_MASTER,MTM-167,,0,LGM-MTM-167,4516,Dari,1,748.1038818,34.6635,70.2157,LGM,MTM,Qala Shaikhan,701,Mehtarlam,???? ???,Laghman,?????,7
28692,28693,Yale POP_MASTER,MTM-169,,0,LGM-MTM-169,207,Pashto,2,855.4898071,34.7008,70.1642,LGM,MTM,Qalacha,701,Mehtarlam,???? ???,Laghman,?????,7
28693,28694,Yale POP_MASTER,MTM-170,,0,LGM-MTM-170,346,Pashto,2,876.5678101,34.6755,70.1539,LGM,MTM,Qarozi,701,Mehtarlam,???? ???,Laghman,?????,7
28694,28695,Yale POP_MASTER,MTM-171,,0,LGM-MTM-171,867,Pashto,2,787.0186157,34.671,70.1787,LGM,MTM,Qawal Khail,701,Mehtarlam,???? ???,Laghman,?????,7
28695,28696,Yale POP_MASTER,MTM-172,,0,LGM-MTM-172,143,Pashto,2,812.5759277000001,34.6715,70.1673,LGM,MTM,Qazeyan,701,Mehtarlam,???? ???,Laghman,?????,7
28696,28697,Yale POP_MASTER,MTM-173,,0,LGM-MTM-173,274,Dari,1,709.8145752,34.624,70.2212,LGM,MTM,Sahib Jamal,701,Mehtarlam,???? ???,Laghman,?????,7
28697,28698,Yale POP_MASTER,MTM-174,,0,LGM-MTM-174,944,Pashto,2,797.2955933,34.7257,70.2693,LGM,MTM,Saiyid Mullah,701,Mehtarlam,???? ???,Laghman,?????,7
28698,28699,Yale POP_MASTER,MTM-175,,0,LGM-MTM-175,814,Pashto,2,864.0457152999999,34.691,70.1498,LGM,MTM,Sakora,701,Mehtarlam,???? ???,Laghman,?????,7
28699,28700,Yale POP_MASTER,MTM-176,,0,LGM-MTM-176,302,Pashto,2,882.0786742999999,34.6684,70.1336,LGM,MTM,Sang Kash,701,Mehtarlam,???? ???,Laghman,?????,7
28700,28701,Yale POP_MASTER,MTM-177,,0,LGM-MTM-177,731,Dari,1,727.3756714,34.6517,70.2226,LGM,MTM,Sang Touda,701,Mehtarlam,???? ???,Laghman,?????,7
28701,28702,Yale POP_MASTER,MTM-179,,0,LGM-MTM-179,2875,Pashto,2,754.3977051,34.6828,70.2291,LGM,MTM,Sar Sayeda,701,Mehtarlam,???? ???,Laghman,?????,7
28702,28703,Yale POP_MASTER,MTM-180,,0,LGM-MTM-180,707,Pashto,2,670.6101074,34.5814,70.2218,LGM,MTM,Sha Khail,701,Mehtarlam,???? ???,Laghman,?????,7
28703,28704,Yale POP_MASTER,MTM-182,,0,LGM-MTM-182,796,Dari,1,702.5703735000001,34.6315,70.2384,LGM,MTM,Shah Mangal,701,Mehtarlam,???? ???,Laghman,?????,7
28704,28705,Yale POP_MASTER,MTM-183,,0,LGM-MTM-183,1554,Pashto,2,766.9642944,34.6315,70.2072,LGM,MTM,Shahda,701,Mehtarlam,???? ???,Laghman,?????,7
28705,28706,Yale POP_MASTER,MTM-184,,0,LGM-MTM-184,319,Pashto,2,790.7656860000001,34.7205,70.2688,LGM,MTM,Shahtoura,701,Mehtarlam,???? ???,Laghman,?????,7
28706,28707,Yale POP_MASTER,MTM-185,,0,LGM-MTM-185,445,Pashto,2,893.4562988,34.6744,70.1339,LGM,MTM,Shai Khail,701,Mehtarlam,???? ???,Laghman,?????,7
28707,28708,Yale POP_MASTER,MTM-186,,0,LGM-MTM-186,279,Pashto,2,813.5346069,34.7109,70.2353,LGM,MTM,Shaikh Abad,701,Mehtarlam,???? ???,Laghman,?????,7
28708,28709,Yale POP_MASTER,MTM-188,,0,LGM-MTM-188,648,Pashto,2,738.0723877,34.6612,70.2412,LGM,MTM,Shamte,701,Mehtarlam,???? ???,Laghman,?????,7
28709,28710,Yale POP_MASTER,MTM-189,,0,LGM-MTM-189,238,Pashto,2,715.9561767999999,34.6413,70.2273,LGM,MTM,Shariullah Kalay,701,Mehtarlam,???? ???,Laghman,?????,7
28710,28711,Yale POP_MASTER,MTM-190,,0,LGM-MTM-190,611,Pashto,2,697.2794188999999,34.6,70.2381,LGM,MTM,Sheala Tak,701,Mehtarlam,???? ???,Laghman,?????,7
28711,28712,Yale POP_MASTER,MTM-191,,0,LGM-MTM-191,167,Pashto,2,737.4147949,34.6721,70.2393,LGM,MTM,Shoraba,701,Mehtarlam,???? ???,Laghman,?????,7
28712,28713,Yale POP_MASTER,MTM-193,,0,LGM-MTM-193,402,Pashto,2,873.90979,34.6991,70.1424,LGM,MTM,Somochan,701,Mehtarlam,???? ???,Laghman,?????,7
28713,28714,Yale POP_MASTER,MTM-194,,0,LGM-MTM-194,147,Dari,1,781.5463257,34.6703,70.1904,LGM,MTM,Sufi Qala,701,Mehtarlam,???? ???,Laghman,?????,7
28714,28715,Yale POP_MASTER,MTM-195,,0,LGM-MTM-195,506,Dari,1,852.7296752999998,34.7021,70.1508,LGM,MTM,Sultan Kalay,701,Mehtarlam,???? ???,Laghman,?????,7
28715,28716,Yale POP_MASTER,MTM-196,,0,LGM-MTM-196,866,Dari,1,774.4094848999999,34.6645,70.1855,LGM,MTM,Tajgari,701,Mehtarlam,???? ???,Laghman,?????,7
28716,28717,Yale POP_MASTER,MTM-197,,0,LGM-MTM-197,349,Pashto,2,889.3784789999999,34.6792,70.1457,LGM,MTM,Takya,701,Mehtarlam,???? ???,Laghman,?????,7
28717,28718,Yale POP_MASTER,MTM-200,,0,LGM-MTM-200,893,Pashto,2,989.1522217,34.6362,70.0961,LGM,MTM,Tapa Kunj,701,Mehtarlam,???? ???,Laghman,?????,7
28718,28719,Yale POP_MASTER,MTM-201,,0,LGM-MTM-201,938,Dari,1,727.7341918999999,34.6529,70.2383,LGM,MTM,Tara Khail,701,Mehtarlam,???? ???,Laghman,?????,7
28719,28720,Yale POP_MASTER,MTM-202,,0,LGM-MTM-202,541,Pashto,2,772.9030762,34.6622,70.1865,LGM,MTM,Tundi,701,Mehtarlam,???? ???,Laghman,?????,7
28720,28721,Yale POP_MASTER,MTM-203,,0,LGM-MTM-203,460,Pashto,2,843.2438965,34.7102,70.2126,LGM,MTM,Turki,701,Mehtarlam,???? ???,Laghman,?????,7
28721,28722,Yale POP_MASTER,MTM-204,,0,LGM-MTM-204,855,Pashto,2,823.6088867000001,34.6976,70.2107,LGM,MTM,Wakil Abad,701,Mehtarlam,???? ???,Laghman,?????,7
28722,28723,Yale POP_MASTER,MTM-205,,0,LGM-MTM-205,633,Pashto,2,814.5159912,34.6546,70.1749,LGM,MTM,Wardak,701,Mehtarlam,???? ???,Laghman,?????,7
28723,28724,Yale POP_MASTER,MTM-206,,0,LGM-MTM-206,297,Pashto,2,846.8898926,34.6555,70.163,LGM,MTM,Zara Kalay,701,Mehtarlam,???? ???,Laghman,?????,7
28724,28725,Yale POP_MASTER,MTM-209,,0,LGM-MTM-209,1260,Pashto,2,816.6834106000001,34.7395,70.2736,LGM,MTM,Zeyarat Kalay,701,Mehtarlam,???? ???,Laghman,?????,7
28725,28726,Yale POP_MASTER,MTM-210,Provincial,2,LGM-MTM-210,4200,Pashto,2,760.0709228999999,34.6495,70.1922,LGM,MTM,Mehtarlam,701,Mehtarlam,???? ???,Laghman,?????,7
28726,28727,Yale POP_MASTER,MTM-211,,0,LGM-MTM-211,900,Pashto,2,734.3071289,34.6464,70.2139,LGM,MTM,Tirgari,701,Mehtarlam,???? ???,Laghman,?????,7
28727,28728,Yale POP_MASTER,MTM-178,,0,LGM-MTM-178,836,Pashto,2,1107.4730220000001,34.6361,70.0401,LGM,MTM,Saperi,701,Mehtarlam,???? ???,Laghman,?????,7
28728,28729,CSO AIMS Villages (ACSOR),ALG-002,,0,LGM-ALG-002,170,Pashto,2,1081.4570310000001,34.78759,70.1073,LGM,ALG,Tangi (2),702,Alishang,??????,Laghman,?????,7
28729,28730,USAID AIDVillageView,ALG-142,,0,LGM-ALG-142,0,Pashto,2,1159.95105,34.6878,70.0685,LGM,ALG,Kam Shamakat,702,Alishang,??????,Laghman,?????,7
28730,28731,CSO AIMS Villages (ACSOR),ALG-001,,0,LGM-ALG-001,208,Pashto,2,1258.265015,34.77422,70.05575999999999,LGM,ALG,Tangi (1),702,Alishang,??????,Laghman,?????,7
28731,28732,CSO AIMS Villages (ACSOR),ALG-004,,0,LGM-ALG-004,182,Pashto,2,1212.7929689999999,34.72144,70.05677,LGM,ALG,Toot Now (2),702,Alishang,??????,Laghman,?????,7
28732,28733,USAID AIDVillageView,MTM-015,,0,LGM-MTM-015,0,Pashto,2,1213.6639400000001,34.7577,70.1846,LGM,MTM,Kakar Mena,701,Mehtarlam,???? ???,Laghman,?????,7
28733,28734,CSO AIMS Villages (ACSOR),ALG-003,,0,LGM-ALG-003,37,Pashto,2,1748.9589839999999,34.72075,69.99185,LGM,ALG,Toot Now (1),702,Alishang,??????,Laghman,?????,7
28736,28737,Yale POP_MASTER,ALG-126,,0,LGM-ALG-126,348,Pashto,2,1191.72998,34.7903,70.1145,LGM,ALG,Shegi,702,Alishang,??????,Laghman,?????,7
28737,28738,Yale POP_MASTER,ALG-125,,0,LGM-ALG-125,630,Pashto,2,1227.5389400000001,34.787,70.0498,LGM,ALG,Sharbat Khail,702,Alishang,??????,Laghman,?????,7
28738,28739,Yale POP_MASTER,ALG-075,,0,LGM-ALG-075,95,Pashai,6,1599.067993,34.7929,70.1949,LGM,ALG,Mabain Dahi,702,Alishang,??????,Laghman,?????,7
28739,28740,Yale POP_MASTER,ALG-084,,0,LGM-ALG-084,431,Pashto,2,1077.317017,34.7919,70.096,LGM,ALG,Morcha Khail,702,Alishang,??????,Laghman,?????,7
28740,28741,Yale POP_MASTER,ALG-141,District,1,LGM-ALG-141,31872,Pashto,2,1056.290039,34.7838,70.10600000000001,LGM,ALG,Alishang,702,Alishang,??????,Laghman,?????,7
28741,28742,Yale POP_MASTER,ALG-007,,0,LGM-ALG-007,201,Pashai,6,1250.572998,34.7828,70.0462,LGM,ALG,Ala Yughondi,702,Alishang,??????,Laghman,?????,7
28742,28743,Yale POP_MASTER,ALG-107,,0,LGM-ALG-107,463,Pashai,6,1084.977051,34.7797,70.0994,LGM,ALG,Qalage,702,Alishang,??????,Laghman,?????,7
28743,28744,Yale POP_MASTER,ALG-011,,0,LGM-ALG-011,632,Pashto,2,1150.279053,34.7683,70.1298,LGM,ALG,Arena,702,Alishang,??????,Laghman,?????,7
28744,28745,Yale POP_MASTER,ALG-021,,0,LGM-ALG-021,78,Pashai,6,1736.171021,34.7925,70.1895,LGM,ALG,Baran Gul,702,Alishang,??????,Laghman,?????,7
28745,28746,Yale POP_MASTER,ALG-028,,0,LGM-ALG-028,581,Pashto,2,1205.42395,34.7833,70.0508,LGM,ALG,Dageyan,702,Alishang,??????,Laghman,?????,7
28746,28747,Yale POP_MASTER,ALG-029,,0,LGM-ALG-029,106,Pashai,6,1525.01001,34.7841,70.1932,LGM,ALG,Dandar,702,Alishang,??????,Laghman,?????,7
28747,28748,Yale POP_MASTER,ALG-030,,0,LGM-ALG-030,433,Pashto,2,1088.805054,34.786,70.0946,LGM,ALG,Darwesh Abad,702,Alishang,??????,Laghman,?????,7
28748,28749,Yale POP_MASTER,ALG-033,,0,LGM-ALG-033,909,Pashto,2,1073.93396,34.789,70.096,LGM,ALG,Dera Meya Sahib,702,Alishang,??????,Laghman,?????,7
28749,28750,Yale POP_MASTER,ALG-036,,0,LGM-ALG-036,227,Pashai,6,1822.2249760000002,34.8025,70.20100000000001,LGM,ALG,Doseya Say Sara,702,Alishang,??????,Laghman,?????,7
28750,28751,Yale POP_MASTER,ALG-039,,0,LGM-ALG-039,243,Pashto,2,1031.399048,34.7783,70.1089,LGM,ALG,Gamba,702,Alishang,??????,Laghman,?????,7
28751,28752,Yale POP_MASTER,ALG-040,,0,LGM-ALG-040,1340,Pashto,2,1022.263977,34.7731,70.115,LGM,ALG,Gar Gar,702,Alishang,??????,Laghman,?????,7
28752,28753,Yale POP_MASTER,ALG-045,,0,LGM-ALG-045,534,Pashto,2,1038.266968,34.7808,70.1039,LGM,ALG,Gul Ahmad Markaz Wolluswaly,702,Alishang,??????,Laghman,?????,7
28753,28754,Yale POP_MASTER,MTM-106,,0,LGM-MTM-106,610,Pashto,2,1253.516968,34.7634,70.1845,LGM,MTM,Karneach,701,Mehtarlam,???? ???,Laghman,?????,7
28754,28755,Yale POP_MASTER,MTM-207,,0,LGM-MTM-207,437,Pashto,2,1290.595947,34.766999999999996,70.1848,LGM,MTM,Zargar Mala,701,Mehtarlam,???? ???,Laghman,?????,7
28755,28756,Yale POP_MASTER,ALG-134,,0,LGM-ALG-134,345,Dari,1,961.8837279999999,34.7496,70.1122,LGM,ALG,Tarang,702,Alishang,??????,Laghman,?????,7
28756,28757,Yale POP_MASTER,ALG-069,,0,LGM-ALG-069,481,Pashto,2,1196.112061,34.7298,70.0436,LGM,ALG,Koz Kalay,702,Alishang,??????,Laghman,?????,7
28757,28758,Yale POP_MASTER,ALG-070,,0,LGM-ALG-070,487,Pashto,2,1219.18396,34.7788,70.0505,LGM,ALG,Kunchan,702,Alishang,??????,Laghman,?????,7
28758,28759,Yale POP_MASTER,ALG-085,,0,LGM-ALG-085,192,Pashto,2,1072.925049,34.7259,70.0886,LGM,ALG,Mustafa,702,Alishang,??????,Laghman,?????,7
28759,28760,Yale POP_MASTER,ALG-005,,0,LGM-ALG-005,590,Dari,1,958.0104980000001,34.7462,70.1177,LGM,ALG,Achak Zai,702,Alishang,??????,Laghman,?????,7
28760,28761,Yale POP_MASTER,ALG-103,,0,LGM-ALG-103,379,Dari,1,972.1782837000001,34.7324,70.1173,LGM,ALG,Qala Bay,702,Alishang,??????,Laghman,?????,7
28761,28762,Yale POP_MASTER,ALG-104,,0,LGM-ALG-104,92,Pashto,2,905.4766846000001,34.7279,70.1347,LGM,ALG,Qala Halim,702,Alishang,??????,Laghman,?????,7
28762,28763,Yale POP_MASTER,ALG-105,,0,LGM-ALG-105,385,Pashto,2,924.4677733999999,34.7333,70.1293,LGM,ALG,Qala Hussain,702,Alishang,??????,Laghman,?????,7
28763,28764,Yale POP_MASTER,ALG-108,,0,LGM-ALG-108,910,Pashto,2,960.5432739,34.7237,70.1282,LGM,ALG,Qalatak,702,Alishang,??????,Laghman,?????,7
28764,28765,Yale POP_MASTER,ALG-110,,0,LGM-ALG-110,1023,Pashto,2,1003.13501,34.7669,70.111,LGM,ALG,Rahen,702,Alishang,??????,Laghman,?????,7
28765,28766,Yale POP_MASTER,ALG-111,,0,LGM-ALG-111,141,Pashto,2,897.9050292999999,34.7254,70.1368,LGM,ALG,Rahmat Khail,702,Alishang,??????,Laghman,?????,7
28766,28767,Yale POP_MASTER,ALG-113,,0,LGM-ALG-113,882,Pashto,2,993.6480713,34.7409,70.1093,LGM,ALG,Saber Abad,702,Alishang,??????,Laghman,?????,7
28767,28768,Yale POP_MASTER,ALG-114,,0,LGM-ALG-114,604,Pashto,2,1095.347046,34.7632,70.0716,LGM,ALG,Salo,702,Alishang,??????,Laghman,?????,7
28768,28769,Yale POP_MASTER,ALG-117,,0,LGM-ALG-117,1522,Pashto,2,1106.69104,34.7573,70.0747,LGM,ALG,Sarwar Khail,702,Alishang,??????,Laghman,?????,7
28769,28770,Yale POP_MASTER,ALG-119,,0,LGM-ALG-119,1025,Pashto,2,910.1569824,34.7209,70.148,LGM,ALG,Shakar Man,702,Alishang,??????,Laghman,?????,7
28770,28771,Yale POP_MASTER,ALG-123,,0,LGM-ALG-123,1571,Pashto,2,941.1041869999999,34.7404,70.1206,LGM,ALG,Shamram,702,Alishang,??????,Laghman,?????,7
28771,28772,Yale POP_MASTER,ALG-012,,0,LGM-ALG-012,243,Pashto,2,901.7921752999998,34.721,70.1347,LGM,ALG,Arwara,702,Alishang,??????,Laghman,?????,7
28772,28773,Yale POP_MASTER,ALG-018,,0,LGM-ALG-018,22,Pashto,2,1129.432983,34.7285,70.063,LGM,ALG,Bandow,702,Alishang,??????,Laghman,?????,7
28773,28774,Yale POP_MASTER,ALG-019,,0,LGM-ALG-019,613,Pashto,2,1122.208008,34.7679,70.0667,LGM,ALG,Bar Kalay,702,Alishang,??????,Laghman,?????,7
28774,28775,Yale POP_MASTER,ALG-020,,0,LGM-ALG-020,723,Pashto,2,903.934082,34.7159,70.1342,LGM,ALG,Barakzai,702,Alishang,??????,Laghman,?????,7
28775,28776,Yale POP_MASTER,ALG-041,,0,LGM-ALG-041,512,Pashto,2,1064.364014,34.7603,70.0834,LGM,ALG,Gardah,702,Alishang,??????,Laghman,?????,7
28776,28777,Yale POP_MASTER,ALG-051,,0,LGM-ALG-051,645,Pashto,2,912.6813965,34.73,70.1311,LGM,ALG,Hussain Zai,702,Alishang,??????,Laghman,?????,7
28777,28778,Yale POP_MASTER,ALG-052,,0,LGM-ALG-052,1888,Dari,1,990.7446288999998,34.7523,70.1013,LGM,ALG,Islam Abad,702,Alishang,??????,Laghman,?????,7
28778,28779,Yale POP_MASTER,ALG-055,,0,LGM-ALG-055,533,Pashto,2,1377.991943,34.7041,70.0479,LGM,ALG,Kakar Khail,702,Alishang,??????,Laghman,?????,7
28779,28780,Yale POP_MASTER,ALG-129,,0,LGM-ALG-129,148,Pashai,6,1713.504028,34.7274,69.9707,LGM,ALG,Sor Kalay,702,Alishang,??????,Laghman,?????,7
28780,28781,Yale POP_MASTER,ALG-139,,0,LGM-ALG-139,127,Pashai,6,2083.475098,34.7346,69.9529,LGM,ALG,Wengal,702,Alishang,??????,Laghman,?????,7
28781,28782,Yale POP_MASTER,ALG-140,,0,LGM-ALG-140,76,Pashai,6,1551.889038,34.7317,69.9949,LGM,ALG,Yakh Now,702,Alishang,??????,Laghman,?????,7
28782,28783,Yale POP_MASTER,ALG-065,,0,LGM-ALG-065,390,Pashto,2,1302.110962,34.7211,70.0319,LGM,ALG,Khowol,702,Alishang,??????,Laghman,?????,7
28783,28784,Yale POP_MASTER,ALG-074,,0,LGM-ALG-074,282,Pashai,6,1624.217041,34.7268,69.9792,LGM,ALG,Lowi Kalay,702,Alishang,??????,Laghman,?????,7
28784,28785,Yale POP_MASTER,ALG-081,,0,LGM-ALG-081,38,Pashai,6,2006.415039,34.7254,69.9538,LGM,ALG,Memol,702,Alishang,??????,Laghman,?????,7
28785,28786,Yale POP_MASTER,ALG-099,,0,LGM-ALG-099,426,Pashai,6,2034.542969,34.7794,69.9789,LGM,ALG,Payenda Khail,702,Alishang,??????,Laghman,?????,7
28786,28787,Yale POP_MASTER,ALG-116,,0,LGM-ALG-116,242,Pashto,2,1811.171021,34.7249,69.9708,LGM,ALG,Sar Bala Khana,702,Alishang,??????,Laghman,?????,7
28787,28788,Yale POP_MASTER,ALG-120,,0,LGM-ALG-120,288,Pashto,2,1945.7640379999998,34.7454,69.9872,LGM,ALG,Shalako,702,Alishang,??????,Laghman,?????,7
28788,28789,Yale POP_MASTER,ALG-122,,0,LGM-ALG-122,878,Pashto,2,1323.840942,34.7301,70.0292,LGM,ALG,Shamkat,702,Alishang,??????,Laghman,?????,7
28789,28790,Yale POP_MASTER,ALG-026,,0,LGM-ALG-026,180,Pashto,2,1734.504028,34.7465,70.0057,LGM,ALG,Chanar Now,702,Alishang,??????,Laghman,?????,7
28790,28791,Yale POP_MASTER,ALG-027,,0,LGM-ALG-027,456,Pashai,6,1775.093018,34.7722,69.9896,LGM,ALG,Chera Khail,702,Alishang,??????,Laghman,?????,7
28791,28792,Yale POP_MASTER,ALG-047,,0,LGM-ALG-047,128,Pashto,2,1340.18396,34.7292,70.0157,LGM,ALG,Gula Khail,702,Alishang,??????,Laghman,?????,7
28792,28793,Yale POP_MASTER,ALG-050,,0,LGM-ALG-050,346,Pashai,6,1930.1700440000002,34.768,69.9796,LGM,ALG,Hassan Khail,702,Alishang,??????,Laghman,?????,7
28793,28794,Yale POP_MASTER,MTM-086,,0,LGM-MTM-086,136,Pashto,2,1598.1290279999998,34.6919,69.9462,LGM,MTM,Ghorizhona,701,Mehtarlam,???? ???,Laghman,?????,7
28794,28795,Yale POP_MASTER,MTM-166,,0,LGM-MTM-166,21,Pashto,2,1474.765991,34.6799,69.9515,LGM,MTM,Qala Shah Faqir,701,Mehtarlam,???? ???,Laghman,?????,7
28795,28796,CSO AIMS Villages (ACSOR),ALR-005,,0,LGM-ALR-005,455,Pashto,2,843.4323119999999,34.75529,70.31306,LGM,ALR,Char Qala (2),704,Alingar,???????,Laghman,?????,7
28796,28797,CSO AIMS Villages (ACSOR),ALR-014,,0,LGM-ALR-014,1861,Pashto,2,883.8463135,34.78078,70.33091999999999,LGM,ALR,Shaikhan (2),704,Alingar,???????,Laghman,?????,7
28797,28798,USAID AIDVillageView,ALR-112,,0,LGM-ALR-112,0,Pashto,2,836.1956177000001,34.7704,70.313,LGM,ALR,Azad Kala,704,Alingar,???????,Laghman,?????,7
28798,28799,USAID AIDVillageView,ALR-114,,0,LGM-ALR-114,0,Pashto,2,1010.3699949999999,34.7609,70.3715,LGM,ALR,Cawarkhel Kalay,704,Alingar,???????,Laghman,?????,7
28799,28800,USAID AIDVillageView,MTM-047,,0,LGM-MTM-047,0,Pashto,2,830.5413818,34.7507,70.2921,LGM,MTM,Tingawar,701,Mehtarlam,???? ???,Laghman,?????,7
28800,28801,CSO AIMS Villages (ACSOR),ALR-009,,0,LGM-ALR-009,260,Pashto,2,979.2241821,34.71966,70.34205,LGM,ALR,Kunda Lam,704,Alingar,???????,Laghman,?????,7
28801,28802,Yale POP_MASTER,ALR-018,,0,LGM-ALR-018,1234,Pashto,2,826.8848877,34.759,70.3038,LGM,ALR,Alo Khail,704,Alingar,???????,Laghman,?????,7
28802,28803,Yale POP_MASTER,ALR-023,,0,LGM-ALR-023,336,Pashto,2,985.2672118999999,34.7684,70.3739,LGM,ALR,Chopan,704,Alingar,???????,Laghman,?????,7
28803,28804,Yale POP_MASTER,ALR-026,,0,LGM-ALR-026,181,Pashto,2,1194.406982,34.7512,70.3575,LGM,ALR,Dak Kalay,704,Alingar,???????,Laghman,?????,7
28804,28805,Yale POP_MASTER,ALR-032,,0,LGM-ALR-032,511,Pashto,2,1159.75,34.7829,70.2609,LGM,ALR,Gari,704,Alingar,???????,Laghman,?????,7
28805,28806,Yale POP_MASTER,ALR-033,,0,LGM-ALR-033,329,Pashto,2,856.0861206000001,34.7869,70.3267,LGM,ALR,Ghondi,704,Alingar,???????,Laghman,?????,7
28806,28807,Yale POP_MASTER,ALR-035,,0,LGM-ALR-035,331,Pashto,2,878.3931274,34.7963,70.3442,LGM,ALR,Gul Makach,704,Alingar,???????,Laghman,?????,7
28807,28808,Yale POP_MASTER,ALR-036,,0,LGM-ALR-036,769,Pashto,2,888.5645752,34.7912,70.3402,LGM,ALR,Hal Hajeg,704,Alingar,???????,Laghman,?????,7
28808,28809,Yale POP_MASTER,ALR-037,,0,LGM-ALR-037,1463,Pashto,2,955.7982178,34.7741,70.3649,LGM,ALR,Haram Khail,704,Alingar,???????,Laghman,?????,7
28809,28810,Yale POP_MASTER,ALR-044,,0,LGM-ALR-044,1080,Pashto,2,854.6741943,34.749,70.31,LGM,ALR,Kalatak,704,Alingar,???????,Laghman,?????,7
28810,28811,Yale POP_MASTER,ALR-045,,0,LGM-ALR-045,1068,Pashto,2,990.1348267000001,34.7641,70.367,LGM,ALR,Kalay,704,Alingar,???????,Laghman,?????,7
28811,28812,Yale POP_MASTER,ALR-052,,0,LGM-ALR-052,760,Pashto,2,871.0266113,34.8025,70.3395,LGM,ALR,Kokhi,704,Alingar,???????,Laghman,?????,7
28812,28813,Yale POP_MASTER,ALR-054,,0,LGM-ALR-054,1536,Pashto,2,847.1038207999999,34.7648,70.3167,LGM,ALR,Kota Khail,704,Alingar,???????,Laghman,?????,7
28813,28814,Yale POP_MASTER,ALR-056,,0,LGM-ALR-056,1643,Pashto,2,854.6049194,34.7815,70.3177,LGM,ALR,Kunda,704,Alingar,???????,Laghman,?????,7
28814,28815,Yale POP_MASTER,ALR-066,,0,LGM-ALR-066,1046,Pashto,2,917.2808838,34.7763,70.3384,LGM,ALR,Meya Khail Hulya,704,Alingar,???????,Laghman,?????,7
28815,28816,Yale POP_MASTER,ALR-067,,0,LGM-ALR-067,829,Pashto,2,916.0288086000002,34.7776,70.3455,LGM,ALR,Meya Khail Sufla,704,Alingar,???????,Laghman,?????,7
28816,28817,Yale POP_MASTER,ALR-070,,0,LGM-ALR-070,1588,Pashto,2,835.2241211,34.760999999999996,70.3131,LGM,ALR,Nem Nani,704,Alingar,???????,Laghman,?????,7
28817,28818,Yale POP_MASTER,ALR-074,,0,LGM-ALR-074,717,Pashto,2,953.3319702,34.7717,70.3599,LGM,ALR,Panj Kora,704,Alingar,???????,Laghman,?????,7
28818,28819,Yale POP_MASTER,ALR-079,,0,LGM-ALR-079,1616,Pashto,2,850.6115112,34.7726,70.3219,LGM,ALR,Pash Khail,704,Alingar,???????,Laghman,?????,7
28819,28820,Yale POP_MASTER,ALR-083,,0,LGM-ALR-083,1381,Pashto,2,873.2125854000001,34.7942,70.3287,LGM,ALR,Rajahe,704,Alingar,???????,Laghman,?????,7
28820,28821,Yale POP_MASTER,ALR-084,,0,LGM-ALR-084,1020,Pashto,2,911.0811767999999,34.7804,70.34899999999999,LGM,ALR,Road Kalay,704,Alingar,???????,Laghman,?????,7
28821,28822,Yale POP_MASTER,ALR-098,,0,LGM-ALR-098,431,Pashto,2,866.5626221000001,34.799,70.3381,LGM,ALR,Sheki,704,Alingar,???????,Laghman,?????,7
28822,28823,Yale POP_MASTER,ALR-100,,0,LGM-ALR-100,705,Pashto,2,1115.1639400000001,34.8092,70.2897,LGM,ALR,Shor Aba,704,Alingar,???????,Laghman,?????,7
28823,28824,Yale POP_MASTER,ALR-105,,0,LGM-ALR-105,685,Pashto,2,874.0679932,34.788000000000004,70.3341,LGM,ALR,Tak Lam,704,Alingar,???????,Laghman,?????,7
28824,28825,Yale POP_MASTER,ALR-106,,0,LGM-ALR-106,1392,Pashto,2,824.2896118,34.7491,70.3003,LGM,ALR,Tangor Shor Abad,704,Alingar,???????,Laghman,?????,7
28825,28826,Yale POP_MASTER,ALR-107,,0,LGM-ALR-107,330,Pashto,2,877.6958007999999,34.8084,70.3508,LGM,ALR,Touri Qala,704,Alingar,???????,Laghman,?????,7
28826,28827,Yale POP_MASTER,MTM-053,,0,LGM-MTM-053,1152,Pashto,2,817.97052,34.7428,70.2862,LGM,MTM,Aba Khail,701,Mehtarlam,???? ???,Laghman,?????,7
28827,28828,Yale POP_MASTER,MTM-070,,0,LGM-MTM-070,692,Pashto,2,898.0261841,34.7696,70.2911,LGM,MTM,Chanchar,701,Mehtarlam,???? ???,Laghman,?????,7
28828,28829,Yale POP_MASTER,MTM-157,,0,LGM-MTM-157,499,Pashto,2,830.1575928,34.7469,70.2856,LGM,MTM,Qala Jamo,701,Mehtarlam,???? ???,Laghman,?????,7
28829,28830,Yale POP_MASTER,MTM-187,,0,LGM-MTM-187,401,Pashto,2,826.277771,34.7658,70.3056,LGM,MTM,Shaikh Atar,701,Mehtarlam,???? ???,Laghman,?????,7
28830,28831,Yale POP_MASTER,ALR-065,,0,LGM-ALR-065,441,Pashai,6,1191.614014,34.7063,70.3559,LGM,ALR,Mazri,704,Alingar,???????,Laghman,?????,7
28831,28832,Yale POP_MASTER,ALR-069,,0,LGM-ALR-069,71,Pashai,6,1220.374023,34.705,70.3703,LGM,ALR,Naistak,704,Alingar,???????,Laghman,?????,7
28832,28833,Yale POP_MASTER,ALR-099,,0,LGM-ALR-099,1097,Pashto,2,838.2498779,34.738,70.2973,LGM,ALR,Shengari,704,Alingar,???????,Laghman,?????,7
30564,30565,CSO AIMS Villages (ACSOR),ALR-001,,0,LGM-ALR-001,81,Pashai,6,1036.624023,34.91693,70.37613,LGM,ALR,Baba Qala,704,Alingar,???????,Laghman,?????,7
30565,30566,CSO AIMS Villages (ACSOR),ALR-006,,0,LGM-ALR-006,213,Pashai,6,978.3549194,34.907579999999996,70.37913,LGM,ALR,Daryeng,704,Alingar,???????,Laghman,?????,7
30566,30567,CSO AIMS Villages (ACSOR),ALR-008,,0,LGM-ALR-008,981,Pashai,6,996.7797241000001,34.917359999999995,70.38286,LGM,ALR,Kotali,704,Alingar,???????,Laghman,?????,7
30567,30568,CSO AIMS Villages (ACSOR),ALR-011,,0,LGM-ALR-011,919,Pashai,6,1004.6970210000001,34.9114,70.37486,LGM,ALR,Lokar,704,Alingar,???????,Laghman,?????,7
30568,30569,CSO AIMS Villages (ACSOR),ALR-015,,0,LGM-ALR-015,752,Pashai,6,1031.964966,34.92325,70.39151,LGM,ALR,Tapak Walech,704,Alingar,???????,Laghman,?????,7
30594,30595,Yale POP_MASTER,NGM-052,,0,NRS-NGM-052,752,Pashai,6,1031.964966,34.9232,70.3915,NRS,NGM,Tapak Walech,704,Alingar,???????,Laghman,?????,7
30597,30598,Yale POP_MASTER,ALR-057,,0,LGM-ALR-057,1508,Pashai,6,1848.8029789999998,34.8917,70.5497,LGM,ALR,Kunda Gal,704,Alingar,???????,Laghman,?????,7
30598,30599,Yale POP_MASTER,ALR-058,,0,LGM-ALR-058,254,Pashai,6,1744.802002,34.8881,70.53,LGM,ALR,Kunda Gal Dahan Mamor,704,Alingar,???????,Laghman,?????,7
30599,30600,Yale POP_MASTER,ALR-019,,0,LGM-ALR-019,133,Other,9,1573.491943,34.9211,70.3392,LGM,ALR,Bandak Che,704,Alingar,???????,Laghman,?????,7
30600,30601,Yale POP_MASTER,ALR-039,,0,LGM-ALR-039,773,Pashto,2,965.3151244999999,34.8968,70.3802,LGM,ALR,Jalam,704,Alingar,???????,Laghman,?????,7
30601,30602,Yale POP_MASTER,ALR-040,,0,LGM-ALR-040,600,Pashto,2,968.2897949,34.8944,70.3737,LGM,ALR,Kach Gard,704,Alingar,???????,Laghman,?????,7
30602,30603,Yale POP_MASTER,ALR-072,,0,LGM-ALR-072,164,Pashto,2,1127.060059,34.8951,70.4018,LGM,ALR,Paigal,704,Alingar,???????,Laghman,?????,7
39468,39469,USAID AIDVillageView,MTM-011,,0,LGM-MTM-011,0,Pashto,2,1475.524048,34.6915,69.9237,LGM,MTM,Galoch,701,Mehtarlam,???? ???,Laghman,?????,7
39469,39470,USAID AIDVillageView,MTM-038,,0,LGM-MTM-038,0,Pashto,2,1278.77002,34.6647,69.9287,LGM,MTM,Senzalay,701,Mehtarlam,???? ???,Laghman,?????,7
39470,39471,Yale POP_MASTER,QGI-039,,0,LGM-QGI-039,98,Pashto,2,1658.282959,34.4686,69.9072,LGM,QGI,Band Wali Abdul Rahim Zaye,703,Qarghayi,???? ??,Laghman,?????,7
39471,39472,Yale POP_MASTER,QGI-057,,0,LGM-QGI-057,221,Pashto,2,1265.807983,34.4741,69.946,LGM,QGI,Gadaye Khail,703,Qarghayi,???? ??,Laghman,?????,7
39472,39473,Yale POP_MASTER,QGI-079,,0,LGM-QGI-079,170,Pashto,2,1308.590942,34.472,69.9306,LGM,QGI,Kami Bargi,703,Qarghayi,???? ??,Laghman,?????,7
39473,39474,Yale POP_MASTER,QGI-135,,0,LGM-QGI-135,696,Pashto,2,769.2520142000001,34.5141,69.9738,LGM,QGI,Sar Kando Baba,703,Qarghayi,???? ??,Laghman,?????,7
39583,39584,Yale POP_MASTER,MTM-054,,0,LGM-MTM-054,113,Pashto,2,1320.630005,34.6707,69.8904,LGM,MTM,Akhond Pate,701,Mehtarlam,???? ???,Laghman,?????,7
39584,39585,Yale POP_MASTER,MTM-060,,0,LGM-MTM-060,580,Pashto,2,1207.661011,34.6293,69.8766,LGM,MTM,Bad Peash Bar Kala,701,Mehtarlam,???? ???,Laghman,?????,7
39585,39586,Yale POP_MASTER,MTM-061,,0,LGM-MTM-061,165,Pashto,2,1094.285034,34.6129,69.896,LGM,MTM,Bad Peash Koza Kala,701,Mehtarlam,???? ???,Laghman,?????,7
39586,39587,Yale POP_MASTER,MTM-089,,0,LGM-MTM-089,59,Pashto,2,1402.766968,34.6824,69.9184,LGM,MTM,Gom Guluch,701,Mehtarlam,???? ???,Laghman,?????,7
39587,39588,Yale POP_MASTER,MTM-096,,0,LGM-MTM-096,207,Pashto,2,1542.6719970000001,34.6917,69.8851,LGM,MTM,Hand Road,701,Mehtarlam,???? ???,Laghman,?????,7
39588,39589,Yale POP_MASTER,MTM-103,,0,LGM-MTM-103,66,Pashto,2,1269.782959,34.6596,69.8838,LGM,MTM,Kandar,701,Mehtarlam,???? ???,Laghman,?????,7
39589,39590,Yale POP_MASTER,MTM-104,,0,LGM-MTM-104,43,Pashto,2,985.75,34.579,69.9498,LGM,MTM,Karaly Kas,701,Mehtarlam,???? ???,Laghman,?????,7
39590,39591,Yale POP_MASTER,MTM-105,,0,LGM-MTM-105,46,Pashto,2,1244.7380369999998,34.5969,69.8695,LGM,MTM,Karam Kol,701,Mehtarlam,???? ???,Laghman,?????,7
39591,39592,Yale POP_MASTER,MTM-113,,0,LGM-MTM-113,85,Pashto,2,1469.11499,34.6826,69.8896,LGM,MTM,Khusha Dand,701,Mehtarlam,???? ???,Laghman,?????,7
39592,39593,Yale POP_MASTER,MTM-123,,0,LGM-MTM-123,62,Pashto,2,1209.006958,34.6551,69.9277,LGM,MTM,Lokhi,701,Mehtarlam,???? ???,Laghman,?????,7
