,OBJECTID,SOURCE,VIL_UID,CENTER,CNTR_CODE,AFG_UID,POPULATION,LANGUAGE_,LANG_CODE,ELEVATION,LAT_Y,LON_X,MISTI_PROV,MISTI_DIST,VILLAGE_NA,DIST_CODE,DIST_NA_EN,DIST_NA_DA,PROV_NA_EN,PROV_NA_DA,PROV_CODE
76,77,Yale POP_MASTER,KRD-047,,0,NRZ-KRD-047,669,Pashto,2,601.2529907,31.6273,62.8806,NRZ,KRD,Lokhi,3405,Khashrod,??? ???,Nimroz,??????,34
77,78,Yale POP_MASTER,KRD-073,,0,NRZ-KRD-073,145,Dari,1,601.9801025,31.6227,62.8661,NRZ,KRD,Sayid Abad,3405,Khashrod,??? ???,Nimroz,??????,34
78,79,Yale POP_MASTER,KRD-081,District,1,NRZ-KRD-081,500,Pashto,2,602.944397,31.6265,62.8801,NRZ,KRD,Khash Rod,3405,Khashrod,??? ???,Nimroz,??????,34
79,80,USAID AIDVillageView,KRD-006,,0,NRZ-KRD-006,0,Balochi,5,619.2421264999999,31.6515,62.9372,NRZ,KRD,Khwaja Malekyar,3405,Khashrod,??? ???,Nimroz,??????,34
80,81,Yale POP_MASTER,KRD-016,,0,NRZ-KRD-016,774,Balochi,5,629.9998779,31.7019,63.0129,NRZ,KRD,Burj,3405,Khashrod,??? ???,Nimroz,??????,34
81,82,Yale POP_MASTER,KRD-021,,0,NRZ-KRD-021,618,Pashto,2,622.6157837000001,31.6717,63.0046,NRZ,KRD,Dewalak,3405,Khashrod,??? ???,Nimroz,??????,34
82,83,Yale POP_MASTER,KRD-029,,0,NRZ-KRD-029,1136,Balochi,5,619.2064209,31.6568,62.9589,NRZ,KRD,Gero,3405,Khashrod,??? ???,Nimroz,??????,34
83,84,Yale POP_MASTER,KRD-036,,0,NRZ-KRD-036,576,Balochi,5,623.8582763999999,31.6769,63.0167,NRZ,KRD,Kast,3405,Khashrod,??? ???,Nimroz,??????,34
84,85,Yale POP_MASTER,KRD-037,,0,NRZ-KRD-037,119,Balochi,5,637.0722046,31.7031,62.9703,NRZ,KRD,Khai Ab Ad Afghanya,3405,Khashrod,??? ???,Nimroz,??????,34
85,86,Yale POP_MASTER,KRD-039,,0,NRZ-KRD-039,99,Balochi,5,613.3673096,31.6386,62.9394,NRZ,KRD,Khakestari,3405,Khashrod,??? ???,Nimroz,??????,34
86,87,Yale POP_MASTER,KRD-046,,0,NRZ-KRD-046,496,Pashto,2,636.4846191,31.7211,63.0013,NRZ,KRD,Landi,3405,Khashrod,??? ???,Nimroz,??????,34
87,88,Yale POP_MASTER,KRD-049,,0,NRZ-KRD-049,438,Balochi,5,613.7799072,31.6279,62.973,NRZ,KRD,Manzari,3405,Khashrod,??? ???,Nimroz,??????,34
88,89,Yale POP_MASTER,KRD-071,,0,NRZ-KRD-071,537,Balochi,5,628.1796264999999,31.5863,62.931000000000004,NRZ,KRD,Sardar Hassan Khan,3405,Khashrod,??? ???,Nimroz,??????,34
89,90,Yale POP_MASTER,KRD-050,,0,NRZ-KRD-050,243,Balochi,5,621.8961182,31.9978,62.5209,NRZ,KRD,Mariz,3405,Khashrod,??? ???,Nimroz,??????,34
90,91,USAID AIDVillageView,ZRJ-003,,0,NRZ-ZRJ-003,0,Balochi,5,486.1325989,31.0398,61.8835,NRZ,ZRJ,Alimkhan,3401,Zaranj,????,Nimroz,??????,34
91,92,USAID AIDVillageView,KNG-001,,0,NRZ-KNG-001,0,Balochi,5,483.7738953,31.0967,61.8446,NRZ,KNG,A'zamkhan,3402,Kang,???,Nimroz,??????,34
92,93,USAID AIDVillageView,KNG-002,,0,NRZ-KNG-002,0,Balochi,5,482.2081909,31.1064,61.8733,NRZ,KNG,Abdullahkhan (1),3402,Kang,???,Nimroz,??????,34
93,94,USAID AIDVillageView,KNG-003,,0,NRZ-KNG-003,0,Balochi,5,481.58569339999997,31.1632,61.8419,NRZ,KNG,Abdullahkhan (2),3402,Kang,???,Nimroz,??????,34
94,95,USAID AIDVillageView,KNG-004,,0,NRZ-KNG-004,0,Balochi,5,487.1637878,31.0679,61.8627,NRZ,KNG,Abdulzaher,3402,Kang,???,Nimroz,??????,34
95,96,USAID AIDVillageView,KNG-005,,0,NRZ-KNG-005,0,Balochi,5,480.95941160000007,31.1836,61.8492,NRZ,KNG,Ahmadkhan,3402,Kang,???,Nimroz,??????,34
96,97,USAID AIDVillageView,KNG-006,,0,NRZ-KNG-006,0,Balochi,5,484.4732056,31.1001,61.8669,NRZ,KNG,Amir Mohd-khan (1),3402,Kang,???,Nimroz,??????,34
97,98,USAID AIDVillageView,KNG-007,,0,NRZ-KNG-007,0,Balochi,5,480.76849369999996,31.1412,61.8447,NRZ,KNG,Amir Mohd-khan (2),3402,Kang,???,Nimroz,??????,34
98,99,USAID AIDVillageView,KNG-008,,0,NRZ-KNG-008,0,Balochi,5,481.3662109,31.1061,61.8983,NRZ,KNG,Anwar,3402,Kang,???,Nimroz,??????,34
99,100,USAID AIDVillageView,KNG-009,,0,NRZ-KNG-009,0,Balochi,5,483.1799011,31.0993,61.873999999999995,NRZ,KNG,Anwarkhan,3402,Kang,???,Nimroz,??????,34
100,101,USAID AIDVillageView,KNG-010,,0,NRZ-KNG-010,0,Balochi,5,480.2897949,31.1734,61.8444,NRZ,KNG,Aydo,3402,Kang,???,Nimroz,??????,34
101,102,USAID AIDVillageView,KNG-011,,0,NRZ-KNG-011,0,Balochi,5,480.990509,31.1892,61.8425,NRZ,KNG,Balooch,3402,Kang,???,Nimroz,??????,34
102,103,USAID AIDVillageView,KNG-012,,0,NRZ-KNG-012,0,Balochi,5,479.8150024,31.1887,61.897,NRZ,KNG,Bdinkhan,3402,Kang,???,Nimroz,??????,34
103,104,USAID AIDVillageView,KNG-013,,0,NRZ-KNG-013,0,Balochi,5,482.9674988,31.0961,61.9047,NRZ,KNG,Da'udshah,3402,Kang,???,Nimroz,??????,34
104,105,USAID AIDVillageView,KNG-014,,0,NRZ-KNG-014,0,Balochi,5,480.35488889999993,31.1714,61.8612,NRZ,KNG,Dahmarda,3402,Kang,???,Nimroz,??????,34
105,106,USAID AIDVillageView,KNG-015,,0,NRZ-KNG-015,0,Balochi,5,482.4206848,31.1138,61.8549,NRZ,KNG,Daktar Pirmohd,3402,Kang,???,Nimroz,??????,34
106,107,USAID AIDVillageView,KNG-016,,0,NRZ-KNG-016,0,Balochi,5,483.7138977,31.0831,61.9142,NRZ,KNG,Dehe Afghanha,3402,Kang,???,Nimroz,??????,34
107,108,USAID AIDVillageView,KNG-017,,0,NRZ-KNG-017,0,Balochi,5,482.6817932,31.0814,61.9196,NRZ,KNG,Dehe Alambardar,3402,Kang,???,Nimroz,??????,34
108,109,USAID AIDVillageView,KNG-018,,0,NRZ-KNG-018,0,Balochi,5,483.46508789999996,31.0809,61.901,NRZ,KNG,Dehe Nader,3402,Kang,???,Nimroz,??????,34
109,110,USAID AIDVillageView,KNG-019,,0,NRZ-KNG-019,0,Balochi,5,477.857605,31.3053,61.7769,NRZ,KNG,Dehe Naw,3402,Kang,???,Nimroz,??????,34
110,111,USAID AIDVillageView,KNG-021,,0,NRZ-KNG-021,0,Balochi,5,481.47250369999995,31.1461,61.8894,NRZ,KNG,Ebrahimabad,3402,Kang,???,Nimroz,??????,34
111,112,USAID AIDVillageView,KNG-022,,0,NRZ-KNG-022,0,Balochi,5,478.61648560000003,31.1922,61.8649,NRZ,KNG,Faydzmohd Khan,3402,Kang,???,Nimroz,??????,34
112,113,USAID AIDVillageView,KNG-023,,0,NRZ-KNG-023,0,Balochi,5,479.02529910000004,31.1794,61.8319,NRZ,KNG,Gulkhan,3402,Kang,???,Nimroz,??????,34
113,114,USAID AIDVillageView,KNG-024,,0,NRZ-KNG-024,0,Balochi,5,480.30789180000005,31.1478,61.8606,NRZ,KNG,Haji Abdulmajid,3402,Kang,???,Nimroz,??????,34
114,115,USAID AIDVillageView,KNG-025,,0,NRZ-KNG-025,0,Balochi,5,482.02038569999996,31.1427,61.8261,NRZ,KNG,Haji Amir,3402,Kang,???,Nimroz,??????,34
115,116,USAID AIDVillageView,KNG-026,,0,NRZ-KNG-026,0,Balochi,5,482.1252136,31.1319,61.8774,NRZ,KNG,Haji Bazmohd,3402,Kang,???,Nimroz,??????,34
116,117,USAID AIDVillageView,KNG-027,,0,NRZ-KNG-027,0,Balochi,5,486.30398560000003,31.0638,61.8713,NRZ,KNG,Haji Darwesh,3402,Kang,???,Nimroz,??????,34
117,118,USAID AIDVillageView,KNG-028,,0,NRZ-KNG-028,0,Balochi,5,477.9786987,31.2284,61.8514,NRZ,KNG,Haji Gholamhosayn,3402,Kang,???,Nimroz,??????,34
118,119,USAID AIDVillageView,KNG-029,,0,NRZ-KNG-029,0,Balochi,5,478.89819339999997,31.2108,61.8433,NRZ,KNG,Haji Khangul,3402,Kang,???,Nimroz,??????,34
119,120,USAID AIDVillageView,KNG-030,,0,NRZ-KNG-030,0,Balochi,5,484.7804871,31.0702,61.8669,NRZ,KNG,Haji Khanmohd,3402,Kang,???,Nimroz,??????,34
120,121,USAID AIDVillageView,KNG-031,,0,NRZ-KNG-031,0,Balochi,5,480.1466980000001,31.1474,61.8274,NRZ,KNG,Haji Mohammad Akbar,3402,Kang,???,Nimroz,??????,34
121,122,USAID AIDVillageView,KNG-032,,0,NRZ-KNG-032,0,Balochi,5,486.25268550000004,31.0615,61.8529,NRZ,KNG,Haji Mohammad Rafiq,3402,Kang,???,Nimroz,??????,34
122,123,USAID AIDVillageView,KNG-033,,0,NRZ-KNG-033,0,Balochi,5,485.70959469999997,31.0561,61.888999999999996,NRZ,KNG,Haji Mohd A'zam,3402,Kang,???,Nimroz,??????,34
123,124,USAID AIDVillageView,KNG-034,,0,NRZ-KNG-034,0,Balochi,5,484.6388855000001,31.1223,61.843,NRZ,KNG,Haji Mulla Zafar,3402,Kang,???,Nimroz,??????,34
124,125,USAID AIDVillageView,KNG-035,,0,NRZ-KNG-035,0,Balochi,5,484.51971439999994,31.0939,61.8398,NRZ,KNG,Haji-gholam Hasan,3402,Kang,???,Nimroz,??????,34
125,126,USAID AIDVillageView,KNG-036,,0,NRZ-KNG-036,0,Balochi,5,481.49719239999996,31.1717,61.8988,NRZ,KNG,Hajimalang,3402,Kang,???,Nimroz,??????,34
126,127,USAID AIDVillageView,KNG-037,,0,NRZ-KNG-037,0,Balochi,5,483.59829709999997,31.0842,61.8684,NRZ,KNG,Haybat,3402,Kang,???,Nimroz,??????,34
127,128,USAID AIDVillageView,KNG-038,,0,NRZ-KNG-038,0,Balochi,5,482.1091919,31.1252,61.8651,NRZ,KNG,Kalantar,3402,Kang,???,Nimroz,??????,34
128,129,USAID AIDVillageView,KNG-039,,0,NRZ-KNG-039,0,Balochi,5,480.9233093,31.136999999999997,61.8713,NRZ,KNG,Karnay,3402,Kang,???,Nimroz,??????,34
129,130,USAID AIDVillageView,KNG-040,,0,NRZ-KNG-040,0,Balochi,5,478.0965881,31.2055,61.8491,NRZ,KNG,Kawdagaz,3402,Kang,???,Nimroz,??????,34
130,131,USAID AIDVillageView,KNG-041,,0,NRZ-KNG-041,0,Balochi,5,480.1568909,31.1841,61.8164,NRZ,KNG,Khair Mohammad,3402,Kang,???,Nimroz,??????,34
131,132,USAID AIDVillageView,KNG-042,,0,NRZ-KNG-042,0,Balochi,5,483.38571169999994,31.1194,61.818000000000005,NRZ,KNG,Khoda Bakhsh,3402,Kang,???,Nimroz,??????,34
132,133,USAID AIDVillageView,KNG-043,,0,NRZ-KNG-043,0,Balochi,5,482.8830872,31.0962,61.87,NRZ,KNG,Khodaydad,3402,Kang,???,Nimroz,??????,34
133,134,USAID AIDVillageView,KNG-044,,0,NRZ-KNG-044,0,Balochi,5,480.5112,31.1857,61.8554,NRZ,KNG,Madadi Shadi,3402,Kang,???,Nimroz,??????,34
134,135,USAID AIDVillageView,KNG-045,,0,NRZ-KNG-045,0,Balochi,5,481.6868896000001,31.1766,61.8469,NRZ,KNG,Mingal,3402,Kang,???,Nimroz,??????,34
135,136,USAID AIDVillageView,KNG-046,,0,NRZ-KNG-046,0,Balochi,5,484.14450070000004,31.1038,61.842,NRZ,KNG,Mirza Abdulkarim,3402,Kang,???,Nimroz,??????,34
136,137,USAID AIDVillageView,KNG-047,,0,NRZ-KNG-047,0,Balochi,5,485.87820430000005,31.076,61.8454,NRZ,KNG,Mirza Ahmadkhan,3402,Kang,???,Nimroz,??????,34
137,138,USAID AIDVillageView,KNG-048,,0,NRZ-KNG-048,0,Balochi,5,482.8033142,31.0479,61.8416,NRZ,KNG,Mirza Mohammad Rasul Zori,3402,Kang,???,Nimroz,??????,34
138,139,USAID AIDVillageView,KNG-049,,0,NRZ-KNG-049,0,Balochi,5,482.49578859999997,31.1264,61.8851,NRZ,KNG,Mirza Mohd Eshaq,3402,Kang,???,Nimroz,??????,34
139,140,USAID AIDVillageView,KNG-050,,0,NRZ-KNG-050,0,Balochi,5,485.05068969999996,31.0627,61.8472,NRZ,KNG,Mirza Mohd-sa'id,3402,Kang,???,Nimroz,??????,34
140,141,USAID AIDVillageView,KNG-051,,0,NRZ-KNG-051,0,Balochi,5,483.99670410000004,31.0686,61.9027,NRZ,KNG,Mirza Sayedmohd,3402,Kang,???,Nimroz,??????,34
141,142,USAID AIDVillageView,KNG-052,,0,NRZ-KNG-052,0,Balochi,5,483.6303101,31.0998,61.8576,NRZ,KNG,Mo'awen,3402,Kang,???,Nimroz,??????,34
142,143,USAID AIDVillageView,KNG-053,,0,NRZ-KNG-053,0,Balochi,5,478.5701904,31.1769,61.8135,NRZ,KNG,Mohammad Sadiq,3402,Kang,???,Nimroz,??????,34
143,144,USAID AIDVillageView,KNG-054,,0,NRZ-KNG-054,0,Balochi,5,482.26058960000006,31.0844,61.9009,NRZ,KNG,Mohd Alamkhan,3402,Kang,???,Nimroz,??????,34
144,145,USAID AIDVillageView,KNG-055,,0,NRZ-KNG-055,0,Balochi,5,480.87908939999994,31.1507,61.8774,NRZ,KNG,Mohd Ayub (1),3402,Kang,???,Nimroz,??????,34
145,146,USAID AIDVillageView,KNG-056,,0,NRZ-KNG-056,0,Balochi,5,484.9966125,31.0522,61.8673,NRZ,KNG,Mohd Ayub (2),3402,Kang,???,Nimroz,??????,34
146,147,USAID AIDVillageView,KNG-057,,0,NRZ-KNG-057,0,Balochi,5,481.96520999999996,31.0973,61.9318,NRZ,KNG,Mohd Ayub Mirawbashi,3402,Kang,???,Nimroz,??????,34
147,148,USAID AIDVillageView,KNG-058,,0,NRZ-KNG-058,0,Balochi,5,487.2713013,31.0412,61.8562,NRZ,KNG,Mohd Hashem,3402,Kang,???,Nimroz,??????,34
148,149,USAID AIDVillageView,KNG-059,,0,NRZ-KNG-059,0,Balochi,5,478.4678955,31.1879,61.8535,NRZ,KNG,Mohd Hosayn,3402,Kang,???,Nimroz,??????,34
149,150,USAID AIDVillageView,KNG-060,,0,NRZ-KNG-060,0,Balochi,5,482.7047119,31.0923,61.8995,NRZ,KNG,Mohd Khan,3402,Kang,???,Nimroz,??????,34
150,151,USAID AIDVillageView,KNG-061,,0,NRZ-KNG-061,0,Balochi,5,478.3967896000001,31.1808,61.873000000000005,NRZ,KNG,Mohd Omarkhan,3402,Kang,???,Nimroz,??????,34
151,152,USAID AIDVillageView,KNG-062,,0,NRZ-KNG-062,0,Balochi,5,482.8537903,31.1323,61.8892,NRZ,KNG,Mohd Seddiq,3402,Kang,???,Nimroz,??????,34
152,153,USAID AIDVillageView,KNG-063,,0,NRZ-KNG-063,0,Balochi,5,483.2644043000001,31.0881,61.8772,NRZ,KNG,Mohd Ya'qub,3402,Kang,???,Nimroz,??????,34
153,154,USAID AIDVillageView,KNG-064,,0,NRZ-KNG-064,0,Balochi,5,480.03671260000004,31.1172,61.895,NRZ,KNG,Mohd Yosuf Khangul,3402,Kang,???,Nimroz,??????,34
154,155,USAID AIDVillageView,KNG-065,,0,NRZ-KNG-065,0,Balochi,5,478.9006041999999,31.1979,61.7905,NRZ,KNG,Mohd-dadi,3402,Kang,???,Nimroz,??????,34
155,156,USAID AIDVillageView,KNG-066,,0,NRZ-KNG-066,0,Balochi,5,480.2800903,31.1545,61.8822,NRZ,KNG,Mohd-zaynal,3402,Kang,???,Nimroz,??????,34
156,157,USAID AIDVillageView,KNG-067,,0,NRZ-KNG-067,0,Balochi,5,484.3980103,31.0742,61.8812,NRZ,KNG,Mulla Akhtarmohd,3402,Kang,???,Nimroz,??????,34
157,158,USAID AIDVillageView,KNG-068,,0,NRZ-KNG-068,0,Balochi,5,485.02011110000007,31.089000000000002,61.8572,NRZ,KNG,Mulla Bahlol,3402,Kang,???,Nimroz,??????,34
158,159,USAID AIDVillageView,KNG-069,,0,NRZ-KNG-069,0,Balochi,5,477.8763123,31.1633,61.8675,NRZ,KNG,Mulla Juma,3402,Kang,???,Nimroz,??????,34
159,160,USAID AIDVillageView,KNG-070,,0,NRZ-KNG-070,0,Balochi,5,478.4508972,31.1559,61.8475,NRZ,KNG,Mulla Mirza,3402,Kang,???,Nimroz,??????,34
160,161,USAID AIDVillageView,KNG-071,,0,NRZ-KNG-071,0,Balochi,5,486.62899780000004,31.0549,61.8559,NRZ,KNG,Mulla Sherdel,3402,Kang,???,Nimroz,??????,34
161,162,USAID AIDVillageView,KNG-072,,0,NRZ-KNG-072,0,Balochi,5,478.4360962,31.1722,61.9079,NRZ,KNG,Mustafa,3402,Kang,???,Nimroz,??????,34
162,163,USAID AIDVillageView,KNG-073,,0,NRZ-KNG-073,0,Balochi,5,478.89538569999996,31.186999999999998,61.8276,NRZ,KNG,Noor Ahmad Sadozai,3402,Kang,???,Nimroz,??????,34
163,164,USAID AIDVillageView,KNG-075,,0,NRZ-KNG-075,0,Balochi,5,483.22378539999994,31.1082,61.8503,NRZ,KNG,Qayemkhan,3402,Kang,???,Nimroz,??????,34
164,165,USAID AIDVillageView,KNG-076,,0,NRZ-KNG-076,0,Balochi,5,482.1440125,31.1524,61.8347,NRZ,KNG,Rhmatullah Khan,3402,Kang,???,Nimroz,??????,34
165,166,USAID AIDVillageView,KNG-077,,0,NRZ-KNG-077,0,Balochi,5,478.7977905,31.2106,61.8898,NRZ,KNG,Rustam,3402,Kang,???,Nimroz,??????,34
166,167,USAID AIDVillageView,KNG-078,,0,NRZ-KNG-078,0,Balochi,5,479.4921875,31.1676,61.8535,NRZ,KNG,Safarkhan,3402,Kang,???,Nimroz,??????,34
167,168,USAID AIDVillageView,KNG-079,,0,NRZ-KNG-079,0,Balochi,5,484.31600949999995,31.0787,61.8785,NRZ,KNG,Sahebkhan,3402,Kang,???,Nimroz,??????,34
168,169,USAID AIDVillageView,KNG-080,,0,NRZ-KNG-080,0,Balochi,5,481.75628660000007,31.1145,61.886,NRZ,KNG,Said Noor,3402,Kang,???,Nimroz,??????,34
169,170,USAID AIDVillageView,KNG-081,,0,NRZ-KNG-081,0,Balochi,5,480.2737122,31.1731,61.8107,NRZ,KNG,Samad Khan,3402,Kang,???,Nimroz,??????,34
170,171,USAID AIDVillageView,KNG-082,,0,NRZ-KNG-082,0,Balochi,5,483.78649900000005,31.0868,61.87,NRZ,KNG,Sayd Abdulghafurshah,3402,Kang,???,Nimroz,??????,34
171,172,USAID AIDVillageView,KNG-083,,0,NRZ-KNG-083,0,Balochi,5,482.68240360000004,31.1096,61.8889,NRZ,KNG,Sayed Ebrahimshah,3402,Kang,???,Nimroz,??????,34
172,173,USAID AIDVillageView,KNG-084,,0,NRZ-KNG-084,0,Balochi,5,480.71640010000004,31.1084,61.8951,NRZ,KNG,Sayededarrahe Shah,3402,Kang,???,Nimroz,??????,34
173,174,USAID AIDVillageView,KNG-085,,0,NRZ-KNG-085,0,Balochi,5,478.7499084,31.1687,61.8783,NRZ,KNG,Shaghasi,3402,Kang,???,Nimroz,??????,34
174,175,USAID AIDVillageView,KNG-086,,0,NRZ-KNG-086,0,Balochi,5,482.6712036,31.1395,61.8912,NRZ,KNG,Sher Alikhan (1),3402,Kang,???,Nimroz,??????,34
175,176,USAID AIDVillageView,KNG-087,,0,NRZ-KNG-087,0,Balochi,5,478.80041500000004,31.1609,61.8677,NRZ,KNG,Sher Alikhan (2),3402,Kang,???,Nimroz,??????,34
176,177,USAID AIDVillageView,KNG-088,,0,NRZ-KNG-088,0,Balochi,5,484.47979739999994,31.1007,61.842,NRZ,KNG,Sherahmadkhan,3402,Kang,???,Nimroz,??????,34
177,178,USAID AIDVillageView,KNG-089,,0,NRZ-KNG-089,0,Balochi,5,481.4432983,31.1354,61.879,NRZ,KNG,Shermalang,3402,Kang,???,Nimroz,??????,34
178,179,USAID AIDVillageView,KNG-090,,0,NRZ-KNG-090,0,Balochi,5,484.35501100000005,31.0956,61.855,NRZ,KNG,Shermohd,3402,Kang,???,Nimroz,??????,34
179,180,USAID AIDVillageView,KNG-091,,0,NRZ-KNG-091,0,Balochi,5,482.4454956,31.113000000000003,61.8484,NRZ,KNG,Suti-daro,3402,Kang,???,Nimroz,??????,34
180,181,USAID AIDVillageView,KNG-092,,0,NRZ-KNG-092,0,Balochi,5,485.9697876,31.0619,61.8622,NRZ,KNG,Tajmohd,3402,Kang,???,Nimroz,??????,34
181,182,Yale POP_MASTER,KNG-093,,0,NRZ-KNG-093,91,Balochi,5,485.18078610000003,31.1136,61.8343,NRZ,KNG,Abdul Baqi,3402,Kang,???,Nimroz,??????,34
182,183,Yale POP_MASTER,KNG-095,,0,NRZ-KNG-095,190,Balochi,5,481.35571289999996,31.1528,61.8177,NRZ,KNG,Abdul Qayoum,3402,Kang,???,Nimroz,??????,34
183,184,Yale POP_MASTER,KNG-096,,0,NRZ-KNG-096,217,Balochi,5,478.3252869,31.234,61.7916,NRZ,KNG,Abdul Rahim,3402,Kang,???,Nimroz,??????,34
184,185,Yale POP_MASTER,KNG-097,,0,NRZ-KNG-097,250,Balochi,5,484.49899289999996,31.0588,61.8448,NRZ,KNG,Abdul Rahman,3402,Kang,???,Nimroz,??????,34
185,186,Yale POP_MASTER,KNG-098,,0,NRZ-KNG-098,133,Balochi,5,478.08190920000004,31.2171,61.7796,NRZ,KNG,Abdul Samad,3402,Kang,???,Nimroz,??????,34
186,187,Yale POP_MASTER,KNG-099,,0,NRZ-KNG-099,3959,Balochi,5,479.115509,31.1683,61.809,NRZ,KNG,Abdul Wahid,3402,Kang,???,Nimroz,??????,34
187,188,Yale POP_MASTER,KNG-100,,0,NRZ-KNG-100,42,Balochi,5,478.7331848,31.1465,61.9,NRZ,KNG,Bagh Wahsh,3402,Kang,???,Nimroz,??????,34
188,189,Yale POP_MASTER,KNG-102,,0,NRZ-KNG-102,439,Balochi,5,477.85339360000006,31.2221,61.8173,NRZ,KNG,Da Murda,3402,Kang,???,Nimroz,??????,34
189,190,Yale POP_MASTER,KNG-103,,0,NRZ-KNG-103,63,Balochi,5,479.6328125,31.2166,61.8462,NRZ,KNG,Dahi Koh Kan,3402,Kang,???,Nimroz,??????,34
190,191,Yale POP_MASTER,KNG-104,,0,NRZ-KNG-104,1128,Balochi,5,480.90979000000004,31.1579,61.8064,NRZ,KNG,Darwishe,3402,Kang,???,Nimroz,??????,34
191,192,Yale POP_MASTER,KNG-105,,0,NRZ-KNG-105,245,Balochi,5,477.32238770000004,31.2964,61.7993,NRZ,KNG,Deyahk Bala,3402,Kang,???,Nimroz,??????,34
192,193,Yale POP_MASTER,KNG-106,,0,NRZ-KNG-106,331,Balochi,5,477.3427124,31.3026,61.816,NRZ,KNG,Deyahkay Narwi,3402,Kang,???,Nimroz,??????,34
193,194,Yale POP_MASTER,KNG-107,,0,NRZ-KNG-107,457,Balochi,5,478.2314148,31.2295,61.7789,NRZ,KNG,Ghulam Maheudin,3402,Kang,???,Nimroz,??????,34
194,195,Yale POP_MASTER,KNG-108,,0,NRZ-KNG-108,47,Balochi,5,478.5566101,31.2017,61.8845,NRZ,KNG,Haji Ali Jan,3402,Kang,???,Nimroz,??????,34
195,196,Yale POP_MASTER,KNG-109,,0,NRZ-KNG-109,64,Balochi,5,479.461792,31.1864,61.8077,NRZ,KNG,Haji Aqa Jan,3402,Kang,???,Nimroz,??????,34
196,197,Yale POP_MASTER,KNG-110,,0,NRZ-KNG-110,281,Dari,1,484.4711914,31.1059,61.8211,NRZ,KNG,Haji Mir Ahmad,3402,Kang,???,Nimroz,??????,34
197,198,Yale POP_MASTER,KNG-111,,0,NRZ-KNG-111,52,Balochi,5,478.7507935,31.2099,61.8711,NRZ,KNG,Haji Mohammad,3402,Kang,???,Nimroz,??????,34
198,199,Yale POP_MASTER,KNG-112,,0,NRZ-KNG-112,46,Balochi,5,476.9509888,31.3202,61.7844,NRZ,KNG,Haji Mohammad Sharif,3402,Kang,???,Nimroz,??????,34
199,200,Yale POP_MASTER,KNG-113,,0,NRZ-KNG-113,184,Balochi,5,479.5318909,31.175,61.8212,NRZ,KNG,Haji Nabi Khan,3402,Kang,???,Nimroz,??????,34
200,201,Yale POP_MASTER,KNG-114,,0,NRZ-KNG-114,40,Balochi,5,483.18701169999997,31.1187,61.8709,NRZ,KNG,Haji Shamsuldin,3402,Kang,???,Nimroz,??????,34
201,202,Yale POP_MASTER,KNG-115,,0,NRZ-KNG-115,16,Balochi,5,482.05981449999996,31.1333,61.8205,NRZ,KNG,Ismahel Khan,3402,Kang,???,Nimroz,??????,34
202,203,Yale POP_MASTER,KNG-117,,0,NRZ-KNG-117,266,Balochi,5,484.66879270000004,31.1414,61.8107,NRZ,KNG,Kang Moqim,3402,Kang,???,Nimroz,??????,34
203,204,Yale POP_MASTER,KNG-118,,0,NRZ-KNG-118,112,Balochi,5,477.2565918000001,31.3189,61.7681,NRZ,KNG,Karkay,3402,Kang,???,Nimroz,??????,34
204,205,Yale POP_MASTER,KNG-119,,0,NRZ-KNG-119,200,Balochi,5,477.27551270000004,31.3567,61.8039,NRZ,KNG,Karta,3402,Kang,???,Nimroz,??????,34
205,206,Yale POP_MASTER,KNG-120,,0,NRZ-KNG-120,189,Balochi,5,478.76049800000004,31.2084,61.7787,NRZ,KNG,Kharote,3402,Kang,???,Nimroz,??????,34
206,207,Yale POP_MASTER,KNG-121,,0,NRZ-KNG-121,225,Balochi,5,480.6557007,31.1282,61.909,NRZ,KNG,Langar,3402,Kang,???,Nimroz,??????,34
207,208,Yale POP_MASTER,KNG-122,,0,NRZ-KNG-122,995,Dari,1,484.079895,31.1121,61.8124,NRZ,KNG,Makgay,3402,Kang,???,Nimroz,??????,34
208,209,Yale POP_MASTER,KNG-123,,0,NRZ-KNG-123,118,Balochi,5,479.42581179999996,31.1399,61.9096,NRZ,KNG,Miro Bashi,3402,Kang,???,Nimroz,??????,34
209,210,Yale POP_MASTER,KNG-124,,0,NRZ-KNG-124,31,Balochi,5,484.54229739999994,31.0831,61.8392,NRZ,KNG,Mirza Ahmad Sayid,3402,Kang,???,Nimroz,??????,34
210,211,Yale POP_MASTER,KNG-125,,0,NRZ-KNG-125,184,Balochi,5,477.0231018,31.1913,61.9148,NRZ,KNG,Mohammad Afzal,3402,Kang,???,Nimroz,??????,34
211,212,Yale POP_MASTER,KNG-126,,0,NRZ-KNG-126,159,Balochi,5,484.05160520000004,31.201999999999998,61.916000000000004,NRZ,KNG,Mohammad Akbar,3402,Kang,???,Nimroz,??????,34
212,213,Yale POP_MASTER,KNG-127,,0,NRZ-KNG-127,79,Balochi,5,477.2767944,31.2207,61.8048,NRZ,KNG,Mohammad Ayoub Khan,3402,Kang,???,Nimroz,??????,34
238,239,Yale POP_MASTER,CKS-052,,0,NRZ-CKS-052,294,Balochi,5,482.90969850000005,31.2104,62.0758,NRZ,CKS,Alla Dad Shah Ghesi,3404,Chakhansur,???????,Nimroz,??????,34
239,240,Yale POP_MASTER,CKS-053,,0,NRZ-CKS-053,528,Balochi,5,497.58999630000005,31.326,62.2923,NRZ,CKS,Amir Abad Kada,3404,Chakhansur,???????,Nimroz,??????,34
240,241,Yale POP_MASTER,CKS-054,,0,NRZ-CKS-054,195,Balochi,5,484.3375853999999,31.1705,62.1359,NRZ,CKS,Amir Bonyad,3404,Chakhansur,???????,Nimroz,??????,34
241,242,Yale POP_MASTER,CKS-055,,0,NRZ-CKS-055,101,Balochi,5,481.2654114,31.2248,62.0535,NRZ,CKS,Aqa Mohammad,3404,Chakhansur,???????,Nimroz,??????,34
242,243,Yale POP_MASTER,CKS-056,,0,NRZ-CKS-056,189,Balochi,5,497.9862976,31.3545,62.3503,NRZ,CKS,Borak Zaye,3404,Chakhansur,???????,Nimroz,??????,34
243,244,Yale POP_MASTER,CKS-057,,0,NRZ-CKS-057,66,Balochi,5,482.3482056,31.2268,62.0994,NRZ,CKS,Borhan Khan Ghafor Khan,3404,Chakhansur,???????,Nimroz,??????,34
244,245,Yale POP_MASTER,CKS-058,,0,NRZ-CKS-058,64,Balochi,5,487.4660034,31.2121,62.1359,NRZ,CKS,Chara Kay,3404,Chakhansur,???????,Nimroz,??????,34
245,246,Yale POP_MASTER,CKS-059,,0,NRZ-CKS-059,77,Balochi,5,488.0061951,31.2179,62.1469,NRZ,CKS,Dahano,3404,Chakhansur,???????,Nimroz,??????,34
246,247,Yale POP_MASTER,CKS-060,,0,NRZ-CKS-060,15,Balochi,5,479.92608640000003,31.1753,62.0313,NRZ,CKS,Dogh Abad,3404,Chakhansur,???????,Nimroz,??????,34
247,248,Yale POP_MASTER,CKS-061,,0,NRZ-CKS-061,92,Balochi,5,488.6534119,31.2336,62.1716,NRZ,CKS,Eassa Khan,3404,Chakhansur,???????,Nimroz,??????,34
248,249,Yale POP_MASTER,CKS-062,,0,NRZ-CKS-062,50,Balochi,5,483.62078859999997,31.1869,62.0918,NRZ,CKS,Fazel Ahmad Khawashi,3404,Chakhansur,???????,Nimroz,??????,34
249,250,Yale POP_MASTER,CKS-063,,0,NRZ-CKS-063,151,Balochi,5,479.26831050000004,31.2358,62.0588,NRZ,CKS,Gala Bacha Bashar,3404,Chakhansur,???????,Nimroz,??????,34
250,251,Yale POP_MASTER,CKS-064,,0,NRZ-CKS-064,14,Balochi,5,484.61788939999997,31.171999999999997,62.1249,NRZ,CKS,Gulab Zaye,3404,Chakhansur,???????,Nimroz,??????,34
251,252,Yale POP_MASTER,CKS-065,,0,NRZ-CKS-065,16,Balochi,5,484.47311399999995,31.1785,62.063,NRZ,CKS,Gulzar Bor Mohammad,3404,Chakhansur,???????,Nimroz,??????,34
252,253,Yale POP_MASTER,CKS-066,,0,NRZ-CKS-066,177,Balochi,5,484.5238953,31.1893,62.1192,NRZ,CKS,Habibulah Wa Lahl Khan,3404,Chakhansur,???????,Nimroz,??????,34
253,254,Yale POP_MASTER,CKS-067,,0,NRZ-CKS-067,147,Balochi,5,481.4271851,31.2247,62.0636,NRZ,CKS,Haji Ghulam Hassan,3404,Chakhansur,???????,Nimroz,??????,34
254,255,Yale POP_MASTER,CKS-068,,0,NRZ-CKS-068,67,Balochi,5,487.1987,31.2311,62.1551,NRZ,CKS,Haji Hssain,3404,Chakhansur,???????,Nimroz,??????,34
255,256,Yale POP_MASTER,CKS-069,,0,NRZ-CKS-069,32,Balochi,5,484.87759400000004,31.158,62.1119,NRZ,CKS,Haji Kamaludin,3404,Chakhansur,???????,Nimroz,??????,34
256,257,Yale POP_MASTER,CKS-070,,0,NRZ-CKS-070,35,Balochi,5,487.28491210000004,31.2062,62.1726,NRZ,CKS,Haji Mohammad Omar Isaq Zal,3404,Chakhansur,???????,Nimroz,??????,34
257,258,Yale POP_MASTER,CKS-071,,0,NRZ-CKS-071,61,Balochi,5,482.94180300000005,31.1857,62.0659,NRZ,CKS,Haji Mohammad Rasol,3404,Chakhansur,???????,Nimroz,??????,34
258,259,Yale POP_MASTER,CKS-072,,0,NRZ-CKS-072,247,Balochi,5,485.3522034,31.2348,62.1973,NRZ,CKS,Haji Nahim,3404,Chakhansur,???????,Nimroz,??????,34
259,260,Yale POP_MASTER,CKS-073,,0,NRZ-CKS-073,29,Balochi,5,480.76791380000003,31.2096,62.0453,NRZ,CKS,Haji Noorudin,3404,Chakhansur,???????,Nimroz,??????,34
260,261,Yale POP_MASTER,CKS-086,,0,NRZ-CKS-086,94,Balochi,5,482.5476074,31.1753,62.0362,NRZ,CKS,Khan Mohammad Gul Baid,3404,Chakhansur,???????,Nimroz,??????,34
261,262,Yale POP_MASTER,CKS-087,,0,NRZ-CKS-087,514,Balochi,5,497.9625853999999,31.3315,62.3237,NRZ,CKS,Khowja Sar Jowi,3404,Chakhansur,???????,Nimroz,??????,34
262,263,Yale POP_MASTER,CKS-088,,0,NRZ-CKS-088,260,Balochi,5,481.605896,31.3108,61.9985,NRZ,CKS,Kola Daki,3404,Chakhansur,???????,Nimroz,??????,34
263,264,Yale POP_MASTER,CKS-089,,0,NRZ-CKS-089,158,Balochi,5,488.1216125,31.2387,62.1711,NRZ,CKS,Kolokhi Eido Khan,3404,Chakhansur,???????,Nimroz,??????,34
264,265,Yale POP_MASTER,CKS-090,,0,NRZ-CKS-090,58,Balochi,5,484.55828859999997,31.1932,62.0998,NRZ,CKS,Lahl Mohammad,3404,Chakhansur,???????,Nimroz,??????,34
265,266,Yale POP_MASTER,CKS-091,,0,NRZ-CKS-091,68,Balochi,5,488.71279910000004,31.2458,62.1846,NRZ,CKS,Malik Abdul Rahman,3404,Chakhansur,???????,Nimroz,??????,34
266,267,Yale POP_MASTER,CKS-092,,0,NRZ-CKS-092,221,Balochi,5,482.174408,31.1731,62.0686,NRZ,CKS,Markaz Wolluswaly,3404,Chakhansur,???????,Nimroz,??????,34
267,268,Yale POP_MASTER,CKS-093,,0,NRZ-CKS-093,143,Balochi,5,481.844696,31.2301,62.0356,NRZ,CKS,Mehr Ali Khan,3404,Chakhansur,???????,Nimroz,??????,34
268,269,Yale POP_MASTER,CKS-094,,0,NRZ-CKS-094,45,Balochi,5,477.9371033,31.1423,62.0208,NRZ,CKS,Mirza Hassain,3404,Chakhansur,???????,Nimroz,??????,34
269,270,Yale POP_MASTER,CKS-095,,0,NRZ-CKS-095,300,Balochi,5,485.7460938,31.2398,62.1229,NRZ,CKS,Mohammad Ahzam Gadal,3404,Chakhansur,???????,Nimroz,??????,34
270,271,Yale POP_MASTER,CKS-096,,0,NRZ-CKS-096,51,Balochi,5,478.9812012,31.2146,62.0478,NRZ,CKS,Mohammad Hassan Buzi,3404,Chakhansur,???????,Nimroz,??????,34
271,272,Yale POP_MASTER,CKS-097,,0,NRZ-CKS-097,87,Balochi,5,481.5698853,31.1731,62.0285,NRZ,CKS,Mohammad Hassan Khalifa Mullah Rasol,3404,Chakhansur,???????,Nimroz,??????,34
272,273,Yale POP_MASTER,CKS-098,,0,NRZ-CKS-098,193,Balochi,5,481.8138123,31.1642,62.0513,NRZ,CKS,Mullah Amir,3404,Chakhansur,???????,Nimroz,??????,34
273,274,Yale POP_MASTER,CKS-099,,0,NRZ-CKS-099,33,Balochi,5,480.73941039999994,31.2028,62.0523,NRZ,CKS,Mullah Hadil Salim,3404,Chakhansur,???????,Nimroz,??????,34
274,275,Yale POP_MASTER,CKS-100,,0,NRZ-CKS-100,67,Balochi,5,480.66040039999996,31.1612,62.0473,NRZ,CKS,Mullah Jumha,3404,Chakhansur,???????,Nimroz,??????,34
275,276,Yale POP_MASTER,CKS-101,,0,NRZ-CKS-101,33,Balochi,5,481.4699097,31.2182,62.0825,NRZ,CKS,Mullah Rasol Dilkhaki,3404,Chakhansur,???????,Nimroz,??????,34
276,277,Yale POP_MASTER,CKS-102,,0,NRZ-CKS-102,54,Balochi,5,480.51110839999996,31.2344,62.033,NRZ,CKS,Mullah Sulaiman Haji Mussa,3404,Chakhansur,???????,Nimroz,??????,34
277,278,Yale POP_MASTER,CKS-103,,0,NRZ-CKS-103,51,Balochi,5,481.9840088,31.2291,62.083,NRZ,CKS,Noor Mohammad Eassa,3404,Chakhansur,???????,Nimroz,??????,34
278,279,Yale POP_MASTER,CKS-104,,0,NRZ-CKS-104,28,Balochi,5,480.2825012,31.0472,62.0506,NRZ,CKS,Noor Mohammad Khan,3404,Chakhansur,???????,Nimroz,??????,34
279,280,Yale POP_MASTER,CKS-105,,0,NRZ-CKS-105,47,Balochi,5,479.1487122,31.1742,62.0083,NRZ,CKS,Pair Khan,3404,Chakhansur,???????,Nimroz,??????,34
280,281,Yale POP_MASTER,CKS-106,,0,NRZ-CKS-106,20,Balochi,5,482.4271851,31.1825,62.0565,NRZ,CKS,Pair Mohammad Khan,3404,Chakhansur,???????,Nimroz,??????,34
281,282,Yale POP_MASTER,CKS-107,,0,NRZ-CKS-107,118,Balochi,5,483.53311160000004,31.1552,62.1143,NRZ,CKS,Qalacha Khuday Nazar,3404,Chakhansur,???????,Nimroz,??????,34
282,283,Yale POP_MASTER,CKS-108,,0,NRZ-CKS-108,47,Balochi,5,480.5013123,31.1503,62.0099,NRZ,CKS,Safar Zai Ali Khan,3404,Chakhansur,???????,Nimroz,??????,34
283,284,Yale POP_MASTER,CKS-109,,0,NRZ-CKS-109,166,Balochi,5,486.16390989999996,31.1794,62.119,NRZ,CKS,Sahib Dad,3404,Chakhansur,???????,Nimroz,??????,34
284,285,Yale POP_MASTER,CKS-110,,0,NRZ-CKS-110,89,Balochi,5,484.64709469999997,31.1947,62.1407,NRZ,CKS,Saifudin Wa Sarajudin Akhundzada,3404,Chakhansur,???????,Nimroz,??????,34
285,286,Yale POP_MASTER,CKS-111,,0,NRZ-CKS-111,68,Balochi,5,481.37200930000006,31.194000000000003,62.0635,NRZ,CKS,Sar Feraz Khawashi,3404,Chakhansur,???????,Nimroz,??????,34
286,287,Yale POP_MASTER,CKS-112,,0,NRZ-CKS-112,21,Balochi,5,481.46508789999996,31.159000000000002,62.0195,NRZ,CKS,Sayid Abdul Rahim,3404,Chakhansur,???????,Nimroz,??????,34
287,288,Yale POP_MASTER,CKS-113,,0,NRZ-CKS-113,17,Balochi,5,478.08779910000004,31.241,62.0132,NRZ,CKS,Shah Pesand,3404,Chakhansur,???????,Nimroz,??????,34
288,289,Yale POP_MASTER,CKS-114,,0,NRZ-CKS-114,88,Balochi,5,481.5097961,31.1658,62.0181,NRZ,CKS,Shahdi Khan,3404,Chakhansur,???????,Nimroz,??????,34
289,290,Yale POP_MASTER,CKS-115,,0,NRZ-CKS-115,57,Balochi,5,482.1095886,31.1658,62.058,NRZ,CKS,Shahr Yari,3404,Chakhansur,???????,Nimroz,??????,34
290,291,Yale POP_MASTER,CKS-116,,0,NRZ-CKS-116,58,Balochi,5,484.7423096,31.198,62.0974,NRZ,CKS,Shair Ali,3404,Chakhansur,???????,Nimroz,??????,34
291,292,Yale POP_MASTER,CKS-117,,0,NRZ-CKS-117,355,Balochi,5,488.6711121,31.2397,62.1747,NRZ,CKS,Sultan Mohammad Khan,3404,Chakhansur,???????,Nimroz,??????,34
292,293,Yale POP_MASTER,CKS-118,,0,NRZ-CKS-118,189,Balochi,5,485.4301147,31.2013,62.1678,NRZ,CKS,Taj Mohammad Khan,3404,Chakhansur,???????,Nimroz,??????,34
293,294,Yale POP_MASTER,CKS-120,,0,NRZ-CKS-120,276,Balochi,5,488.84170530000006,31.2574,62.1699,NRZ,CKS,Tapa Halila,3404,Chakhansur,???????,Nimroz,??????,34
294,295,Yale POP_MASTER,CKS-121,District,1,NRZ-CKS-121,3200,Balochi,5,483.47378539999994,31.1786,62.0645,NRZ,CKS,Chakhansur,3404,Chakhansur,???????,Nimroz,??????,34
295,296,Yale POP_MASTER,KNG-142,,0,NRZ-KNG-142,33,Balochi,5,480.6476135,31.1411,62.0441,NRZ,KNG,Sayid Ibrahim Shah,3402,Kang,???,Nimroz,??????,34
296,297,USAID AIDVillageView,ZRJ-016,,0,NRZ-ZRJ-016,0,Balochi,5,484.8012085,31.021,61.8685,NRZ,ZRJ,Gholamrasul,3401,Zaranj,????,Nimroz,??????,34
297,298,USAID AIDVillageView,ZRJ-017,,0,NRZ-ZRJ-017,0,Balochi,5,490.9714966,30.8892,61.8481,NRZ,ZRJ,Gyabanak,3401,Zaranj,????,Nimroz,??????,34
298,299,USAID AIDVillageView,ZRJ-018,,0,NRZ-ZRJ-018,0,Balochi,5,488.61358640000003,30.9167,61.8851,NRZ,ZRJ,Haji Abdurrahman,3401,Zaranj,????,Nimroz,??????,34
299,300,USAID AIDVillageView,ZRJ-019,,0,NRZ-ZRJ-019,0,Balochi,5,483.19891359999997,30.9672,61.9797,NRZ,ZRJ,Haji La'lkhan,3401,Zaranj,????,Nimroz,??????,34
300,301,USAID AIDVillageView,ZRJ-020,,0,NRZ-ZRJ-020,0,Balochi,5,490.2788086,30.9085,61.8712,NRZ,ZRJ,Haji Mohd-anwar,3401,Zaranj,????,Nimroz,??????,34
301,302,USAID AIDVillageView,ZRJ-021,,0,NRZ-ZRJ-021,0,Balochi,5,488.08120729999996,30.8882,61.8701,NRZ,ZRJ,Halimkhan (1),3401,Zaranj,????,Nimroz,??????,34
302,303,USAID AIDVillageView,ZRJ-022,,0,NRZ-ZRJ-022,0,Balochi,5,486.28100589999997,30.9596,61.9793,NRZ,ZRJ,Halimkhan (2),3401,Zaranj,????,Nimroz,??????,34
303,304,USAID AIDVillageView,ZRJ-023,,0,NRZ-ZRJ-023,0,Balochi,5,487.49288939999997,30.9539,61.8633,NRZ,ZRJ,Jaruki,3401,Zaranj,????,Nimroz,??????,34
304,305,USAID AIDVillageView,ZRJ-024,,0,NRZ-ZRJ-024,0,Balochi,5,482.5144043000001,30.9685,61.9208,NRZ,ZRJ,Joye Daku,3401,Zaranj,????,Nimroz,??????,34
305,306,USAID AIDVillageView,ZRJ-025,,0,NRZ-ZRJ-025,0,Balochi,5,493.25360109999997,30.9055,61.806999999999995,NRZ,ZRJ,Kange Dinmohd,3401,Zaranj,????,Nimroz,??????,34
306,307,USAID AIDVillageView,ZRJ-026,,0,NRZ-ZRJ-026,0,Balochi,5,485.6343079,31.0041,61.871,NRZ,ZRJ,Khalifa Nazarkhan,3401,Zaranj,????,Nimroz,??????,34
307,308,USAID AIDVillageView,ZRJ-027,,0,NRZ-ZRJ-027,0,Balochi,5,484.39859010000004,30.9621,62.0076,NRZ,ZRJ,Khana-i-boyur,3401,Zaranj,????,Nimroz,??????,34
308,309,USAID AIDVillageView,ZRJ-029,,0,NRZ-ZRJ-029,0,Balochi,5,482.3597107,30.9442,61.9751,NRZ,ZRJ,Lawar,3401,Zaranj,????,Nimroz,??????,34
309,310,CSO AIMS Villages (ACSOR),CBR-039,,0,NRZ-CBR-039,121,Balochi,5,535.6950072999999,30.19712,62.27941,NRZ,CBR,Khan Mohammad (1),3403,Charburjak,???????,Nimroz,??????,34
310,311,CSO AIMS Villages (ACSOR),CBR-040,,0,NRZ-CBR-040,202,Balochi,5,541.3660888999999,30.19988,62.22015,NRZ,CBR,Khan Mohammad (2),3403,Charburjak,???????,Nimroz,??????,34
311,312,CSO AIMS Villages (ACSOR),CBR-041,,0,NRZ-CBR-041,33,Balochi,5,527.2744751,30.26942,62.06685,NRZ,CBR,Mashi (1),3403,Charburjak,???????,Nimroz,??????,34
312,313,Yale POP_MASTER,CBR-044,,0,NRZ-CBR-044,73,Balochi,5,547.3046264999999,30.1422,62.3997,NRZ,CBR,Abdul Rahman,3403,Charburjak,???????,Nimroz,??????,34
313,314,Yale POP_MASTER,CBR-045,,0,NRZ-CBR-045,115,Balochi,5,575.0402832000001,30.1413,62.5756,NRZ,CBR,Ahmad Khan,3403,Charburjak,???????,Nimroz,??????,34
314,315,Yale POP_MASTER,CBR-046,,0,NRZ-CBR-046,27,Balochi,5,523.0786133,30.2662,62.0815,NRZ,CBR,Akhori,3403,Charburjak,???????,Nimroz,??????,34
315,316,Yale POP_MASTER,CBR-047,,0,NRZ-CBR-047,268,Balochi,5,528.4508057,30.2482,62.1443,NRZ,CBR,Ashkanak,3403,Charburjak,???????,Nimroz,??????,34
316,317,Yale POP_MASTER,CBR-048,,0,NRZ-CBR-048,19,Balochi,5,508.8431091,30.5172,61.8432,NRZ,CBR,Baghak Bala,3403,Charburjak,???????,Nimroz,??????,34
317,318,Yale POP_MASTER,CBR-050,,0,NRZ-CBR-050,500,Balochi,5,547.6558838,30.1443,62.4339,NRZ,CBR,Bebarak Khan,3403,Charburjak,???????,Nimroz,??????,34
318,319,Yale POP_MASTER,CBR-051,,0,NRZ-CBR-051,35,Balochi,5,529.2277222,30.2275,62.1499,NRZ,CBR,Chahel Mariz,3403,Charburjak,???????,Nimroz,??????,34
319,320,Yale POP_MASTER,CBR-052,,0,NRZ-CBR-052,176,Balochi,5,513.1901855000001,30.3735,61.8447,NRZ,CBR,Chakni Mir Abad,3403,Charburjak,???????,Nimroz,??????,34
320,321,Yale POP_MASTER,CBR-053,,0,NRZ-CBR-053,48,Balochi,5,505.63180539999996,30.5372,61.8121,NRZ,CBR,Dad Khuda,3403,Charburjak,???????,Nimroz,??????,34
321,322,Yale POP_MASTER,CBR-054,,0,NRZ-CBR-054,583,Balochi,5,548.9019165,30.1382,62.4837,NRZ,CBR,Daowd Khan,3403,Charburjak,???????,Nimroz,??????,34
322,323,Yale POP_MASTER,CBR-056,,0,NRZ-CBR-056,193,Balochi,5,527.5706177000001,30.2541,62.1157,NRZ,CBR,Gor Ab,3403,Charburjak,???????,Nimroz,??????,34
323,324,Yale POP_MASTER,CBR-059,,0,NRZ-CBR-059,214,Balochi,5,555.7974243,30.1508,62.6018,NRZ,CBR,Haji Khuday Dad,3403,Charburjak,???????,Nimroz,??????,34
324,325,Yale POP_MASTER,CBR-060,,0,NRZ-CBR-060,32,Balochi,5,516.6563721,30.304000000000002,61.8924,NRZ,CBR,Jaz Maidan Kalata Kamal Khan,3403,Charburjak,???????,Nimroz,??????,34
325,326,Yale POP_MASTER,CBR-061,,0,NRZ-CBR-061,137,Balochi,5,534.6643066,30.2057,62.2463,NRZ,CBR,Kad Khuda Karim,3403,Charburjak,???????,Nimroz,??????,34
326,327,Yale POP_MASTER,CBR-062,,0,NRZ-CBR-062,246,Balochi,5,560.9008179,30.1673,62.6887,NRZ,CBR,Karabe,3403,Charburjak,???????,Nimroz,??????,34
327,328,Yale POP_MASTER,CBR-063,,0,NRZ-CBR-063,89,Balochi,5,526.2700806,30.2733,61.9418,NRZ,CBR,Karakte,3403,Charburjak,???????,Nimroz,??????,34
328,329,Yale POP_MASTER,CBR-064,,0,NRZ-CBR-064,197,Balochi,5,525.1439209,30.2966,61.9686,NRZ,CBR,Karodi,3403,Charburjak,???????,Nimroz,??????,34
329,330,Yale POP_MASTER,CBR-065,,0,NRZ-CBR-065,122,Balochi,5,525.4028931,30.3144,61.9533,NRZ,CBR,Karodi Bala,3403,Charburjak,???????,Nimroz,??????,34
330,331,Yale POP_MASTER,CBR-066,,0,NRZ-CBR-066,16,Balochi,5,528.4321289,30.2625,61.9974,NRZ,CBR,Khail Amir Mohammad,3403,Charburjak,???????,Nimroz,??????,34
331,332,Yale POP_MASTER,CBR-067,,0,NRZ-CBR-067,181,Balochi,5,527.2330933000001,30.287,61.9064,NRZ,CBR,Khail Chahar Yak Band Wasate,3403,Charburjak,???????,Nimroz,??????,34
332,333,Yale POP_MASTER,CBR-068,,0,NRZ-CBR-068,70,Balochi,5,525.8571166999999,30.2622,62.0125,NRZ,CBR,Khail Haji Khuda Dad,3403,Charburjak,???????,Nimroz,??????,34
333,334,Yale POP_MASTER,CBR-070,,0,NRZ-CBR-070,177,Balochi,5,532.2070923,30.2028,62.2684,NRZ,CBR,Khunjo,3403,Charburjak,???????,Nimroz,??????,34
334,335,Yale POP_MASTER,CBR-071,,0,NRZ-CBR-071,39,Balochi,5,541.3328247000001,30.1609,62.3585,NRZ,CBR,Kok,3403,Charburjak,???????,Nimroz,??????,34
335,336,Yale POP_MASTER,CBR-072,,0,NRZ-CBR-072,34,Balochi,5,510.1265869,30.4408,61.8087,NRZ,CBR,Kondoy Mohammad Khan,3403,Charburjak,???????,Nimroz,??????,34
336,337,Yale POP_MASTER,CBR-073,,0,NRZ-CBR-073,100,Balochi,5,542.5291137999999,30.1867,62.2557,NRZ,CBR,Kund Kanag,3403,Charburjak,???????,Nimroz,??????,34
337,338,Yale POP_MASTER,CBR-074,,0,NRZ-CBR-074,21,Balochi,5,531.914917,30.221999999999998,62.2199,NRZ,CBR,Landowi,3403,Charburjak,???????,Nimroz,??????,34
338,339,Yale POP_MASTER,CBR-075,,0,NRZ-CBR-075,52,Balochi,5,531.8894043,30.2228,62.2065,NRZ,CBR,Landowi Lahil Mohammad,3403,Charburjak,???????,Nimroz,??????,34
339,340,Yale POP_MASTER,CBR-076,,0,NRZ-CBR-076,238,Balochi,5,558.8862305,30.1757,62.6818,NRZ,CBR,Lat Sardarjee Barak,3403,Charburjak,???????,Nimroz,??????,34
340,341,Yale POP_MASTER,CBR-077,,0,NRZ-CBR-077,214,Balochi,5,528.3798828,30.2523,62.1265,NRZ,CBR,Lo Sangi,3403,Charburjak,???????,Nimroz,??????,34
341,342,Yale POP_MASTER,CBR-078,,0,NRZ-CBR-078,255,Balochi,5,558.0205078,30.1631,62.6549,NRZ,CBR,Loop,3403,Charburjak,???????,Nimroz,??????,34
342,343,Yale POP_MASTER,CBR-079,,0,NRZ-CBR-079,62,Balochi,5,513.0462036,30.4484,61.8188,NRZ,CBR,Malochan Ahmad Khan,3403,Charburjak,???????,Nimroz,??????,34
343,344,Yale POP_MASTER,CBR-080,,0,NRZ-CBR-080,30,Balochi,5,512.5305786,30.4607,61.8382,NRZ,CBR,Malochan Anwar Khan,3403,Charburjak,???????,Nimroz,??????,34
344,345,Yale POP_MASTER,CBR-081,,0,NRZ-CBR-081,108,Balochi,5,527.2797852,30.2568,62.0986,NRZ,CBR,Manaye,3403,Charburjak,???????,Nimroz,??????,34
345,346,Yale POP_MASTER,CBR-082,,0,NRZ-CBR-082,74,Balochi,5,525.7285156,30.2821,62.0452,NRZ,CBR,Markaz Chahar Burjak,3403,Charburjak,???????,Nimroz,??????,34
346,347,Yale POP_MASTER,CBR-083,,0,NRZ-CBR-083,100,Balochi,5,512.373291,30.4374,61.8343,NRZ,CBR,Mir Abad Shair Agha,3403,Charburjak,???????,Nimroz,??????,34
347,348,Yale POP_MASTER,CBR-086,,0,NRZ-CBR-086,30,Balochi,5,534.8123168999999,30.2752,61.9322,NRZ,CBR,Mohammad Rasol Poulkay,3403,Charburjak,???????,Nimroz,??????,34
348,349,Yale POP_MASTER,CBR-087,,0,NRZ-CBR-087,29,Balochi,5,536.1975098,30.2202,62.167,NRZ,CBR,Mohammad Salim,3403,Charburjak,???????,Nimroz,??????,34
349,350,Yale POP_MASTER,CBR-088,,0,NRZ-CBR-088,40,Balochi,5,535.8883057,30.2385,62.1047,NRZ,CBR,Mohammmad Osman,3403,Charburjak,???????,Nimroz,??????,34
350,351,Yale POP_MASTER,CBR-089,,0,NRZ-CBR-089,311,Balochi,5,526.3596191,30.2776,62.0624,NRZ,CBR,Morben Kay,3403,Charburjak,???????,Nimroz,??????,34
351,352,Yale POP_MASTER,CBR-090,,0,NRZ-CBR-090,110,Balochi,5,505.14389040000003,30.5493,61.8303,NRZ,CBR,Nailaj,3403,Charburjak,???????,Nimroz,??????,34
352,353,Yale POP_MASTER,CBR-091,,0,NRZ-CBR-091,210,Balochi,5,523.8770752,30.264,62.0251,NRZ,CBR,Naser Payen Ya Naser Qalandar,3403,Charburjak,???????,Nimroz,??????,34
353,354,Yale POP_MASTER,CBR-092,,0,NRZ-CBR-092,172,Balochi,5,553.8203125,30.1362,62.5323,NRZ,CBR,Noor Mohammad,3403,Charburjak,???????,Nimroz,??????,34
354,355,Yale POP_MASTER,CBR-093,,0,NRZ-CBR-093,36,Balochi,5,529.5524902,30.2449,62.1186,NRZ,CBR,Pada Gay Mullah Ab. Hamid,3403,Charburjak,???????,Nimroz,??????,34
355,356,Yale POP_MASTER,CBR-094,,0,NRZ-CBR-094,550,Balochi,5,526.7360229,30.2914,62.0081,NRZ,CBR,Para Gay,3403,Charburjak,???????,Nimroz,??????,34
356,357,Yale POP_MASTER,CBR-095,,0,NRZ-CBR-095,208,Balochi,5,515.2531738,30.3262,61.8837,NRZ,CBR,Parozha Dahi Band Kamal Khan,3403,Charburjak,???????,Nimroz,??????,34
357,358,Yale POP_MASTER,CBR-096,,0,NRZ-CBR-096,166,Balochi,5,538.4401855000001,30.2031,62.2826,NRZ,CBR,Pouz Mashi,3403,Charburjak,???????,Nimroz,??????,34
358,359,Yale POP_MASTER,CBR-097,,0,NRZ-CBR-097,155,Balochi,5,520.5283203,30.2949,61.9402,NRZ,CBR,Qala Amir,3403,Charburjak,???????,Nimroz,??????,34
359,360,Yale POP_MASTER,CBR-098,,0,NRZ-CBR-098,131,Balochi,5,503.8121948,30.5662,61.8391,NRZ,CBR,Qala Fattah,3403,Charburjak,???????,Nimroz,??????,34
360,361,Yale POP_MASTER,CBR-100,,0,NRZ-CBR-100,68,Balochi,5,531.6367188,30.2303,62.1764,NRZ,CBR,Road Kushta Fatta Khan,3403,Charburjak,???????,Nimroz,??????,34
361,362,Yale POP_MASTER,CBR-101,,0,NRZ-CBR-101,94,Balochi,5,525.3568726,30.2725,61.9622,NRZ,CBR,Rodin,3403,Charburjak,???????,Nimroz,??????,34
362,363,Yale POP_MASTER,CBR-105,,0,NRZ-CBR-105,131,Balochi,5,510.92709349999996,30.3644,61.8365,NRZ,CBR,Telpeda,3403,Charburjak,???????,Nimroz,??????,34
363,364,Yale POP_MASTER,CBR-106,,0,NRZ-CBR-106,92,Balochi,5,534.1967162999999,30.2421,62.1673,NRZ,CBR,Toot,3403,Charburjak,???????,Nimroz,??????,34
364,365,Yale POP_MASTER,CBR-107,,0,NRZ-CBR-107,81,Balochi,5,523.5726929,30.3159,61.8625,NRZ,CBR,Tufangcha,3403,Charburjak,???????,Nimroz,??????,34
365,366,Yale POP_MASTER,CBR-108,,0,NRZ-CBR-108,69,Balochi,5,514.117981,30.3846,61.8381,NRZ,CBR,Zar Zawal,3403,Charburjak,???????,Nimroz,??????,34
366,367,Yale POP_MASTER,CBR-109,District,1,NRZ-CBR-109,149,Balochi,5,529.3903197999999,30.2816,62.0539,NRZ,CBR,Chahar Burjak,3403,Charburjak,???????,Nimroz,??????,34
367,368,USAID AIDVillageView,KRD-003,,0,NRZ-KRD-003,0,Balochi,5,628.5369262999999,31.7923,62.6707,NRZ,KRD,Garga,3405,Khashrod,??? ???,Nimroz,??????,34
368,369,Yale POP_MASTER,KRD-015,,0,NRZ-KRD-015,605,Balochi,5,668.0316772000001,31.8171,62.782,NRZ,KRD,Basrang,3405,Khashrod,??? ???,Nimroz,??????,34
369,370,Yale POP_MASTER,KRD-019,,0,NRZ-KRD-019,47,Balochi,5,622.1519775,31.9747,62.511,NRZ,KRD,Chashma Ghulam,3405,Khashrod,??? ???,Nimroz,??????,34
370,371,Yale POP_MASTER,KRD-025,,0,NRZ-KRD-025,170,Balochi,5,659.7578735000001,31.8678,62.6538,NRZ,KRD,Gala Gat,3405,Khashrod,??? ???,Nimroz,??????,34
371,372,Yale POP_MASTER,KRD-027,,0,NRZ-KRD-027,255,Balochi,5,523.7218018,31.4201,62.5049,NRZ,KRD,Gegan Abdul Qader,3405,Khashrod,??? ???,Nimroz,??????,34
372,373,Yale POP_MASTER,KRD-048,,0,NRZ-KRD-048,85,Pashto,2,649.1190186000001,31.8911,62.5756,NRZ,KRD,Malmal Sar,3405,Khashrod,??? ???,Nimroz,??????,34
373,374,Yale POP_MASTER,KRD-070,,0,NRZ-KRD-070,175,Pashto,2,652.1890258999999,31.8779,62.6184,NRZ,KRD,Sara Qala,3405,Khashrod,??? ???,Nimroz,??????,34
374,375,Yale POP_MASTER,KRD-077,,0,NRZ-KRD-077,593,Balochi,5,665.4404907,31.8333,62.683,NRZ,KRD,Sori Kal,3405,Khashrod,??? ???,Nimroz,??????,34
378,379,Yale POP_MASTER,CBR-099,,0,NRZ-CBR-099,421,Balochi,5,558.3474731000001,30.2236,62.8011,NRZ,CBR,Raigan,3403,Charburjak,???????,Nimroz,??????,34
460,461,Yale POP_MASTER,CKS-074,,0,NRZ-CKS-074,53,Balochi,5,486.8364868,31.2226,62.1618,NRZ,CKS,Haji Qachar,3404,Chakhansur,???????,Nimroz,??????,34
461,462,Yale POP_MASTER,CKS-075,,0,NRZ-CKS-075,66,Balochi,5,514.4719848999999,31.406999999999996,62.4394,NRZ,CKS,Haji Yaqoub,3404,Chakhansur,???????,Nimroz,??????,34
462,463,Yale POP_MASTER,CKS-076,,0,NRZ-CKS-076,16,Balochi,5,485.3136902,31.1937,62.091,NRZ,CKS,Halim Sharif,3404,Chakhansur,???????,Nimroz,??????,34
463,464,Yale POP_MASTER,CKS-077,,0,NRZ-CKS-077,66,Balochi,5,478.02868650000005,31.261999999999997,62.001999999999995,NRZ,CKS,Hassan Nalaj,3404,Chakhansur,???????,Nimroz,??????,34
464,465,Yale POP_MASTER,CKS-078,,0,NRZ-CKS-078,130,Balochi,5,483.42138669999997,31.186,62.1514,NRZ,CKS,Hassan Shair Dil,3404,Chakhansur,???????,Nimroz,??????,34
465,466,Yale POP_MASTER,CKS-079,,0,NRZ-CKS-079,1129,Balochi,5,503.9732056,31.4133,62.3634,NRZ,CKS,Hawar Afghanan,3404,Chakhansur,???????,Nimroz,??????,34
466,467,Yale POP_MASTER,CKS-080,,0,NRZ-CKS-080,385,Pashto,2,506.73388669999997,31.3923,62.3812,NRZ,CKS,Hawar Daowd Khan,3404,Chakhansur,???????,Nimroz,??????,34
467,468,Yale POP_MASTER,CKS-081,,0,NRZ-CKS-081,33,Balochi,5,478.9077148,31.2737,61.994,NRZ,CKS,Jeel Khan,3404,Chakhansur,???????,Nimroz,??????,34
468,469,Yale POP_MASTER,CKS-082,,0,NRZ-CKS-082,135,Balochi,5,484.14340210000006,31.1862,62.0545,NRZ,CKS,Jumha Khan,3404,Chakhansur,???????,Nimroz,??????,34
469,470,Yale POP_MASTER,CKS-083,,0,NRZ-CKS-083,39,Balochi,5,480.58840939999993,31.2211,62.0536,NRZ,CKS,Karim Eassa,3404,Chakhansur,???????,Nimroz,??????,34
470,471,Yale POP_MASTER,CKS-084,,0,NRZ-CKS-084,161,Balochi,5,482.25509639999996,31.165,62.1078,NRZ,CKS,Karim Madozaye,3404,Chakhansur,???????,Nimroz,??????,34
471,472,Yale POP_MASTER,CKS-085,,0,NRZ-CKS-085,83,Balochi,5,484.24530030000005,31.1878,62.1408,NRZ,CKS,Khalifa Nazar,3404,Chakhansur,???????,Nimroz,??????,34
472,473,USAID AIDVillageView,ZRJ-030,,0,NRZ-ZRJ-030,0,Balochi,5,483.63009639999996,31.018,61.8688,NRZ,ZRJ,Mawali,3401,Zaranj,????,Nimroz,??????,34
473,474,USAID AIDVillageView,ZRJ-031,,0,NRZ-ZRJ-031,0,Balochi,5,483.47229000000004,31.0163,61.9583,NRZ,ZRJ,Mayno,3401,Zaranj,????,Nimroz,??????,34
474,475,USAID AIDVillageView,ZRJ-032,,0,NRZ-ZRJ-032,0,Balochi,5,485.03518679999996,31.0128,61.8857,NRZ,ZRJ,Mehrab,3401,Zaranj,????,Nimroz,??????,34
475,476,USAID AIDVillageView,ZRJ-033,,0,NRZ-ZRJ-033,0,Balochi,5,484.321991,30.9571,62.0341,NRZ,ZRJ,Mir'ah,3401,Zaranj,????,Nimroz,??????,34
476,477,USAID AIDVillageView,ZRJ-034,,0,NRZ-ZRJ-034,0,Balochi,5,485.66198729999996,30.9729,61.8812,NRZ,ZRJ,Mirza Abubakr,3401,Zaranj,????,Nimroz,??????,34
477,478,USAID AIDVillageView,ZRJ-035,,0,NRZ-ZRJ-035,0,Balochi,5,484.34179689999996,30.9733,61.9148,NRZ,ZRJ,Mohd Hosayn,3401,Zaranj,????,Nimroz,??????,34
478,479,USAID AIDVillageView,ZRJ-036,,0,NRZ-ZRJ-036,0,Balochi,5,485.5090027,31.0284,61.8752,NRZ,ZRJ,Mulla Musa,3401,Zaranj,????,Nimroz,??????,34
479,480,USAID AIDVillageView,ZRJ-037,,0,NRZ-ZRJ-037,0,Balochi,5,485.29089360000006,31.0207,61.8802,NRZ,ZRJ,Mulla Temur,3401,Zaranj,????,Nimroz,??????,34
480,481,USAID AIDVillageView,ZRJ-038,,0,NRZ-ZRJ-038,0,Balochi,5,489.15969850000005,30.9238,61.8591,NRZ,ZRJ,Nawab,3401,Zaranj,????,Nimroz,??????,34
481,482,USAID AIDVillageView,ZRJ-057,,0,NRZ-ZRJ-057,0,Balochi,5,488.93969730000003,30.9626,61.8302,NRZ,ZRJ,Yarmohd,3401,Zaranj,????,Nimroz,??????,34
482,483,CSO AIMS Villages (ACSOR),ZRJ-058,,0,NRZ-ZRJ-058,375,Balochi,5,493.5061035,30.88995,61.79553000000001,NRZ,ZRJ,Haji Abdul Rahman (1),3401,Zaranj,????,Nimroz,??????,34
483,484,CSO AIMS Villages (ACSOR),ZRJ-059,,0,NRZ-ZRJ-059,281,Balochi,5,489.2716980000001,30.98847,61.837959999999995,NRZ,ZRJ,Haji Abdul Rahman (2),3401,Zaranj,????,Nimroz,??????,34
484,485,CSO AIMS Villages (ACSOR),ZRJ-061,,0,NRZ-ZRJ-061,3430,Balochi,5,485.9836121,30.94238,61.87623000000001,NRZ,ZRJ,Low Abad Shutourak,3401,Zaranj,????,Nimroz,??????,34
485,486,CSO AIMS Villages (ACSOR),ZRJ-063,,0,NRZ-ZRJ-063,48,Balochi,5,488.85510250000004,30.9903,61.84601,NRZ,ZRJ,Noorullah (1),3401,Zaranj,????,Nimroz,??????,34
486,487,CSO AIMS Villages (ACSOR),ZRJ-064,,0,NRZ-ZRJ-064,126,Balochi,5,488.2821045,30.96637,61.85204,NRZ,ZRJ,Noorullah (2),3401,Zaranj,????,Nimroz,??????,34
487,488,CSO AIMS Villages (ACSOR),ZRJ-065,,0,NRZ-ZRJ-065,81,Balochi,5,496.79290769999994,30.81427,61.79603,NRZ,ZRJ,Qala Sar Dasht,3401,Zaranj,????,Nimroz,??????,34
488,489,USAID AIDVillageView,CKS-008,,0,NRZ-CKS-008,0,Balochi,5,484.6115112,30.9894,62.0356,NRZ,CKS,Cigini,3404,Chakhansur,???????,Nimroz,??????,34
489,490,USAID AIDVillageView,CBR-001,,0,NRZ-CBR-001,0,Balochi,5,498.72241210000004,30.754,61.8267,NRZ,CBR,Aday,3403,Charburjak,???????,Nimroz,??????,34
490,491,USAID AIDVillageView,CBR-018,,0,NRZ-CBR-018,0,Balochi,5,498.43820189999997,30.7901,61.8103,NRZ,CBR,Nazarkhan,3403,Charburjak,???????,Nimroz,??????,34
491,492,USAID AIDVillageView,CBR-023,,0,NRZ-CBR-023,0,Balochi,5,502.60180660000003,30.6105,61.8163,NRZ,CBR,Qarya-i-char Burjak (1),3403,Charburjak,???????,Nimroz,??????,34
492,493,USAID AIDVillageView,CBR-024,,0,NRZ-CBR-024,0,Balochi,5,506.109314,30.5861,61.8214,NRZ,CBR,Qarya-i-char Burjak (2),3403,Charburjak,???????,Nimroz,??????,34
493,494,USAID AIDVillageView,CBR-025,,0,NRZ-CBR-025,0,Balochi,5,503.3696899,30.6086,61.8493,NRZ,CBR,Qarya-i-gudri Bala,3403,Charburjak,???????,Nimroz,??????,34
494,495,USAID AIDVillageView,CBR-027,,0,NRZ-CBR-027,0,Balochi,5,504.2062988,30.6454,61.8577,NRZ,CBR,Qarya-i-haji,3403,Charburjak,???????,Nimroz,??????,34
495,496,USAID AIDVillageView,CBR-028,,0,NRZ-CBR-028,0,Balochi,5,501.69158939999994,30.6455,61.8085,NRZ,CBR,Qarya-i-haji Faydz Mohammad,3403,Charburjak,???????,Nimroz,??????,34
496,497,USAID AIDVillageView,CBR-029,,0,NRZ-CBR-029,0,Balochi,5,510.3143005,30.5822,61.778999999999996,NRZ,CBR,Qarya-i-hawdz (1),3403,Charburjak,???????,Nimroz,??????,34
497,498,USAID AIDVillageView,CBR-035,,0,NRZ-CBR-035,0,Balochi,5,498.25460819999995,30.7938,61.803000000000004,NRZ,CBR,Rosanzi,3403,Charburjak,???????,Nimroz,??????,34
498,499,USAID AIDVillageView,CBR-037,,0,NRZ-CBR-037,0,Balochi,5,500.5263977,30.7156,61.8295,NRZ,CBR,Sabzgazi,3403,Charburjak,???????,Nimroz,??????,34
499,500,USAID AIDVillageView,CBR-038,,0,NRZ-CBR-038,0,Balochi,5,499.3291016,30.7318,61.8317,NRZ,CBR,Syahdasi,3403,Charburjak,???????,Nimroz,??????,34
500,501,CSO AIMS Villages (ACSOR),CBR-042,,0,NRZ-CBR-042,170,Balochi,5,510.0053101,30.717509999999997,61.804669999999994,NRZ,CBR,Mashi (2),3403,Charburjak,???????,Nimroz,??????,34
501,502,Yale POP_MASTER,ZRJ-066,,0,NRZ-ZRJ-066,515,Uzbek,3,490.5716858,30.9363,61.7972,NRZ,ZRJ,Abdul Hamid,3401,Zaranj,????,Nimroz,??????,34
502,503,Yale POP_MASTER,ZRJ-068,,0,NRZ-ZRJ-068,99,Balochi,5,486.66860959999997,30.9832,61.8783,NRZ,ZRJ,Abdul Rahman,3401,Zaranj,????,Nimroz,??????,34
503,504,Yale POP_MASTER,ZRJ-069,,0,NRZ-ZRJ-069,17,Hazaragi,8,487.2294006,30.9346,61.8699,NRZ,ZRJ,Abdul Rahman Yaqoub,3401,Zaranj,????,Nimroz,??????,34
504,505,Yale POP_MASTER,ZRJ-070,,0,NRZ-ZRJ-070,177,Balochi,5,486.58981320000004,31.0065,61.8653,NRZ,ZRJ,Alaqa Dar M.sharif,3401,Zaranj,????,Nimroz,??????,34
505,506,Yale POP_MASTER,ZRJ-071,,0,NRZ-ZRJ-071,36,Balochi,5,486.39480589999994,30.975,61.8762,NRZ,ZRJ,Ardeah Shair,3401,Zaranj,????,Nimroz,??????,34
506,507,Yale POP_MASTER,ZRJ-072,,0,NRZ-ZRJ-072,30,Balochi,5,487.571991,30.9407,61.8462,NRZ,ZRJ,Atta Mohammad,3401,Zaranj,????,Nimroz,??????,34
507,508,Yale POP_MASTER,ZRJ-073,,0,NRZ-ZRJ-073,95,Balochi,5,493.01071169999994,30.861,61.8,NRZ,ZRJ,Bebarak Khan,3401,Zaranj,????,Nimroz,??????,34
508,509,Yale POP_MASTER,ZRJ-074,,0,NRZ-ZRJ-074,11,Balochi,5,490.4525146000001,30.9344,61.8168,NRZ,ZRJ,Dad Khuda,3401,Zaranj,????,Nimroz,??????,34
509,510,Yale POP_MASTER,ZRJ-075,,0,NRZ-ZRJ-075,87,Hazaragi,8,485.8743896000001,30.9682,61.8963,NRZ,ZRJ,Daraye,3401,Zaranj,????,Nimroz,??????,34
510,511,Yale POP_MASTER,ZRJ-076,,0,NRZ-ZRJ-076,68,Balochi,5,489.8422852,30.9019,61.8332,NRZ,ZRJ,Faqir Mohammad Khan,3401,Zaranj,????,Nimroz,??????,34
511,512,Yale POP_MASTER,ZRJ-077,,0,NRZ-ZRJ-077,311,Balochi,5,496.48150630000004,30.840999999999998,61.8102,NRZ,ZRJ,Ferozai,3401,Zaranj,????,Nimroz,??????,34
512,513,Yale POP_MASTER,ZRJ-078,,0,NRZ-ZRJ-078,54,Balochi,5,486.7565002,30.9839,61.8639,NRZ,ZRJ,Ghulam Haidar Khan,3401,Zaranj,????,Nimroz,??????,34
513,514,Yale POP_MASTER,ZRJ-079,,0,NRZ-ZRJ-079,62,Balochi,5,488.0643005,30.9823,61.8475,NRZ,ZRJ,Ghulam Hassan Ali,3401,Zaranj,????,Nimroz,??????,34
514,515,Yale POP_MASTER,ZRJ-080,,0,NRZ-ZRJ-080,232,Balochi,5,487.8110962,30.9781,61.8357,NRZ,ZRJ,Ghulam Hassan Dahi Murda,3401,Zaranj,????,Nimroz,??????,34
515,516,Yale POP_MASTER,ZRJ-081,,0,NRZ-ZRJ-081,78,Balochi,5,490.248291,30.9196,61.8433,NRZ,ZRJ,Haji Abdul Hakim,3401,Zaranj,????,Nimroz,??????,34
516,517,Yale POP_MASTER,ZRJ-082,,0,NRZ-ZRJ-082,201,Balochi,5,490.46670530000006,30.9019,61.8543,NRZ,ZRJ,Haji Abdul Rahim,3401,Zaranj,????,Nimroz,??????,34
517,518,Yale POP_MASTER,ZRJ-083,,0,NRZ-ZRJ-083,87,Balochi,5,493.06201169999997,30.8677,61.7999,NRZ,ZRJ,Haji Baran,3401,Zaranj,????,Nimroz,??????,34
518,519,Yale POP_MASTER,ZRJ-084,,0,NRZ-ZRJ-084,250,Balochi,5,484.9784851,30.9619,61.8861,NRZ,ZRJ,Haji Khuday Nazar,3401,Zaranj,????,Nimroz,??????,34
519,520,Yale POP_MASTER,ZRJ-085,,0,NRZ-ZRJ-085,468,Balochi,5,490.25399780000004,30.9561,61.828,NRZ,ZRJ,Haji Malang Maliki,3401,Zaranj,????,Nimroz,??????,34
520,521,Yale POP_MASTER,ZRJ-086,,0,NRZ-ZRJ-086,201,Balochi,5,489.02899169999995,30.9324,61.8389,NRZ,ZRJ,Haji Mohammad Omar Akhund Zada,3401,Zaranj,????,Nimroz,??????,34
521,522,Yale POP_MASTER,ZRJ-087,,0,NRZ-ZRJ-087,14,Balochi,5,489.87899780000004,30.9611,61.8432,NRZ,ZRJ,Haji Mustafa,3401,Zaranj,????,Nimroz,??????,34
522,523,Yale POP_MASTER,ZRJ-088,,0,NRZ-ZRJ-088,378,Balochi,5,487.8118896000001,30.951,61.8525,NRZ,ZRJ,Haji Qara Mohammad,3401,Zaranj,????,Nimroz,??????,34
523,524,Yale POP_MASTER,ZRJ-089,,0,NRZ-ZRJ-089,371,Balochi,5,489.0245972,30.9944,61.8434,NRZ,ZRJ,Jan Mohammad,3401,Zaranj,????,Nimroz,??????,34
524,525,Yale POP_MASTER,ZRJ-090,,0,NRZ-ZRJ-090,82,Balochi,5,490.2022095,30.9367,61.8528,NRZ,ZRJ,Kalakhak,3401,Zaranj,????,Nimroz,??????,34
525,526,Yale POP_MASTER,ZRJ-091,,0,NRZ-ZRJ-091,349,Balochi,5,489.4844055,30.9732,61.845,NRZ,ZRJ,Khair Mohammad,3401,Zaranj,????,Nimroz,??????,34
526,527,Yale POP_MASTER,ZRJ-092,,0,NRZ-ZRJ-092,148,Balochi,5,488.56961060000003,30.9317,61.8264,NRZ,ZRJ,Khowja Aziz,3401,Zaranj,????,Nimroz,??????,34
527,528,Yale POP_MASTER,ZRJ-093,,0,NRZ-ZRJ-093,2667,Balochi,5,488.53359989999996,30.9664,61.8772,NRZ,ZRJ,Khowja Sultan Mohammad,3401,Zaranj,????,Nimroz,??????,34
528,529,Yale POP_MASTER,ZRJ-094,,0,NRZ-ZRJ-094,128,Balochi,5,491.4562988,30.8954,61.8391,NRZ,ZRJ,Kiche,3401,Zaranj,????,Nimroz,??????,34
529,530,Yale POP_MASTER,ZRJ-095,,0,NRZ-ZRJ-095,217,Balochi,5,494.7037048,30.8279,61.8065,NRZ,ZRJ,Lakry,3401,Zaranj,????,Nimroz,??????,34
530,531,Yale POP_MASTER,ZRJ-096,,0,NRZ-ZRJ-096,140,Uzbek,3,490.98028560000006,30.9456,61.8079,NRZ,ZRJ,Maheudin,3401,Zaranj,????,Nimroz,??????,34
531,532,Yale POP_MASTER,ZRJ-097,,0,NRZ-ZRJ-097,1603,Balochi,5,489.12759400000004,31.0043,61.8355,NRZ,ZRJ,Mahjer Abad,3401,Zaranj,????,Nimroz,??????,34
532,533,Yale POP_MASTER,ZRJ-098,,0,NRZ-ZRJ-098,390,Balochi,5,490.9375,30.8932,61.8314,NRZ,ZRJ,Mal Daran,3401,Zaranj,????,Nimroz,??????,34
533,534,Yale POP_MASTER,ZRJ-099,,0,NRZ-ZRJ-099,152,Dari,1,487.19079589999996,30.9326,61.8819,NRZ,ZRJ,Mamor Juma Khan,3401,Zaranj,????,Nimroz,??????,34
534,535,Yale POP_MASTER,ZRJ-100,,0,NRZ-ZRJ-100,186,Balochi,5,483.59921260000004,30.9762,61.8899,NRZ,ZRJ,Mawla Dad,3401,Zaranj,????,Nimroz,??????,34
535,536,Yale POP_MASTER,ZRJ-101,,0,NRZ-ZRJ-101,36,Balochi,5,484.6877136,30.9942,61.9287,NRZ,ZRJ,Mawlana Sahib,3401,Zaranj,????,Nimroz,??????,34
536,537,Yale POP_MASTER,ZRJ-102,,0,NRZ-ZRJ-102,163,Balochi,5,487.1116943,30.9695,61.8557,NRZ,ZRJ,Merza Azim,3401,Zaranj,????,Nimroz,??????,34
537,538,Yale POP_MASTER,ZRJ-103,,0,NRZ-ZRJ-103,96,Uzbek,3,488.9684143,30.9414,61.8314,NRZ,ZRJ,Mir Ali Khan,3401,Zaranj,????,Nimroz,??????,34
538,539,Yale POP_MASTER,CBR-057,,0,NRZ-CBR-057,27,Balochi,5,507.33990480000006,30.6642,61.7951,NRZ,CBR,Haji Abdul Hamid,3403,Charburjak,???????,Nimroz,??????,34
539,540,Yale POP_MASTER,CBR-058,,0,NRZ-CBR-058,45,Balochi,5,498.6036987,30.6294,61.8171,NRZ,CBR,Haji Khan,3403,Charburjak,???????,Nimroz,??????,34
540,541,Yale POP_MASTER,CBR-069,,0,NRZ-CBR-069,103,Balochi,5,496.5559081999999,30.7718,61.806999999999995,NRZ,CBR,Khalifa Juma Khan,3403,Charburjak,???????,Nimroz,??????,34
541,542,Yale POP_MASTER,CBR-084,,0,NRZ-CBR-084,81,Balochi,5,500.58300779999996,30.7879,61.7855,NRZ,CBR,Mirza Dost Mohammad,3403,Charburjak,???????,Nimroz,??????,34
542,543,Yale POP_MASTER,CBR-085,,0,NRZ-CBR-085,26,Balochi,5,501.456604,30.6382,61.8289,NRZ,CBR,Mohammad Halam,3403,Charburjak,???????,Nimroz,??????,34
543,544,Yale POP_MASTER,CBR-102,,0,NRZ-CBR-102,42,Balochi,5,498.8434143,30.7109,61.8226,NRZ,CBR,Sabz Gazi Hulya,3403,Charburjak,???????,Nimroz,??????,34
544,545,Yale POP_MASTER,CBR-103,,0,NRZ-CBR-103,23,Balochi,5,499.71649169999995,30.6988,61.8231,NRZ,CBR,Sabz Gazi Sufla,3403,Charburjak,???????,Nimroz,??????,34
545,546,Yale POP_MASTER,CBR-104,,0,NRZ-CBR-104,26,Balochi,5,495.70568849999995,30.7631,61.8315,NRZ,CBR,Seya Dase,3403,Charburjak,???????,Nimroz,??????,34
546,547,Yale POP_MASTER,KNG-094,,0,NRZ-KNG-094,24,Balochi,5,487.3637085,31.0252,61.8328,NRZ,KNG,Abdul Mohammad,3402,Kang,???,Nimroz,??????,34
547,548,Yale POP_MASTER,KNG-101,,0,NRZ-KNG-101,731,Balochi,5,485.1008911,31.0328,61.843,NRZ,KNG,Bar Bachi,3402,Kang,???,Nimroz,??????,34
548,549,USAID AIDVillageView,CBR-004,,0,NRZ-CBR-004,0,Balochi,5,532.1317749,30.2278,62.1945,NRZ,CBR,Bashor,3403,Charburjak,???????,Nimroz,??????,34
549,550,USAID AIDVillageView,CBR-005,,0,NRZ-CBR-005,0,Balochi,5,519.237915,30.3705,61.8627,NRZ,CBR,Chigini,3403,Charburjak,???????,Nimroz,??????,34
550,551,USAID AIDVillageView,CBR-006,,0,NRZ-CBR-006,0,Balochi,5,512.7371826,30.3587,61.8538,NRZ,CBR,Chigini Abdul Hakim,3403,Charburjak,???????,Nimroz,??????,34
551,552,USAID AIDVillageView,CBR-007,,0,NRZ-CBR-007,0,Balochi,5,529.8605957,30.2814,62.0749,NRZ,CBR,Daku,3403,Charburjak,???????,Nimroz,??????,34
552,553,USAID AIDVillageView,CBR-008,,0,NRZ-CBR-008,0,Balochi,5,516.2006226,30.3528,61.8582,NRZ,CBR,Dam,3403,Charburjak,???????,Nimroz,??????,34
553,554,USAID AIDVillageView,CBR-009,,0,NRZ-CBR-009,0,Balochi,5,509.80688480000003,30.5202,61.8114,NRZ,CBR,Dashtol (1),3403,Charburjak,???????,Nimroz,??????,34
554,555,USAID AIDVillageView,CBR-010,,0,NRZ-CBR-010,0,Balochi,5,512.2459717,30.5201,61.8551,NRZ,CBR,Dashtol (2),3403,Charburjak,???????,Nimroz,??????,34
555,556,USAID AIDVillageView,CBR-011,,0,NRZ-CBR-011,0,Balochi,5,509.46078489999996,30.4732,61.7988,NRZ,CBR,Dehe Kadila,3403,Charburjak,???????,Nimroz,??????,34
556,557,USAID AIDVillageView,CBR-012,,0,NRZ-CBR-012,0,Balochi,5,523.7553101,30.3291,61.9475,NRZ,CBR,Kandol,3403,Charburjak,???????,Nimroz,??????,34
557,558,USAID AIDVillageView,CBR-014,,0,NRZ-CBR-014,0,Balochi,5,523.6491699,30.5383,61.8523,NRZ,CBR,Khana-i-dade,3403,Charburjak,???????,Nimroz,??????,34
558,559,USAID AIDVillageView,CBR-015,,0,NRZ-CBR-015,0,Balochi,5,513.4500122,30.404,61.824,NRZ,CBR,Khele Mohammad Hashim Khan Bala,3403,Charburjak,???????,Nimroz,??????,34
559,560,USAID AIDVillageView,CBR-016,,0,NRZ-CBR-016,0,Balochi,5,557.9935303,30.1719,62.6593,NRZ,CBR,Lup,3403,Charburjak,???????,Nimroz,??????,34
560,561,USAID AIDVillageView,CBR-017,,0,NRZ-CBR-017,0,Balochi,5,633.5252075,30.1065,62.6531,NRZ,CBR,Masjede Piranpir,3403,Charburjak,???????,Nimroz,??????,34
561,562,USAID AIDVillageView,CBR-020,,0,NRZ-CBR-020,0,Balochi,5,525.5205078,30.3395,61.898999999999994,NRZ,CBR,Pushte Dasht,3403,Charburjak,???????,Nimroz,??????,34
562,563,USAID AIDVillageView,CBR-021,,0,NRZ-CBR-021,0,Balochi,5,511.9017944,30.2776,61.7507,NRZ,CBR,Qal'eh-ye Mohammad Afzal (1),3403,Charburjak,???????,Nimroz,??????,34
563,564,USAID AIDVillageView,CBR-022,,0,NRZ-CBR-022,0,Balochi,5,512.1594238,30.2698,61.7698,NRZ,CBR,Qal'eh-ye Mohammad Afzal (2),3403,Charburjak,???????,Nimroz,??????,34
564,565,USAID AIDVillageView,CBR-026,,0,NRZ-CBR-026,0,Balochi,5,505.2506103999999,30.5859,61.8451,NRZ,CBR,Qarya-i-gudri Pa'in,3403,Charburjak,???????,Nimroz,??????,34
565,566,USAID AIDVillageView,CBR-030,,0,NRZ-CBR-030,0,Balochi,5,503.61489869999997,30.5822,61.8874,NRZ,CBR,Qarya-i-hawdz (2),3403,Charburjak,???????,Nimroz,??????,34
566,567,USAID AIDVillageView,CBR-031,,0,NRZ-CBR-031,0,Balochi,5,506.813385,30.5587,61.8569,NRZ,CBR,Qarya-i-made Khan,3403,Charburjak,???????,Nimroz,??????,34
567,568,USAID AIDVillageView,CBR-032,,0,NRZ-CBR-032,0,Balochi,5,545.0261230000001,30.1492,62.4629,NRZ,CBR,Qr Haji Mohd Afzalkhan,3403,Charburjak,???????,Nimroz,??????,34
568,569,USAID AIDVillageView,CBR-036,,0,NRZ-CBR-036,0,Balochi,5,516.9102783,30.3455,61.8593,NRZ,CBR,Ruta,3403,Charburjak,???????,Nimroz,??????,34
615,616,USAID AIDVillageView,ZRJ-041,,0,NRZ-ZRJ-041,0,Balochi,5,484.4533081,30.9057,62.0419,NRZ,ZRJ,Patandeh,3401,Zaranj,????,Nimroz,??????,34
616,617,USAID AIDVillageView,ZRJ-042,,0,NRZ-ZRJ-042,0,Balochi,5,484.15231320000004,30.9196,62.0484,NRZ,ZRJ,Pira Kala,3401,Zaranj,????,Nimroz,??????,34
617,618,USAID AIDVillageView,ZRJ-043,,0,NRZ-ZRJ-043,0,Balochi,5,487.56491090000003,31.0315,61.8755,NRZ,ZRJ,Pirmohd,3401,Zaranj,????,Nimroz,??????,34
618,619,USAID AIDVillageView,ZRJ-044,,0,NRZ-ZRJ-044,0,Balochi,5,486.7633972,30.89,62.1052,NRZ,ZRJ,Qal'a-i-bibi,3401,Zaranj,????,Nimroz,??????,34
619,620,USAID AIDVillageView,ZRJ-045,,0,NRZ-ZRJ-045,0,Balochi,5,483.0859985,30.983,62.0089,NRZ,ZRJ,Qal'a-i-dewah,3401,Zaranj,????,Nimroz,??????,34
620,621,USAID AIDVillageView,ZRJ-048,,0,NRZ-ZRJ-048,0,Balochi,5,488.72100830000005,30.9098,61.9714,NRZ,ZRJ,Qala-e Khudu,3401,Zaranj,????,Nimroz,??????,34
621,622,USAID AIDVillageView,ZRJ-049,,0,NRZ-ZRJ-049,0,Balochi,5,492.12030030000005,30.8581,61.8281,NRZ,ZRJ,Rustam,3401,Zaranj,????,Nimroz,??????,34
622,623,USAID AIDVillageView,ZRJ-050,,0,NRZ-ZRJ-050,0,Balochi,5,484.2878113,30.8964,62.088,NRZ,ZRJ,Sanger,3401,Zaranj,????,Nimroz,??????,34
623,624,USAID AIDVillageView,ZRJ-051,,0,NRZ-ZRJ-051,0,Balochi,5,487.1711121,30.8727,62.1256,NRZ,ZRJ,Satah,3401,Zaranj,????,Nimroz,??????,34
624,625,USAID AIDVillageView,ZRJ-052,,0,NRZ-ZRJ-052,0,Balochi,5,490.2416077,30.9207,61.8116,NRZ,ZRJ,Shahbaz,3401,Zaranj,????,Nimroz,??????,34
625,626,USAID AIDVillageView,ZRJ-053,,0,NRZ-ZRJ-053,0,Balochi,5,483.3143921,31.0073,61.8922,NRZ,ZRJ,Sultan,3401,Zaranj,????,Nimroz,??????,34
626,627,USAID AIDVillageView,ZRJ-054,,0,NRZ-ZRJ-054,0,Balochi,5,487.6809998,30.9487,61.8676,NRZ,ZRJ,Wakil Dostmohd,3401,Zaranj,????,Nimroz,??????,34
627,628,USAID AIDVillageView,ZRJ-056,,0,NRZ-ZRJ-056,0,Balochi,5,485.59698489999994,30.8629,61.9685,NRZ,ZRJ,Yakhdan,3401,Zaranj,????,Nimroz,??????,34
676,677,Yale POP_MASTER,KRD-031,,0,NRZ-KRD-031,137,Pashto,2,656.5275268999999,31.7697,63.0142,NRZ,KRD,Gul Mondi,3405,Khashrod,??? ???,Nimroz,??????,34
677,678,Yale POP_MASTER,KRD-032,,0,NRZ-KRD-032,90,Pashto,2,578.6110229,31.5542,62.773,NRZ,KRD,Haji Abdulah,3405,Khashrod,??? ???,Nimroz,??????,34
678,679,Yale POP_MASTER,KRD-033,,0,NRZ-KRD-033,237,Pashto,2,572.9434813999999,31.5454,62.7248,NRZ,KRD,Haji Mohammad Omer,3405,Khashrod,??? ???,Nimroz,??????,34
679,680,Yale POP_MASTER,KRD-038,,0,NRZ-KRD-038,385,Pashto,2,554.9354857999999,31.4493,62.6638,NRZ,KRD,Khair Abad,3405,Khashrod,??? ???,Nimroz,??????,34
680,681,Yale POP_MASTER,KRD-040,,0,NRZ-KRD-040,591,Pashto,2,576.6021728999999,31.561999999999998,62.7455,NRZ,KRD,Khan Mohammad,3405,Khashrod,??? ???,Nimroz,??????,34
681,682,Yale POP_MASTER,KRD-041,,0,NRZ-KRD-041,647,Pashto,2,578.3057251,31.5296,62.7884,NRZ,KRD,Khash,3405,Khashrod,??? ???,Nimroz,??????,34
682,683,Yale POP_MASTER,KRD-042,,0,NRZ-KRD-042,368,Pashto,2,582.8826904,31.572,62.7804,NRZ,KRD,Khoniya,3405,Khashrod,??? ???,Nimroz,??????,34
683,684,Yale POP_MASTER,KRD-044,,0,NRZ-KRD-044,915,Balochi,5,691.7692871,31.8813,63.0833,NRZ,KRD,Kotalak,3405,Khashrod,??? ???,Nimroz,??????,34
684,685,Yale POP_MASTER,KRD-051,,0,NRZ-KRD-051,1519,Pashto,2,575.4793091,31.5115,62.7778,NRZ,KRD,Mazad Khash,3405,Khashrod,??? ???,Nimroz,??????,34
685,686,Yale POP_MASTER,KRD-052,,0,NRZ-KRD-052,1781,Dari,1,587.8587036,31.5902,62.7859,NRZ,KRD,Mazad Lokhi,3405,Khashrod,??? ???,Nimroz,??????,34
686,687,Yale POP_MASTER,KRD-054,,0,NRZ-KRD-054,850,Pashto,2,646.0552978999999,31.768,62.9976,NRZ,KRD,Menar,3405,Khashrod,??? ???,Nimroz,??????,34
687,688,Yale POP_MASTER,KRD-056,,0,NRZ-KRD-056,69,Pashto,2,573.1616211,31.5448,62.7417,NRZ,KRD,Mohammad Osman,3405,Khashrod,??? ???,Nimroz,??????,34
688,689,Yale POP_MASTER,KRD-058,,0,NRZ-KRD-058,249,Pashto,2,544.9227295,31.409000000000002,62.6046,NRZ,KRD,Nasrat Abad,3405,Khashrod,??? ???,Nimroz,??????,34
689,690,Yale POP_MASTER,KRD-059,,0,NRZ-KRD-059,514,Pashto,2,617.0587768999999,31.663,62.9352,NRZ,KRD,Poushta Hassan,3405,Khashrod,??? ???,Nimroz,??????,34
690,691,Yale POP_MASTER,KRD-061,,0,NRZ-KRD-061,231,Pashto,2,574.4362183,31.5308,62.754,NRZ,KRD,Qala Now,3405,Khashrod,??? ???,Nimroz,??????,34
691,692,Yale POP_MASTER,KRD-064,,0,NRZ-KRD-064,247,Pashto,2,653.5363159,31.7947,62.875,NRZ,KRD,Rabat Ghulam Sarwar,3405,Khashrod,??? ???,Nimroz,??????,34
692,693,Yale POP_MASTER,KRD-065,,0,NRZ-KRD-065,1276,Pashto,2,556.9072876,31.4278,62.6899,NRZ,KRD,Razi Kalan,3405,Khashrod,??? ???,Nimroz,??????,34
693,694,Yale POP_MASTER,KRD-066,,0,NRZ-KRD-066,1044,Pashto,2,559.4660034,31.4478,62.69,NRZ,KRD,Razi Khord,3405,Khashrod,??? ???,Nimroz,??????,34
694,695,Yale POP_MASTER,KRD-076,,0,NRZ-KRD-076,1366,Pashto,2,566.2338257,31.5055,62.6968,NRZ,KRD,Shash Ab,3405,Khashrod,??? ???,Nimroz,??????,34
769,770,USAID AIDVillageView,ZRJ-001,,0,NRZ-ZRJ-001,0,Balochi,5,493.1337891,30.9145,61.8093,NRZ,ZRJ,Abdul'azizkhan,3401,Zaranj,????,Nimroz,??????,34
770,771,USAID AIDVillageView,ZRJ-002,,0,NRZ-ZRJ-002,0,Balochi,5,493.15609739999996,30.8523,61.8853,NRZ,ZRJ,Akhundi,3401,Zaranj,????,Nimroz,??????,34
771,772,USAID AIDVillageView,ZRJ-004,,0,NRZ-ZRJ-004,0,Balochi,5,483.14450070000004,30.9641,61.9406,NRZ,ZRJ,Aqamohd-khan,3401,Zaranj,????,Nimroz,??????,34
772,773,USAID AIDVillageView,ZRJ-005,,0,NRZ-ZRJ-005,0,Balochi,5,490.7262878,30.8943,61.8236,NRZ,ZRJ,Baluchkhan,3401,Zaranj,????,Nimroz,??????,34
773,774,USAID AIDVillageView,ZRJ-006,,0,NRZ-ZRJ-006,0,Balochi,5,492.27011110000007,30.8761,61.803999999999995,NRZ,ZRJ,Bebarg,3401,Zaranj,????,Nimroz,??????,34
774,775,USAID AIDVillageView,ZRJ-007,,0,NRZ-ZRJ-007,0,Balochi,5,483.22979739999994,31.013,61.8826,NRZ,ZRJ,Bunyad,3401,Zaranj,????,Nimroz,??????,34
775,776,USAID AIDVillageView,ZRJ-008,,0,NRZ-ZRJ-008,0,Balochi,5,484.2506103999999,30.9217,62.0591,NRZ,ZRJ,Buri,3401,Zaranj,????,Nimroz,??????,34
776,777,USAID AIDVillageView,ZRJ-009,,0,NRZ-ZRJ-009,0,Balochi,5,482.67099,30.9427,62.0842,NRZ,ZRJ,Burje Samari,3401,Zaranj,????,Nimroz,??????,34
777,778,USAID AIDVillageView,ZRJ-010,,0,NRZ-ZRJ-010,0,Balochi,5,484.1795959,30.9449,62.0675,NRZ,ZRJ,Chahar Sakhlak,3401,Zaranj,????,Nimroz,??????,34
778,779,USAID AIDVillageView,ZRJ-012,,0,NRZ-ZRJ-012,0,Balochi,5,490.97961430000004,30.8694,61.989,NRZ,ZRJ,Chehelghatu,3401,Zaranj,????,Nimroz,??????,34
779,780,USAID AIDVillageView,ZRJ-013,,0,NRZ-ZRJ-013,0,Balochi,5,488.77038569999996,30.8685,61.9409,NRZ,ZRJ,Dam,3401,Zaranj,????,Nimroz,??????,34
780,781,USAID AIDVillageView,ZRJ-014,,0,NRZ-ZRJ-014,0,Balochi,5,488.6958923,30.9245,62.0067,NRZ,ZRJ,Damahe Lawur,3401,Zaranj,????,Nimroz,??????,34
781,782,USAID AIDVillageView,ZRJ-015,,0,NRZ-ZRJ-015,0,Balochi,5,485.01971439999994,30.9554,61.8833,NRZ,ZRJ,Dehe Mazar,3401,Zaranj,????,Nimroz,??????,34
1297,1298,Yale POP_MASTER,KRD-017,,0,NRZ-KRD-017,421,Pashto,2,767.2086182,32.2111,63.1631,NRZ,KRD,Chaghaly,3405,Khashrod,??? ???,Nimroz,??????,34
1298,1299,Yale POP_MASTER,KRD-018,,0,NRZ-KRD-018,453,Pashto,2,757.2913818,32.1341,63.166000000000004,NRZ,KRD,Chah Dara Khan,3405,Khashrod,??? ???,Nimroz,??????,34
1299,1300,Yale POP_MASTER,KRD-020,,0,NRZ-KRD-020,777,Pashto,2,722.2600708,31.9663,63.1343,NRZ,KRD,Dahi Mazang,3405,Khashrod,??? ???,Nimroz,??????,34
1300,1301,Yale POP_MASTER,KRD-022,,0,NRZ-KRD-022,473,Balochi,5,813.9592896,32.1546,63.433,NRZ,KRD,Dil Aram,3405,Khashrod,??? ???,Nimroz,??????,34
1301,1302,Yale POP_MASTER,KRD-024,,0,NRZ-KRD-024,763,Balochi,5,772.2844848999999,32.0724,63.269,NRZ,KRD,Ferozi,3405,Khashrod,??? ???,Nimroz,??????,34
1302,1303,Yale POP_MASTER,KRD-026,,0,NRZ-KRD-026,787,Pashto,2,798.8430786,32.1419,63.3747,NRZ,KRD,Gawmesh,3405,Khashrod,??? ???,Nimroz,??????,34
1303,1304,Yale POP_MASTER,KRD-035,,0,NRZ-KRD-035,453,Pashto,2,769.5565796,32.1819,63.177,NRZ,KRD,Karaiz Miradi,3405,Khashrod,??? ???,Nimroz,??????,34
1304,1305,Yale POP_MASTER,KRD-043,,0,NRZ-KRD-043,743,Pashto,2,713.321228,31.9631,63.144,NRZ,KRD,Khowja Mard Ya Khowja Malik,3405,Khashrod,??? ???,Nimroz,??????,34
1305,1306,Yale POP_MASTER,KRD-045,,0,NRZ-KRD-045,1004,Pashto,2,696.0396118,31.9133,63.1114,NRZ,KRD,Laken,3405,Khashrod,??? ???,Nimroz,??????,34
1306,1307,Yale POP_MASTER,KRD-053,,0,NRZ-KRD-053,349,Pashto,2,754.3826904,32.1762,63.1328,NRZ,KRD,Mehar Abad Asken,3405,Khashrod,??? ???,Nimroz,??????,34
1307,1308,Yale POP_MASTER,KRD-055,,0,NRZ-KRD-055,583,Pashto,2,765.2606812000001,32.1689,63.1727,NRZ,KRD,Miradi,3405,Khashrod,??? ???,Nimroz,??????,34
1308,1309,Yale POP_MASTER,KRD-057,,0,NRZ-KRD-057,94,Pashto,2,744.9072266,32.0525,63.2143,NRZ,KRD,Nalan,3405,Khashrod,??? ???,Nimroz,??????,34
1309,1310,Yale POP_MASTER,KRD-063,,0,NRZ-KRD-063,900,Pashto,2,756.6030272999999,32.1874,63.1395,NRZ,KRD,Qalandar Abad,3405,Khashrod,??? ???,Nimroz,??????,34
1310,1311,Yale POP_MASTER,KRD-067,,0,NRZ-KRD-067,163,Balochi,5,759.616272,32.0943,63.2661,NRZ,KRD,Sali,3405,Khashrod,??? ???,Nimroz,??????,34
1311,1312,Yale POP_MASTER,KRD-069,,0,NRZ-KRD-069,694,Pashto,2,816.4061889999999,32.1354,63.4164,NRZ,KRD,Sar Shela,3405,Khashrod,??? ???,Nimroz,??????,34
1312,1313,Yale POP_MASTER,KRD-072,,0,NRZ-KRD-072,637,Pashto,2,780.2824707000001,32.2451,63.1721,NRZ,KRD,Sarhadad,3405,Khashrod,??? ???,Nimroz,??????,34
1313,1314,Yale POP_MASTER,KRD-074,,0,NRZ-KRD-074,126,Pashto,2,754.2817993,32.0424,63.2091,NRZ,KRD,Shah Mohammad,3405,Khashrod,??? ???,Nimroz,??????,34
1314,1315,Yale POP_MASTER,KRD-075,,0,NRZ-KRD-075,434,Pashto,2,763.2670287999999,32.1468,63.1942,NRZ,KRD,Shah Mohammad,3405,Khashrod,??? ???,Nimroz,??????,34
1315,1316,Yale POP_MASTER,KRD-078,,0,NRZ-KRD-078,130,Pashto,2,798.0250854,32.1512,63.3821,NRZ,KRD,Sufiyan,3405,Khashrod,??? ???,Nimroz,??????,34
1316,1317,Yale POP_MASTER,KRD-079,,0,NRZ-KRD-079,339,Pashto,2,764.6680298,32.0464,63.2493,NRZ,KRD,Toor Ghondi,3405,Khashrod,??? ???,Nimroz,??????,34
1317,1318,Yale POP_MASTER,KRD-080,,0,NRZ-KRD-080,130,Pashto,2,752.1018066,32.143,63.1273,NRZ,KRD,Wakil Amanullah,3405,Khashrod,??? ???,Nimroz,??????,34
1522,1523,Yale POP_MASTER,KNG-128,,0,NRZ-KNG-128,77,Balochi,5,482.25241090000003,31.1255,61.8302,NRZ,KNG,Mohammad Halam Khan,3402,Kang,???,Nimroz,??????,34
1523,1524,Yale POP_MASTER,KNG-129,,0,NRZ-KNG-129,45,Balochi,5,481.4598999,31.1052,61.9098,NRZ,KNG,Mohammad Kabir,3402,Kang,???,Nimroz,??????,34
1524,1525,Yale POP_MASTER,KNG-130,,0,NRZ-KNG-130,104,Balochi,5,480.5015869,31.1796,61.821999999999996,NRZ,KNG,Mohammad Omar Khan,3402,Kang,???,Nimroz,??????,34
1525,1526,Yale POP_MASTER,KNG-131,,0,NRZ-KNG-131,369,Balochi,5,481.203186,31.1559,61.893,NRZ,KNG,Mullah Ibrahim,3402,Kang,???,Nimroz,??????,34
1526,1527,Yale POP_MASTER,KNG-132,,0,NRZ-KNG-132,36,Balochi,5,480.5020142,31.1396,61.858000000000004,NRZ,KNG,Mullah Mirza,3402,Kang,???,Nimroz,??????,34
1527,1528,Yale POP_MASTER,KNG-133,,0,NRZ-KNG-133,51,Balochi,5,482.2874146000001,31.1282,61.8463,NRZ,KNG,Mussa Khan,3402,Kang,???,Nimroz,??????,34
1528,1529,Yale POP_MASTER,KNG-134,,0,NRZ-KNG-134,152,Balochi,5,479.58090210000006,31.1725,61.8177,NRZ,KNG,Noor Ahmad Khan,3402,Kang,???,Nimroz,??????,34
1529,1530,Yale POP_MASTER,KNG-135,,0,NRZ-KNG-135,111,Balochi,5,480.0155029,31.1533,61.8087,NRZ,KNG,Noor Ahmad Khrote,3402,Kang,???,Nimroz,??????,34
1530,1531,Yale POP_MASTER,KNG-136,,0,NRZ-KNG-136,37,Balochi,5,480.2052916999999,31.1931,61.8376,NRZ,KNG,Noor Mohammad,3402,Kang,???,Nimroz,??????,34
1531,1532,Yale POP_MASTER,KNG-137,,0,NRZ-KNG-137,146,Balochi,5,479.2795105000001,31.1983,61.8267,NRZ,KNG,Pair Mohammad Safar,3402,Kang,???,Nimroz,??????,34
1532,1533,Yale POP_MASTER,KNG-138,,0,NRZ-KNG-138,440,Balochi,5,485.9231873,31.0527,61.839,NRZ,KNG,Rayes Juma Khan,3402,Kang,???,Nimroz,??????,34
1533,1534,Yale POP_MASTER,KNG-139,,0,NRZ-KNG-139,100,Balochi,5,479.7939148,31.2114,61.8778,NRZ,KNG,Saifuldin,3402,Kang,???,Nimroz,??????,34
1534,1535,Yale POP_MASTER,KNG-140,,0,NRZ-KNG-140,61,Balochi,5,476.7634888,31.3753,61.7538,NRZ,KNG,Sar Laf,3402,Kang,???,Nimroz,??????,34
1535,1536,Yale POP_MASTER,KNG-141,,0,NRZ-KNG-141,168,Balochi,5,477.13540650000004,31.291999999999998,61.7873,NRZ,KNG,Sar Tapa,3402,Kang,???,Nimroz,??????,34
1536,1537,Yale POP_MASTER,KNG-143,,0,NRZ-KNG-143,1000,Balochi,5,477.6805115,31.2608,61.8113,NRZ,KNG,Seya Soly,3402,Kang,???,Nimroz,??????,34
1537,1538,Yale POP_MASTER,KNG-144,,0,NRZ-KNG-144,176,Balochi,5,478.256012,31.2334,61.8097,NRZ,KNG,Seya Zai,3402,Kang,???,Nimroz,??????,34
1538,1539,Yale POP_MASTER,KNG-145,,0,NRZ-KNG-145,63,Balochi,5,479.66778560000006,31.1536,61.8561,NRZ,KNG,Shah Gul Pahlawan,3402,Kang,???,Nimroz,??????,34
1540,1541,Yale POP_MASTER,KNG-147,,0,NRZ-KNG-147,275,Balochi,5,478.32269289999994,31.245,61.8269,NRZ,KNG,Shora Aye,3402,Kang,???,Nimroz,??????,34
1541,1542,Yale POP_MASTER,KNG-148,,0,NRZ-KNG-148,930,Balochi,5,477.2446899,31.2769,61.8019,NRZ,KNG,Tellaye,3402,Kang,???,Nimroz,??????,34
1542,1543,Yale POP_MASTER,KNG-149,,0,NRZ-KNG-149,465,Balochi,5,481.34170530000006,31.0862,61.9233,NRZ,KNG,Wali Dad,3402,Kang,???,Nimroz,??????,34
1543,1544,Yale POP_MASTER,KNG-150,,0,NRZ-KNG-150,29,Uzbek,3,482.3616028,31.1196,61.8289,NRZ,KNG,Yar Mohammad Khan,3402,Kang,???,Nimroz,??????,34
1544,1545,Yale POP_MASTER,KNG-151,,0,NRZ-KNG-151,626,Balochi,5,477.19760130000003,31.3668,61.8221,NRZ,KNG,Youridahi,3402,Kang,???,Nimroz,??????,34
1545,1546,Yale POP_MASTER,KNG-152,,0,NRZ-KNG-152,218,Balochi,5,477.70800779999996,31.3519,61.7876,NRZ,KNG,Zerkay,3402,Kang,???,Nimroz,??????,34
1546,1547,Yale POP_MASTER,KNG-153,District,1,NRZ-KNG-153,2762,Balochi,5,482.4148865,31.1148,61.8808,NRZ,KNG,Kang,3402,Kang,???,Nimroz,??????,34
1547,1548,USAID AIDVillageView,ZRJ-011,,0,NRZ-ZRJ-011,0,Balochi,5,484.8504028,30.9409,62.1124,NRZ,ZRJ,Chehel Borj,3401,Zaranj,????,Nimroz,??????,34
1626,1627,USAID AIDVillageView,ZRJ-046,,0,NRZ-ZRJ-046,0,Balochi,5,485.692688,30.9306,62.1364,NRZ,ZRJ,Qal'eh-ye Now,3401,Zaranj,????,Nimroz,??????,34
1627,1628,USAID AIDVillageView,ZRJ-047,,0,NRZ-ZRJ-047,0,Balochi,5,489.7802124,30.9412,62.1952,NRZ,ZRJ,Qal'eh-ye Sorkh,3401,Zaranj,????,Nimroz,??????,34
1628,1629,CSO AIMS Villages (ACSOR),ZRJ-060,,0,NRZ-ZRJ-060,9,Balochi,5,480.13790889999996,31.069000000000003,62.0494,NRZ,ZRJ,Hassan Abad,3401,Zaranj,????,Nimroz,??????,34
1629,1630,USAID AIDVillageView,CKS-002,,0,NRZ-CKS-002,0,Balochi,5,484.97808839999993,31.1956,62.1713,NRZ,CKS,Abdulhamid,3404,Chakhansur,???????,Nimroz,??????,34
1630,1631,USAID AIDVillageView,CKS-003,,0,NRZ-CKS-003,0,Balochi,5,480.81561280000005,31.1543,62.0356,NRZ,CKS,Abdulmajidkhan,3404,Chakhansur,???????,Nimroz,??????,34
1631,1632,USAID AIDVillageView,CKS-004,,0,NRZ-CKS-004,0,Balochi,5,483.54278560000006,31.1371,62.0915,NRZ,CKS,Aliabad,3404,Chakhansur,???????,Nimroz,??????,34
1632,1633,USAID AIDVillageView,CKS-006,,0,NRZ-CKS-006,0,Balochi,5,517.5460815,31.4112,62.4668,NRZ,CKS,Arere,3404,Chakhansur,???????,Nimroz,??????,34
1633,1634,USAID AIDVillageView,CKS-007,,0,NRZ-CKS-007,0,Balochi,5,487.1184081999999,30.9885,62.0724,NRZ,CKS,Chakhansurak,3404,Chakhansur,???????,Nimroz,??????,34
1634,1635,USAID AIDVillageView,CKS-009,,0,NRZ-CKS-009,0,Balochi,5,481.73181150000005,31.1905,62.0435,NRZ,CKS,Gholamhasan,3404,Chakhansur,???????,Nimroz,??????,34
1635,1636,USAID AIDVillageView,CKS-010,,0,NRZ-CKS-010,0,Balochi,5,482.278595,31.2247,62.0456,NRZ,CKS,Gholamhaydar,3404,Chakhansur,???????,Nimroz,??????,34
1636,1637,USAID AIDVillageView,CKS-011,,0,NRZ-CKS-011,0,Balochi,5,484.99890139999997,31.1833,62.0711,NRZ,CKS,Gulmohd,3404,Chakhansur,???????,Nimroz,??????,34
1637,1638,USAID AIDVillageView,CKS-012,,0,NRZ-CKS-012,0,Balochi,5,485.9386902,31.2063,62.1469,NRZ,CKS,Haji Safarkhan,3404,Chakhansur,???????,Nimroz,??????,34
1638,1639,USAID AIDVillageView,CKS-013,,0,NRZ-CKS-013,0,Balochi,5,480.4146118,31.1547,62.056999999999995,NRZ,CKS,Hasayn Allahdad,3404,Chakhansur,???????,Nimroz,??????,34
1639,1640,USAID AIDVillageView,CKS-014,,0,NRZ-CKS-014,0,Balochi,5,497.8883057,31.3618,62.2927,NRZ,CKS,Kadeh,3404,Chakhansur,???????,Nimroz,??????,34
1640,1641,USAID AIDVillageView,CKS-015,,0,NRZ-CKS-015,0,Balochi,5,485.24591060000006,31.1743,62.1412,NRZ,CKS,Kalabzi,3404,Chakhansur,???????,Nimroz,??????,34
1641,1642,USAID AIDVillageView,CKS-016,,0,NRZ-CKS-016,0,Balochi,5,483.42858889999997,31.1761,62.0957,NRZ,CKS,Karimdadzi,3404,Chakhansur,???????,Nimroz,??????,34
1642,1643,USAID AIDVillageView,CKS-017,,0,NRZ-CKS-017,0,Balochi,5,486.3978882,31.1927,62.1085,NRZ,CKS,Khalifa .,3404,Chakhansur,???????,Nimroz,??????,34
1643,1644,USAID AIDVillageView,CKS-018,,0,NRZ-CKS-018,0,Balochi,5,497.133606,31.3371,62.3466,NRZ,CKS,Khwaja-sarjoy,3404,Chakhansur,???????,Nimroz,??????,34
1644,1645,USAID AIDVillageView,CKS-020,,0,NRZ-CKS-020,0,Balochi,5,485.71109010000004,31.1899,62.1039,NRZ,CKS,Mirdel,3404,Chakhansur,???????,Nimroz,??????,34
1645,1646,USAID AIDVillageView,CKS-021,,0,NRZ-CKS-021,0,Balochi,5,484.5763855000001,31.1834,62.1033,NRZ,CKS,Mohayeddin,3404,Chakhansur,???????,Nimroz,??????,34
1646,1647,USAID AIDVillageView,CKS-022,,0,NRZ-CKS-022,0,Balochi,5,479.70550539999994,31.2192,62.0179,NRZ,CKS,Mulla Khanmohd,3404,Chakhansur,???????,Nimroz,??????,34
1647,1648,USAID AIDVillageView,CKS-023,,0,NRZ-CKS-023,0,Balochi,5,484.4381103999999,31.2707,62.1206,NRZ,CKS,Mulla Musa,3404,Chakhansur,???????,Nimroz,??????,34
1648,1649,USAID AIDVillageView,CKS-024,,0,NRZ-CKS-024,0,Balochi,5,482.84768679999996,31.2223,62.0991,NRZ,CKS,Mulla Rasul,3404,Chakhansur,???????,Nimroz,??????,34
1649,1650,USAID AIDVillageView,CKS-025,,0,NRZ-CKS-025,0,Balochi,5,486.31790159999997,31.2082,62.162,NRZ,CKS,Muua-rahim,3404,Chakhansur,???????,Nimroz,??????,34
1650,1651,USAID AIDVillageView,CKS-026,,0,NRZ-CKS-026,0,Balochi,5,484.37991330000006,31.2138,62.1186,NRZ,CKS,Nazarkhan Danno,3404,Chakhansur,???????,Nimroz,??????,34
1651,1652,USAID AIDVillageView,CKS-027,,0,NRZ-CKS-027,0,Balochi,5,481.47378539999994,31.2185,62.1026,NRZ,CKS,Nurmohd (1),3404,Chakhansur,???????,Nimroz,??????,34
1652,1653,USAID AIDVillageView,CKS-028,,0,NRZ-CKS-028,0,Balochi,5,485.8909912,31.2076,62.1415,NRZ,CKS,Nurmohd (2),3404,Chakhansur,???????,Nimroz,??????,34
1653,1654,USAID AIDVillageView,CKS-030,,0,NRZ-CKS-030,0,Balochi,5,483.4511108,31.2103,62.0988,NRZ,CKS,Qader,3404,Chakhansur,???????,Nimroz,??????,34
1654,1655,USAID AIDVillageView,CKS-031,,0,NRZ-CKS-031,0,Balochi,5,482.51971439999994,31.1395,62.1104,NRZ,CKS,Qalacha,3404,Chakhansur,???????,Nimroz,??????,34
1655,1656,USAID AIDVillageView,CKS-032,,0,NRZ-CKS-032,0,Balochi,5,495.6159973,31.3143,62.2639,NRZ,CKS,Qaleh-ye Avkhar,3404,Chakhansur,???????,Nimroz,??????,34
1656,1657,USAID AIDVillageView,CKS-033,,0,NRZ-CKS-033,0,Balochi,5,480.7434081999999,31.1552,62.0299,NRZ,CKS,Rahimkhan,3404,Chakhansur,???????,Nimroz,??????,34
1657,1658,USAID AIDVillageView,CKS-035,,0,NRZ-CKS-035,0,Balochi,5,485.31008909999997,31.2112,62.1924,NRZ,CKS,Sakhi .,3404,Chakhansur,???????,Nimroz,??????,34
1658,1659,USAID AIDVillageView,CKS-036,,0,NRZ-CKS-036,0,Balochi,5,506.4408875,31.3943,62.3612,NRZ,CKS,Sarang,3404,Chakhansur,???????,Nimroz,??????,34
1659,1660,USAID AIDVillageView,CKS-037,,0,NRZ-CKS-037,0,Balochi,5,487.5163879,31.2026,62.1476,NRZ,CKS,Sayfuddin,3404,Chakhansur,???????,Nimroz,??????,34
1660,1661,USAID AIDVillageView,CKS-038,,0,NRZ-CKS-038,0,Balochi,5,481.4896851,31.1727,62.0161,NRZ,CKS,Shadikhan,3404,Chakhansur,???????,Nimroz,??????,34
1661,1662,USAID AIDVillageView,CKS-039,,0,NRZ-CKS-039,0,Balochi,5,482.5770874,31.2063,62.0664,NRZ,CKS,Shahbek,3404,Chakhansur,???????,Nimroz,??????,34
1662,1663,USAID AIDVillageView,CKS-040,,0,NRZ-CKS-040,0,Balochi,5,482.97241210000004,31.2151,62.0946,NRZ,CKS,Shaqis,3404,Chakhansur,???????,Nimroz,??????,34
1663,1664,USAID AIDVillageView,CKS-041,,0,NRZ-CKS-041,0,Balochi,5,484.408905,31.1886,62.07899999999999,NRZ,CKS,Yarmohd,3404,Chakhansur,???????,Nimroz,??????,34
1664,1665,Yale POP_MASTER,ZRJ-067,,0,NRZ-ZRJ-067,82,Pashto,2,480.08990480000006,31.0502,62.0438,NRZ,ZRJ,Abdul Qayoum,3401,Zaranj,????,Nimroz,??????,34
1665,1666,Yale POP_MASTER,CKS-042,,0,NRZ-CKS-042,200,Balochi,5,482.83850099999995,31.1375,62.0851,NRZ,CKS,Abdul Aziz Khan,3404,Chakhansur,???????,Nimroz,??????,34
1666,1667,Yale POP_MASTER,CKS-043,,0,NRZ-CKS-043,86,Balochi,5,484.0415039,31.1783,62.0549,NRZ,CKS,Abdul Hakim,3404,Chakhansur,???????,Nimroz,??????,34
1667,1668,Yale POP_MASTER,CKS-044,,0,NRZ-CKS-044,17,Balochi,5,482.6653137,31.1737,62.0746,NRZ,CKS,Abdul Hamid,3404,Chakhansur,???????,Nimroz,??????,34
1668,1669,Yale POP_MASTER,CKS-045,,0,NRZ-CKS-045,22,Balochi,5,481.13720700000005,31.1578,62.0425,NRZ,CKS,Abdul Rashid,3404,Chakhansur,???????,Nimroz,??????,34
1669,1670,Yale POP_MASTER,CKS-046,,0,NRZ-CKS-046,161,Balochi,5,481.7372131,31.1326,62.0851,NRZ,CKS,Abdul Wakil Khan,3404,Chakhansur,???????,Nimroz,??????,34
1670,1671,Yale POP_MASTER,CKS-047,,0,NRZ-CKS-047,49,Balochi,5,481.23388669999997,31.1705,62.0265,NRZ,CKS,Ahmad Khan,3404,Chakhansur,???????,Nimroz,??????,34
1671,1672,Yale POP_MASTER,CKS-048,,0,NRZ-CKS-048,28,Balochi,5,484.18389890000003,31.1799,62.1559,NRZ,CKS,Akhound Abdul Hamid,3404,Chakhansur,???????,Nimroz,??????,34
1672,1673,Yale POP_MASTER,CKS-049,,0,NRZ-CKS-049,270,Balochi,5,503.92520139999993,31.3854,62.3458,NRZ,CKS,Ali Khan Faqir Khan,3404,Chakhansur,???????,Nimroz,??????,34
1673,1674,Yale POP_MASTER,CKS-050,,0,NRZ-CKS-050,468,Balochi,5,515.2592162999999,31.3983,62.4252,NRZ,CKS,Alili Abdul Rasool,3404,Chakhansur,???????,Nimroz,??????,34
1674,1675,Yale POP_MASTER,CKS-051,,0,NRZ-CKS-051,301,Balochi,5,517.0565796,31.4046,62.449,NRZ,CKS,Alili Amanulha Khan,3404,Chakhansur,???????,Nimroz,??????,34
1675,1676,Yale POP_MASTER,ZRJ-104,,0,NRZ-ZRJ-104,13,Balochi,5,490.5288086,30.934,61.8048,NRZ,ZRJ,Mohammad,3401,Zaranj,????,Nimroz,??????,34
1676,1677,Yale POP_MASTER,ZRJ-105,,0,NRZ-ZRJ-105,40,Dari,1,495.45019529999996,30.8571,61.8047,NRZ,ZRJ,Mohammad Ahzam,3401,Zaranj,????,Nimroz,??????,34
1677,1678,Yale POP_MASTER,ZRJ-106,,0,NRZ-ZRJ-106,177,Balochi,5,489.7825012,30.9244,61.8471,NRZ,ZRJ,Mohammad Ayoub Khan,3401,Zaranj,????,Nimroz,??????,34
1678,1679,Yale POP_MASTER,ZRJ-107,,0,NRZ-ZRJ-107,131,Balochi,5,489.2260132,30.9746,61.8546,NRZ,ZRJ,Mohammad Azim,3401,Zaranj,????,Nimroz,??????,34
1679,1680,Yale POP_MASTER,ZRJ-108,,0,NRZ-ZRJ-108,160,Balochi,5,482.9129944,30.9801,61.9,NRZ,ZRJ,Mohammad Yousuf,3401,Zaranj,????,Nimroz,??????,34
1680,1681,Yale POP_MASTER,ZRJ-109,,0,NRZ-ZRJ-109,43,Balochi,5,484.91790769999994,31.0244,61.8395,NRZ,ZRJ,Mullah Abdul Aziz,3401,Zaranj,????,Nimroz,??????,34
1681,1682,Yale POP_MASTER,ZRJ-110,,0,NRZ-ZRJ-110,120,Uzbek,3,485.65820310000004,31.024,61.8523,NRZ,ZRJ,Mullah Jamal,3401,Zaranj,????,Nimroz,??????,34
1682,1683,Yale POP_MASTER,ZRJ-111,,0,NRZ-ZRJ-111,77,Balochi,5,483.8312988,30.9726,61.9093,NRZ,ZRJ,Mullah Mohammad Sharif,3401,Zaranj,????,Nimroz,??????,34
1683,1684,Yale POP_MASTER,ZRJ-112,,0,NRZ-ZRJ-112,26,Balochi,5,493.03540039999996,30.8753,61.8209,NRZ,ZRJ,Mullah Noor Mohammad,3401,Zaranj,????,Nimroz,??????,34
1684,1685,Yale POP_MASTER,ZRJ-113,,0,NRZ-ZRJ-113,97,Balochi,5,498.74710080000006,31.0061,61.8492,NRZ,ZRJ,Nad Ali Haji M.sherin,3401,Zaranj,????,Nimroz,??????,34
1685,1686,Yale POP_MASTER,ZRJ-114,,0,NRZ-ZRJ-114,153,Balochi,5,486.479187,30.9825,61.8876,NRZ,ZRJ,Pair Mohammad,3401,Zaranj,????,Nimroz,??????,34
1686,1687,Yale POP_MASTER,ZRJ-115,,0,NRZ-ZRJ-115,199,Balochi,5,488.51159670000004,30.9488,61.8446,NRZ,ZRJ,Qader Khan,3401,Zaranj,????,Nimroz,??????,34
1687,1688,Yale POP_MASTER,ZRJ-116,,0,NRZ-ZRJ-116,77,Balochi,5,487.69180300000005,30.93,61.8923,NRZ,ZRJ,Raes Juma Khan,3401,Zaranj,????,Nimroz,??????,34
1688,1689,Yale POP_MASTER,ZRJ-117,,0,NRZ-ZRJ-117,42,Balochi,5,488.7344055,30.9155,61.8498,NRZ,ZRJ,Sally Mohammad,3401,Zaranj,????,Nimroz,??????,34
1689,1690,Yale POP_MASTER,ZRJ-118,,0,NRZ-ZRJ-118,66,Balochi,5,488.9508972,30.9869,61.8525,NRZ,ZRJ,Sardar Ibrahim,3401,Zaranj,????,Nimroz,??????,34
1690,1691,Yale POP_MASTER,ZRJ-119,,0,NRZ-ZRJ-119,312,Balochi,5,487.1108093,30.979,61.861000000000004,NRZ,ZRJ,Seya Chashma,3401,Zaranj,????,Nimroz,??????,34
1691,1692,Yale POP_MASTER,ZRJ-120,,0,NRZ-ZRJ-120,188,Pashto,2,484.60479739999994,31.02,61.8477,NRZ,ZRJ,Shair Ahmad Ghulami,3401,Zaranj,????,Nimroz,??????,34
1692,1693,Yale POP_MASTER,ZRJ-121,,0,NRZ-ZRJ-121,37,Balochi,5,488.35559079999996,30.9367,61.8346,NRZ,ZRJ,Shair Mohammad Khan,3401,Zaranj,????,Nimroz,??????,34
1693,1694,Yale POP_MASTER,ZRJ-122,,0,NRZ-ZRJ-122,1162,Uzbek,3,488.41809079999996,30.9435,61.8641,NRZ,ZRJ,Shutourak,3401,Zaranj,????,Nimroz,??????,34
1694,1695,Yale POP_MASTER,ZRJ-123,,0,NRZ-ZRJ-123,148,Balochi,5,492.87139890000003,30.8652,61.8259,NRZ,ZRJ,Waiali Mohammad,3401,Zaranj,????,Nimroz,??????,34
1695,1696,Yale POP_MASTER,ZRJ-124,,0,NRZ-ZRJ-124,265,Balochi,5,488.456604,30.9623,61.8371,NRZ,ZRJ,War Mohammad Khan,3401,Zaranj,????,Nimroz,??????,34
1696,1697,Yale POP_MASTER,ZRJ-125,,0,NRZ-ZRJ-125,315,Balochi,5,490.12930300000005,30.9483,61.8181,NRZ,ZRJ,Yaqub,3401,Zaranj,????,Nimroz,??????,34
1697,1698,Yale POP_MASTER,ZRJ-126,Provincial,2,NRZ-ZRJ-126,7300,Balochi,5,488.2408142,30.9594,61.8627,NRZ,ZRJ,Zaranj,3401,Zaranj,????,Nimroz,??????,34
1698,1699,Yale POP_MASTER,CBR-043,,0,NRZ-CBR-043,22,Balochi,5,502.639801,30.6608,61.8185,NRZ,CBR,Abdul Aziz,3403,Charburjak,???????,Nimroz,??????,34
1699,1700,Yale POP_MASTER,CBR-049,,0,NRZ-CBR-049,65,Balochi,5,499.031311,30.7632,61.8034,NRZ,CBR,Balos,3403,Charburjak,???????,Nimroz,??????,34
1700,1701,Yale POP_MASTER,CBR-055,,0,NRZ-CBR-055,151,Balochi,5,503.6028137,30.6526,61.8248,NRZ,CBR,Ghulam Muhedin,3403,Charburjak,???????,Nimroz,??????,34
4090,4091,Yale POP_MASTER,KNG-116,,0,NRZ-KNG-116,969,Dari,1,477.02780149999995,31.4748,61.6902,NRZ,KNG,Kala Mashaw,3402,Kang,???,Nimroz,??????,34
4402,4403,Yale POP_MASTER,KRD-023,,0,NRZ-KRD-023,288,Balochi,5,836.5579223999999,32.1817,63.4412,NRZ,KRD,Dil Aram Hulya,3405,Khashrod,??? ???,Nimroz,??????,34
4403,4404,Yale POP_MASTER,KRD-028,,0,NRZ-KRD-028,162,Pashto,2,1002.362,32.1927,63.5228,NRZ,KRD,Gerdi Kach,3405,Khashrod,??? ???,Nimroz,??????,34
4404,4405,Yale POP_MASTER,KRD-034,,0,NRZ-KRD-034,1160,Other,9,834.7426757999999,32.1705,63.4931,NRZ,KRD,Kach Satar,3405,Khashrod,??? ???,Nimroz,??????,34
4405,4406,Yale POP_MASTER,KRD-060,,0,NRZ-KRD-060,544,Balochi,5,840.7271729,32.1769,63.5222,NRZ,KRD,Pouzgay,3405,Khashrod,??? ???,Nimroz,??????,34
4406,4407,Yale POP_MASTER,KRD-062,,0,NRZ-KRD-062,478,Balochi,5,842.0264281999999,32.1742,63.535,NRZ,KRD,Qalagay,3405,Khashrod,??? ???,Nimroz,??????,34
4407,4408,Yale POP_MASTER,KRD-068,,0,NRZ-KRD-068,166,Pashto,2,857.2484741000001,32.163000000000004,63.5362,NRZ,KRD,San Zari,3405,Khashrod,??? ???,Nimroz,??????,34
4410,4411,USAID AIDVillageView,KRD-001,,0,NRZ-KRD-001,0,Pashto,2,566.0803222999999,31.4874,62.7343,NRZ,KRD,Chah Mowla,3405,Khashrod,??? ???,Nimroz,??????,34
4411,4412,USAID AIDVillageView,KRD-002,,0,NRZ-KRD-002,0,Pashto,2,589.0203247000001,31.5987,62.7886,NRZ,KRD,Dashtak,3405,Khashrod,??? ???,Nimroz,??????,34
4412,4413,USAID AIDVillageView,KRD-004,,0,NRZ-KRD-004,0,Pashto,2,616.546875,31.6931,62.8941,NRZ,KRD,Garu,3405,Khashrod,??? ???,Nimroz,??????,34
4413,4414,USAID AIDVillageView,KRD-007,,0,NRZ-KRD-007,0,Pashto,2,560.1160888999999,31.4622,62.6946,NRZ,KRD,Kuchnay Razi,3405,Khashrod,??? ???,Nimroz,??????,34
4414,4415,USAID AIDVillageView,KRD-008,,0,NRZ-KRD-008,0,Pashto,2,569.5687866000001,31.5343,62.7083,NRZ,KRD,Mazad Qala-i-naw,3405,Khashrod,??? ???,Nimroz,??????,34
4415,4416,USAID AIDVillageView,KRD-011,,0,NRZ-KRD-011,0,Pashto,2,651.7874756,31.7795,63.0241,NRZ,KRD,Pir Gaz Agha,3405,Khashrod,??? ???,Nimroz,??????,34
4416,4417,USAID AIDVillageView,KRD-013,,0,NRZ-KRD-013,0,Pashto,2,557.6066284,31.4802,62.6487,NRZ,KRD,Shorai,3405,Khashrod,??? ???,Nimroz,??????,34
4417,4418,Yale POP_MASTER,CKS-119,,0,NRZ-CKS-119,293,Pashto,2,548.9190062999999,31.2249,62.7925,NRZ,CKS,Takreash,3404,Chakhansur,???????,Nimroz,??????,34
4418,4419,Yale POP_MASTER,KRD-014,,0,NRZ-KRD-014,91,Pashto,2,574.5285034,31.5618,62.7237,NRZ,KRD,Atta Mohammad,3405,Khashrod,??? ???,Nimroz,??????,34
4419,4420,Yale POP_MASTER,KRD-030,,0,NRZ-KRD-030,5673,Pashto,2,550.9454956000001,31.4353,62.626999999999995,NRZ,KRD,Ghor Ghori Markaz Wolluswali,3405,Khashrod,??? ???,Nimroz,??????,34
