,OBJECTID,SOURCE,VIL_UID,CENTER,CNTR_CODE,AFG_UID,POPULATION,LANGUAGE_,LANG_CODE,ELEVATION,LAT_Y,LON_X,MISTI_PROV,MISTI_DIST,VILLAGE_NA,DIST_CODE,DIST_NA_EN,DIST_NA_DA,PROV_NA_EN,PROV_NA_DA,PROV_CODE
1323,1324,Yale POP_MASTER,ZGS-058,,0,PKK-ZGS-058,589,Pashto,2,2157.5390629999997,32.9243,68.5186,PKK,ZGS,Sagansi (sah Gana),2505,Zarghunshahr,????? ???,Paktika,??????,25
1324,1325,Yale POP_MASTER,ZGS-072,,0,PKK-ZGS-072,1557,Pashto,2,2107.395996,32.8828,68.5521,PKK,ZGS,Zafar Khail Kalay,2505,Zarghunshahr,????? ???,Paktika,??????,25
1325,1326,Yale POP_MASTER,ZGS-038,,0,PKK-ZGS-038,526,Pashto,2,2098.572998,32.8651,68.543,PKK,ZGS,Kaftari,2505,Zarghunshahr,????? ???,Paktika,??????,25
1326,1327,Yale POP_MASTER,ZGS-057,,0,PKK-ZGS-057,292,Pashto,2,2085.059082,32.8281,68.5294,PKK,ZGS,Panah Gir,2505,Zarghunshahr,????? ???,Paktika,??????,25
1327,1328,Yale POP_MASTER,ZGS-026,,0,PKK-ZGS-026,200,Pashto,2,2103.291016,32.7814,68.544,PKK,ZGS,Dawud Kalay,2505,Zarghunshahr,????? ???,Paktika,??????,25
1328,1329,Yale POP_MASTER,ZGS-022,,0,PKK-ZGS-022,661,Pashto,2,2076.6489260000003,32.7982,68.5018,PKK,ZGS,Baz Gul Kala,2505,Zarghunshahr,????? ???,Paktika,??????,25
1329,1330,Yale POP_MASTER,ZGS-056,,0,PKK-ZGS-056,144,Pashto,2,2173.346924,32.8751,68.4354,PKK,ZGS,Nazar Mohammad Sulaimanzay,2505,Zarghunshahr,????? ???,Paktika,??????,25
1330,1331,Yale POP_MASTER,ZGS-069,,0,PKK-ZGS-069,648,Pashto,2,2087.5629879999997,32.817,68.5337,PKK,ZGS,Sro Kalay,2505,Zarghunshahr,????? ???,Paktika,??????,25
1331,1332,Yale POP_MASTER,ZGS-034,,0,PKK-ZGS-034,146,Pashto,2,2091.60791,32.8307,68.4745,PKK,ZGS,Husain Abad,2505,Zarghunshahr,????? ???,Paktika,??????,25
1332,1333,Yale POP_MASTER,ZGS-052,,0,PKK-ZGS-052,1167,Pashto,2,2088.74292,32.8314,68.4872,PKK,ZGS,Mohammad Dost,2505,Zarghunshahr,????? ???,Paktika,??????,25
1333,1334,Yale POP_MASTER,ZGS-073,,0,PKK-ZGS-073,274,Pashto,2,2100.153076,32.8704,68.544,PKK,ZGS,Zara Khalta,2505,Zarghunshahr,????? ???,Paktika,??????,25
1334,1335,Yale POP_MASTER,ZGS-059,,0,PKK-ZGS-059,2455,Pashto,2,2146.853027,32.9227,68.5229,PKK,ZGS,Sah Gana Kalawi,2505,Zarghunshahr,????? ???,Paktika,??????,25
1335,1336,Yale POP_MASTER,ZGS-068,,0,PKK-ZGS-068,216,Pashto,2,2095.374023,32.8558,68.5592,PKK,ZGS,Spin Sara,2505,Zarghunshahr,????? ???,Paktika,??????,25
1336,1337,Yale POP_MASTER,ZGS-047,,0,PKK-ZGS-047,86,Pashto,2,2155.1560059999997,32.8924,68.4822,PKK,ZGS,Magi,2505,Zarghunshahr,????? ???,Paktika,??????,25
1337,1338,Yale POP_MASTER,ZGS-014,,0,PKK-ZGS-014,653,Pashto,2,2092.065918,32.8582,68.518,PKK,ZGS,Zor Kalay,2505,Zarghunshahr,????? ???,Paktika,??????,25
1338,1339,Yale POP_MASTER,ZGS-023,,0,PKK-ZGS-023,701,Pashto,2,2093.350098,32.8265,68.5481,PKK,ZGS,Bazar Baki Khail,2505,Zarghunshahr,????? ???,Paktika,??????,25
1339,1340,Yale POP_MASTER,ZGS-044,,0,PKK-ZGS-044,1108,Pashto,2,2088.326904,32.8211,68.5332,PKK,ZGS,Khalifa Sahib,2505,Zarghunshahr,????? ???,Paktika,??????,25
1340,1341,Yale POP_MASTER,ZGS-064,,0,PKK-ZGS-064,2157,Pashto,2,2091.011963,32.8196,68.5417,PKK,ZGS,Shah Ki Khail,2505,Zarghunshahr,????? ???,Paktika,??????,25
1341,1342,Yale POP_MASTER,ZGS-006,,0,PKK-ZGS-006,973,Pashto,2,2093.5979,32.8212,68.5488,PKK,ZGS,Zito Khan Kalay,2505,Zarghunshahr,????? ???,Paktika,??????,25
1342,1343,Yale POP_MASTER,ZGS-066,,0,PKK-ZGS-066,242,Pashto,2,2144.9580079999996,32.9026,68.5018,PKK,ZGS,Shaikhan,2505,Zarghunshahr,????? ???,Paktika,??????,25
1343,1344,Yale POP_MASTER,ZGS-020,,0,PKK-ZGS-020,1329,Pashto,2,2100.076904,32.818000000000005,68.5585,PKK,ZGS,Baki Khail,2505,Zarghunshahr,????? ???,Paktika,??????,25
1344,1345,Yale POP_MASTER,ZGS-017,,0,PKK-ZGS-017,247,Pashto,2,2073.284912,32.8051,68.4925,PKK,ZGS,Amir Abad,2505,Zarghunshahr,????? ???,Paktika,??????,25
1345,1346,Yale POP_MASTER,ZGS-070,,0,PKK-ZGS-070,294,Pashto,2,2069.4609379999997,32.8023,68.4713,PKK,ZGS,Umar Khan Kala,2505,Zarghunshahr,????? ???,Paktika,??????,25
1346,1347,Yale POP_MASTER,ZGS-033,,0,PKK-ZGS-033,68,Pashto,2,2112.4528809999997,32.8551,68.4713,PKK,ZGS,Haji Pahlawan,2505,Zarghunshahr,????? ???,Paktika,??????,25
1347,1348,Yale POP_MASTER,ZGS-029,,0,PKK-ZGS-029,16,Pashto,2,2136.385986,32.8793,68.4682,PKK,ZGS,Guluma (mohammad Gul),2505,Zarghunshahr,????? ???,Paktika,??????,25
1370,1371,USAID AIDVillageView,TWO-001,,0,PKK-TWO-001,0,Pashto,2,2234.125977,32.0442,68.3135,PKK,TWO,Gholam Haydar Kala,2519,Turwo (Tarwe),????,Paktika,??????,25
1371,1372,USAID AIDVillageView,WZK-001,,0,PKK-WZK-001,0,Pashto,2,2271.895996,32.233000000000004,68.2426,PKK,WZK,Abdakay,2513,Wazakhah,???? ????,Paktika,??????,25
1372,1373,USAID AIDVillageView,WZK-002,,0,PKK-WZK-002,0,Pashto,2,2388.958984,32.0757,68.1117,PKK,WZK,Abdullah Kala,2513,Wazakhah,???? ????,Paktika,??????,25
1373,1374,USAID AIDVillageView,WZK-004,,0,PKK-WZK-004,0,Pashto,2,2236.815918,32.0271,68.1887,PKK,WZK,Badro,2513,Wazakhah,???? ????,Paktika,??????,25
1374,1375,USAID AIDVillageView,WZK-006,,0,PKK-WZK-006,0,Pashto,2,2195.315918,32.3822,68.385,PKK,WZK,Cettek,2513,Wazakhah,???? ????,Paktika,??????,25
18773,18774,Yale POP_MASTER,YKH-029,,0,PKK-YKH-029,31,Pashto,2,2570.374023,33.084,68.4681,PKK,YKH,Spinkay,2503,Yosufkhel,???? ???,Paktika,??????,25
19346,19347,Yale POP_MASTER,DLA-094,,0,PKK-DLA-094,78,Pashto,2,1986.9899899999998,32.7659,67.8751,PKK,DLA,Qala Khoshk,2518,Dila,????,Paktika,??????,25
19637,19638,Yale POP_MASTER,WZK-114,,0,PKK-WZK-114,284,Pashto,2,2187.795898,32.2734,68.1125,PKK,WZK,Patni,2513,Wazakhah,???? ????,Paktika,??????,25
19638,19639,Yale POP_MASTER,WZK-116,,0,PKK-WZK-116,578,Pashto,2,2236.49292,32.2514,68.117,PKK,WZK,Qubat Kalay,2513,Wazakhah,???? ????,Paktika,??????,25
19640,19641,Yale POP_MASTER,DLA-077,,0,PKK-DLA-077,113,Pashto,2,2073.001953,32.3708,68.1413,PKK,DLA,Mohammad Hashim,2518,Dila,????,Paktika,??????,25
19641,19642,USAID AIDVillageView,YKH-002,,0,PKK-YKH-002,0,Pashto,2,2177.695068,33.0584,68.726,PKK,YKH,Park,2503,Yosufkhel,???? ???,Paktika,??????,25
19642,19643,USAID AIDVillageView,YKH-003,,0,PKK-YKH-003,0,Pashto,2,2226.654053,33.0321,68.7754,PKK,YKH,Qal'a-i-kulet,2503,Yosufkhel,???? ???,Paktika,??????,25
19643,19644,Yale POP_MASTER,SRA-097,,0,PKK-SRA-097,135,Pashto,2,2606.211914,33.1155,68.5438,PKK,SRA,Nizamuddin Kalay,2501,Sharan,???,Paktika,??????,25
19644,19645,Yale POP_MASTER,SRA-101,,0,PKK-SRA-101,424,Pashto,2,2444.938965,33.1461,68.5816,PKK,SRA,Qaisar Kala,2501,Sharan,???,Paktika,??????,25
19645,19646,Yale POP_MASTER,SRA-108,,0,PKK-SRA-108,78,Pashto,2,2353.235107,33.1244,68.6732,PKK,SRA,Sakar Qala,2501,Sharan,???,Paktika,??????,25
19646,19647,Yale POP_MASTER,SRA-111,,0,PKK-SRA-111,746,Pashto,2,2470.625,33.1407,68.5718,PKK,SRA,Shah Mohammad Khail,2501,Sharan,???,Paktika,??????,25
19647,19648,Yale POP_MASTER,SRA-116,,0,PKK-SRA-116,271,Pashto,2,2376.76001,33.1417,68.6226,PKK,SRA,Sherabat,2501,Sharan,???,Paktika,??????,25
19648,19649,Yale POP_MASTER,YYK-027,,0,PKK-YYK-027,185,Pashto,2,2159.551025,33.0031,68.6699,PKK,YYK,Kashmir Khan Bamba,2506,Yahyakhel,??? ???,Paktika,??????,25
19649,19650,Yale POP_MASTER,YYK-040,,0,PKK-YYK-040,472,Pashto,2,2154.4528809999997,32.9955,68.6564,PKK,YYK,Naw Abad Mako Khan,2506,Yahyakhel,??? ???,Paktika,??????,25
19650,19651,Yale POP_MASTER,YYK-047,,0,PKK-YYK-047,420,Pashto,2,2165.704102,33.0057,68.7021,PKK,YYK,Salam Kalay,2506,Yahyakhel,??? ???,Paktika,??????,25
19651,19652,Yale POP_MASTER,YKH-008,,0,PKK-YKH-008,1992,Pashto,2,2163.531982,33.0182,68.6723,PKK,YKH,Barat Khil,2503,Yosufkhel,???? ???,Paktika,??????,25
19652,19653,Yale POP_MASTER,YKH-009,,0,PKK-YKH-009,1200,Pashto,2,2220.23999,33.0601,68.6606,PKK,YKH,Bo Khan Khail,2503,Yosufkhel,???? ???,Paktika,??????,25
19653,19654,Yale POP_MASTER,YKH-010,,0,PKK-YKH-010,2927,Pashto,2,2207.662109,33.0855,68.6948,PKK,YKH,Gori Khail,2503,Yosufkhel,???? ???,Paktika,??????,25
19654,19655,Yale POP_MASTER,YKH-011,,0,PKK-YKH-011,849,Pashto,2,2592.75,33.0837,68.4986,PKK,YKH,Jar Kana,2503,Yosufkhel,???? ???,Paktika,??????,25
19655,19656,Yale POP_MASTER,YKH-012,,0,PKK-YKH-012,414,Pashto,2,2191.009033,33.0567,68.68,PKK,YKH,Kata Bokhan Khail,2503,Yosufkhel,???? ???,Paktika,??????,25
19656,19657,Yale POP_MASTER,YKH-013,,0,PKK-YKH-013,412,Pashto,2,2454.4528809999997,33.0643,68.5037,PKK,YKH,Kata Jar Kana,2503,Yosufkhel,???? ???,Paktika,??????,25
19657,19658,Yale POP_MASTER,YKH-015,,0,PKK-YKH-015,530,Pashto,2,2181.2260739999997,33.0547,68.707,PKK,YKH,Landizay,2503,Yosufkhel,???? ???,Paktika,??????,25
19658,19659,Yale POP_MASTER,YKH-016,,0,PKK-YKH-016,1286,Pashto,2,2242.409912,33.0519,68.6461,PKK,YKH,Majbor Khail,2503,Yosufkhel,???? ???,Paktika,??????,25
19659,19660,Yale POP_MASTER,YKH-018,,0,PKK-YKH-018,0,Pashto,2,2210.040039,33.0648,68.6743,PKK,YKH,Markaz -i- Waluswally,2503,Yosufkhel,???? ???,Paktika,??????,25
19660,19661,Yale POP_MASTER,YKH-019,,0,PKK-YKH-019,1399,Pashto,2,2226.571045,33.0859,68.6837,PKK,YKH,Mir Dad Khail,2503,Yosufkhel,???? ???,Paktika,??????,25
19661,19662,Yale POP_MASTER,YKH-020,,0,PKK-YKH-020,69,Pashto,2,2322.020996,33.0876,68.6547,PKK,YKH,Mirza Khail,2503,Yosufkhel,???? ???,Paktika,??????,25
19662,19663,Yale POP_MASTER,YKH-023,,0,PKK-YKH-023,2134,Pashto,2,2207.677979,33.0793,68.6929,PKK,YKH,Muaf Khail,2503,Yosufkhel,???? ???,Paktika,??????,25
19663,19664,Yale POP_MASTER,YKH-024,,0,PKK-YKH-024,251,Pashto,2,2362.0979,33.0197,68.5702,PKK,YKH,Mullah Haki Khan,2503,Yosufkhel,???? ???,Paktika,??????,25
19664,19665,Yale POP_MASTER,YKH-025,,0,PKK-YKH-025,2931,Pashto,2,2243.4379879999997,33.080999999999996,68.6758,PKK,YKH,Mullah Khil,2503,Yosufkhel,???? ???,Paktika,??????,25
19665,19666,Yale POP_MASTER,YKH-026,,0,PKK-YKH-026,114,Pashto,2,2160.4021,33.0065,68.6425,PKK,YKH,Mullah Masaud Kalay,2503,Yosufkhel,???? ???,Paktika,??????,25
19666,19667,Yale POP_MASTER,YKH-027,,0,PKK-YKH-027,320,Pashto,2,2180.479004,33.0306,68.7378,PKK,YKH,Park Kalay,2503,Yosufkhel,???? ???,Paktika,??????,25
19667,19668,Yale POP_MASTER,YKH-030,,0,PKK-YKH-030,3253,Pashto,2,2226.508057,33.0483,68.6503,PKK,YKH,Yosuf Khail,2503,Yosufkhel,???? ???,Paktika,??????,25
19668,19669,Yale POP_MASTER,YKH-031,District,1,PKK-YKH-031,5345,Pashto,2,2236.0,33.0512,68.6495,PKK,YKH,Yosuf Khel,2503,Yosufkhel,???? ???,Paktika,??????,25
19669,19670,Yale POP_MASTER,YKH-004,,0,PKK-YKH-004,97,Pashto,2,2420.050049,33.0503,68.4886,PKK,YKH,Ahmadzay,2503,Yosufkhel,???? ???,Paktika,??????,25
19671,19672,Yale POP_MASTER,SRA-094,,0,PKK-SRA-094,726,Pashto,2,2159.3588870000003,33.1155,68.5438,PKK,SRA,Naway Sharan,2501,Sharan,???,Paktika,??????,25
19672,19673,Yale POP_MASTER,SRA-113,,0,PKK-SRA-113,202,Pashto,2,2132.053955,33.1417,68.6226,PKK,SRA,Shahabuddin,2501,Sharan,???,Paktika,??????,25
19673,19674,Yale POP_MASTER,SRA-098,,0,PKK-SRA-098,267,Pashto,2,2372.283936,33.1461,68.5816,PKK,SRA,Pad Shah,2501,Sharan,???,Paktika,??????,25
19674,19675,Yale POP_MASTER,YKH-006,,0,PKK-YKH-006,155,Pashto,2,2669.215088,33.1041,68.5289,PKK,YKH,Apsin Karaiz,2503,Yosufkhel,???? ???,Paktika,??????,25
19678,19679,Yale POP_MASTER,SRA-105,,0,PKK-SRA-105,206,Pashto,2,2136.820068,33.1244,68.6732,PKK,SRA,Qala-i-sher Ali,2501,Sharan,???,Paktika,??????,25
19679,19680,Yale POP_MASTER,YKH-007,,0,PKK-YKH-007,49,Pashto,2,2266.086914,33.1024,68.665,PKK,YKH,Aram Dara,2503,Yosufkhel,???? ???,Paktika,??????,25
19680,19681,Yale POP_MASTER,YKH-005,,0,PKK-YKH-005,161,Pashto,2,2173.345947,33.0278,68.7124,PKK,YKH,Amir Khan Jalal Khail Kalay,2503,Yosufkhel,???? ???,Paktika,??????,25
19681,19682,USAID AIDVillageView,OMN-003,,0,PKK-OMN-003,0,Pashto,2,2613.824951,32.8614,68.8391,PKK,OMN,Garwal,2507,Omna,?????,Paktika,??????,25
19682,19683,USAID AIDVillageView,OMN-005,,0,PKK-OMN-005,0,Pashto,2,2799.261963,32.8223,68.7708,PKK,OMN,Hosayn Kala,2507,Omna,?????,Paktika,??????,25
19683,19684,USAID AIDVillageView,OMN-008,,0,PKK-OMN-008,0,Pashto,2,2331.701904,32.8915,68.7403,PKK,OMN,Maspikay,2507,Omna,?????,Paktika,??????,25
19684,19685,USAID AIDVillageView,OMN-011,,0,PKK-OMN-011,0,Pashto,2,2759.200928,32.8316,68.7771,PKK,OMN,Reri Kala,2507,Omna,?????,Paktika,??????,25
19685,19686,CSO AIMS Villages (ACSOR),OMN-014,,0,PKK-OMN-014,93,Pashto,2,2872.768066,32.80336,68.83594000000001,PKK,OMN,Karo Wall Payin (land Karo Wall),2508,Gomal,????,Paktika,??????,25
19686,19687,USAID AIDVillageView,GOL-011,,0,PKK-GOL-011,0,Pashto,2,2309.551025,32.7909,68.9216,PKK,GOL,Janbaz Kota,2508,Gomal,????,Paktika,??????,25
19687,19688,CSO AIMS Villages (ACSOR),GOL-032,,0,PKK-GOL-032,579,Pashto,2,2350.131104,32.78065,68.90105,PKK,GOL,Dawud Khail,2508,Gomal,????,Paktika,??????,25
19688,19689,CSO AIMS Villages (ACSOR),GOL-036,,0,PKK-GOL-036,1235,Pashto,2,2383.399902,32.80332,68.91642,PKK,GOL,Uz Khail,2508,Gomal,????,Paktika,??????,25
19689,19690,USAID AIDVillageView,GOL-002,,0,PKK-GOL-002,0,Pashto,2,2672.479004,32.7618,68.7572,PKK,GOL,Aladad Kalay,2508,Gomal,????,Paktika,??????,25
19690,19691,USAID AIDVillageView,GOL-007,,0,PKK-GOL-007,0,Pashto,2,2660.434082,32.7266,68.7659,PKK,GOL,Dinmohammad Khune,2508,Gomal,????,Paktika,??????,25
19691,19692,USAID AIDVillageView,GOL-012,,0,PKK-GOL-012,0,Pashto,2,2798.375977,32.768,68.7786,PKK,GOL,Jangul Kala,2508,Gomal,????,Paktika,??????,25
19692,19693,USAID AIDVillageView,GOL-013,,0,PKK-GOL-013,0,Pashto,2,2616.051025,32.7632,68.7626,PKK,GOL,Janmohammad Kala,2508,Gomal,????,Paktika,??????,25
19693,19694,USAID AIDVillageView,GOL-014,,0,PKK-GOL-014,0,Pashto,2,2368.413086,32.7505,68.8555,PKK,GOL,Jomagi Khune,2508,Gomal,????,Paktika,??????,25
19694,19695,USAID AIDVillageView,GOL-019,,0,PKK-GOL-019,0,Pashto,2,2439.1879879999997,32.7167,68.7832,PKK,GOL,Mulla Mirzamohammad Kalay,2508,Gomal,????,Paktika,??????,25
19695,19696,USAID AIDVillageView,GOL-024,,0,PKK-GOL-024,0,Pashto,2,2227.322021,32.7165,68.8563,PKK,GOL,Runi Khune,2508,Gomal,????,Paktika,??????,25
19696,19697,USAID AIDVillageView,GOL-028,,0,PKK-GOL-028,0,Pashto,2,2404.5419920000004,32.7466,68.8192,PKK,GOL,Sotyano Khune,2508,Gomal,????,Paktika,??????,25
19697,19698,Yale POP_MASTER,OMN-015,,0,PKK-OMN-015,689,Pashto,2,2698.785889,32.848,68.7845,PKK,OMN,Abdul Rahman Wa Jan Mohammad(aidi Kala),2507,Omna,?????,Paktika,??????,25
19698,19699,Yale POP_MASTER,OMN-016,,0,PKK-OMN-016,305,Pashto,2,2525.802979,32.9445,68.8544,PKK,OMN,Addin Kalay (shirabuddin),2507,Omna,?????,Paktika,??????,25
19699,19700,Yale POP_MASTER,OMN-018,,0,PKK-OMN-018,171,Pashto,2,2786.6298829999996,32.8269,68.7783,PKK,OMN,Auto Wall,2507,Omna,?????,Paktika,??????,25
19700,19701,Yale POP_MASTER,OMN-019,,0,PKK-OMN-019,442,Pashto,2,2929.020996,32.8048,68.8493,PKK,OMN,Awal Mir,2507,Omna,?????,Paktika,??????,25
19701,19702,Yale POP_MASTER,OMN-020,,0,PKK-OMN-020,1037,Pashto,2,2747.131104,32.8195,68.8624,PKK,OMN,Bacho Khel Qarya Shamal,2507,Omna,?????,Paktika,??????,25
19702,19703,Yale POP_MASTER,OMN-021,,0,PKK-OMN-021,111,Pashto,2,2756.4060059999997,32.834,68.7797,PKK,OMN,Bahwuddin,2507,Omna,?????,Paktika,??????,25
19703,19704,Yale POP_MASTER,OMN-022,,0,PKK-OMN-022,472,Pashto,2,2537.0830079999996,32.8912,68.8356,PKK,OMN,Bakhsha Kalay Ali Zay(spinah Adda),2507,Omna,?????,Paktika,??????,25
19704,19705,Yale POP_MASTER,OMN-023,,0,PKK-OMN-023,1940,Pashto,2,2755.082031,32.8203,68.8686,PKK,OMN,Chagi Dangar Wall,2507,Omna,?????,Paktika,??????,25
19705,19706,Yale POP_MASTER,OMN-024,,0,PKK-OMN-024,228,Pashto,2,2774.22998,32.8127,68.8434,PKK,OMN,Changi,2507,Omna,?????,Paktika,??????,25
19706,19707,Yale POP_MASTER,OMN-025,,0,PKK-OMN-025,33,Pashto,2,2639.677002,32.8655,68.8054,PKK,OMN,Diwall Gay,2507,Omna,?????,Paktika,??????,25
19707,19708,Yale POP_MASTER,OMN-026,,0,PKK-OMN-026,598,Pashto,2,2856.659912,32.82,68.7787,PKK,OMN,Firoz Khan,2507,Omna,?????,Paktika,??????,25
19708,19709,Yale POP_MASTER,OMN-027,,0,PKK-OMN-027,294,Pashto,2,2313.028076,32.9258,68.7652,PKK,OMN,Ginawa,2507,Omna,?????,Paktika,??????,25
19709,19710,Yale POP_MASTER,OMN-028,,0,PKK-OMN-028,127,Pashto,2,2415.228027,32.9377,68.7827,PKK,OMN,Ginawa Mohamad Rasol (ginawa),2507,Omna,?????,Paktika,??????,25
19710,19711,Yale POP_MASTER,OMN-030,,0,PKK-OMN-030,779,Pashto,2,2735.587891,32.8267,68.8341,PKK,OMN,Karo Wall,2507,Omna,?????,Paktika,??????,25
19711,19712,Yale POP_MASTER,OMN-031,,0,PKK-OMN-031,521,Pashto,2,2492.843018,32.9219,68.8416,PKK,OMN,Khadal,2507,Omna,?????,Paktika,??????,25
19712,19713,Yale POP_MASTER,OMN-032,,0,PKK-OMN-032,54,Pashto,2,2502.719971,32.7574,68.6872,PKK,OMN,Khalifa Sahib,2507,Omna,?????,Paktika,??????,25
19713,19714,Yale POP_MASTER,OMN-033,,0,PKK-OMN-033,112,Pashto,2,2880.7028809999997,32.7998,68.7431,PKK,OMN,Kharwaz (sharki),2507,Omna,?????,Paktika,??????,25
19714,19715,Yale POP_MASTER,OMN-034,,0,PKK-OMN-034,535,Pashto,2,2850.5471190000003,32.809,68.7686,PKK,OMN,Khoday Rahim Wall (sharki),2507,Omna,?????,Paktika,??????,25
19715,19716,Yale POP_MASTER,OMN-036,,0,PKK-OMN-036,372,Pashto,2,2416.087891,32.9615,68.8819,PKK,OMN,Landa Kay,2507,Omna,?????,Paktika,??????,25
19716,19717,Yale POP_MASTER,OMN-037,,0,PKK-OMN-037,264,Pashto,2,2645.072021,32.8602,68.8302,PKK,OMN,Loqman Khail,2507,Omna,?????,Paktika,??????,25
19717,19718,Yale POP_MASTER,OMN-038,,0,PKK-OMN-038,439,Pashto,2,2556.62793,32.9074,68.8147,PKK,OMN,Mir Agfzal (shirabuddin),2507,Omna,?????,Paktika,??????,25
19718,19719,Yale POP_MASTER,OMN-040,,0,PKK-OMN-040,165,Pashto,2,2633.875,32.8821,68.7874,PKK,OMN,Mirak Wall,2507,Omna,?????,Paktika,??????,25
19719,19720,Yale POP_MASTER,OMN-041,,0,PKK-OMN-041,509,Pashto,2,2321.604004,32.9741,68.7914,PKK,OMN,Munir Ahmad ( Zawakah),2507,Omna,?????,Paktika,??????,25
19720,19721,Yale POP_MASTER,OMN-042,,0,PKK-OMN-042,28,Pashto,2,2612.8911129999997,32.8994,68.7921,PKK,OMN,Omna (ahmad Wall),2507,Omna,?????,Paktika,??????,25
19721,19722,Yale POP_MASTER,OMN-043,,0,PKK-OMN-043,619,Pashto,2,2821.033936,32.8203,68.7682,PKK,OMN,Payandah Kalay,2507,Omna,?????,Paktika,??????,25
19722,19723,Yale POP_MASTER,OMN-044,,0,PKK-OMN-044,844,Pashto,2,2741.7189940000003,32.8424,68.775,PKK,OMN,Qarar Wall,2507,Omna,?????,Paktika,??????,25
19723,19724,Yale POP_MASTER,OMN-045,,0,PKK-OMN-045,425,Pashto,2,2598.396973,32.8512,68.8513,PKK,OMN,Qarya Mansor,2507,Omna,?????,Paktika,??????,25
19724,19725,Yale POP_MASTER,OMN-046,,0,PKK-OMN-046,344,Pashto,2,2519.881104,32.8908,68.8564,PKK,OMN,Qarya Naimi,2507,Omna,?????,Paktika,??????,25
19725,19726,Yale POP_MASTER,OMN-048,,0,PKK-OMN-048,770,Pashto,2,2604.25,32.8908,68.7962,PKK,OMN,Sahadat Wall,2507,Omna,?????,Paktika,??????,25
19726,19727,Yale POP_MASTER,OMN-049,,0,PKK-OMN-049,519,Pashto,2,2584.889893,32.8777,68.8146,PKK,OMN,Sayyid Khail,2507,Omna,?????,Paktika,??????,25
19727,19728,Yale POP_MASTER,OMN-050,,0,PKK-OMN-050,75,Pashto,2,2805.388916,32.8162,68.7721,PKK,OMN,Sayyid Mohammad Kalay,2507,Omna,?????,Paktika,??????,25
19728,19729,Yale POP_MASTER,OMN-051,,0,PKK-OMN-051,5016,Pashto,2,2475.64502,32.912,68.8704,PKK,OMN,Spina,2507,Omna,?????,Paktika,??????,25
19729,19730,Yale POP_MASTER,OMN-052,,0,PKK-OMN-052,420,Pashto,2,2462.353027,32.9253,68.8666,PKK,OMN,Sra Khulah Mohammad Abad,2507,Omna,?????,Paktika,??????,25
19730,19731,Yale POP_MASTER,OMN-053,,0,PKK-OMN-053,32,Pashto,2,2369.792969,32.8102,68.6967,PKK,OMN,Toot China,2507,Omna,?????,Paktika,??????,25
19731,19732,Yale POP_MASTER,OMN-054,,0,PKK-OMN-054,1076,Pashto,2,2627.010986,32.8752,68.7914,PKK,OMN,Waroki,2507,Omna,?????,Paktika,??????,25
19732,19733,Yale POP_MASTER,OMN-055,,0,PKK-OMN-055,1756,Pashto,2,2451.739014,32.9679,68.8083,PKK,OMN,Zawaka,2507,Omna,?????,Paktika,??????,25
19733,19734,Yale POP_MASTER,OMN-056,,0,PKK-OMN-056,163,Pashto,2,2593.044922,32.8655,68.8649,PKK,OMN,Zawari Kalay,2507,Omna,?????,Paktika,??????,25
19734,19735,Yale POP_MASTER,OMN-057,District,1,PKK-OMN-057,2414,Pashto,2,2600.5471190000003,32.9012,68.7957,PKK,OMN,Omna,2507,Omna,?????,Paktika,??????,25
19735,19736,Yale POP_MASTER,GOL-125,,0,PKK-GOL-125,308,Pashto,2,2405.4760739999997,32.8135,68.9245,PKK,GOL,Ubashti (mir Afghan),2508,Gomal,????,Paktika,??????,25
19736,19737,Yale POP_MASTER,GOL-038,,0,PKK-GOL-038,131,Pashto,2,2219.054932,32.7644,68.908,PKK,GOL,Abdul Kalay (mohammad Jan Khuni),2508,Gomal,????,Paktika,??????,25
19737,19738,Yale POP_MASTER,GOL-055,,0,PKK-GOL-055,591,Pashto,2,2601.190918,32.875,68.9303,PKK,GOL,China,2508,Gomal,????,Paktika,??????,25
19738,19739,Yale POP_MASTER,GOL-059,,0,PKK-GOL-059,362,Pashto,2,2406.643066,32.7725,68.8808,PKK,GOL,Dino Khail (janjali Kalay),2508,Gomal,????,Paktika,??????,25
19739,19740,Yale POP_MASTER,GOL-112,,0,PKK-GOL-112,827,Pashto,2,2190.2729489999997,32.7456,68.9016,PKK,GOL,Sayyid Khail (2),2508,Gomal,????,Paktika,??????,25
19740,19741,Yale POP_MASTER,JK1-044,,0,PKK-JK1-044,957,Pashto,2,2617.0310059999997,32.7156,68.71,PKK,JK1,Guli Khail,2512,Janikhel,???? ???,Paktika,??????,25
19741,19742,Yale POP_MASTER,GOL-127,,0,PKK-GOL-127,413,Pashto,2,2284.206055,32.7506,68.8773,PKK,GOL,Uzhi Dabar Kalay,2508,Gomal,????,Paktika,??????,25
19742,19743,Yale POP_MASTER,GOL-039,,0,PKK-GOL-039,225,Pashto,2,2597.974121,32.6979,68.7547,PKK,GOL,Ali Band (mitar Kot),2508,Gomal,????,Paktika,??????,25
19743,19744,Yale POP_MASTER,GOL-044,,0,PKK-GOL-044,651,Pashto,2,2707.184082,32.749,68.8043,PKK,GOL,Amir Khan (haji Halam Khan),2508,Gomal,????,Paktika,??????,25
19744,19745,Yale POP_MASTER,GOL-046,,0,PKK-GOL-046,119,Pashto,2,2634.248047,32.7395,68.7592,PKK,GOL,Azad Khan (islam Khail),2508,Gomal,????,Paktika,??????,25
19745,19746,Yale POP_MASTER,GOL-048,,0,PKK-GOL-048,354,Pashto,2,2580.721924,32.7559,68.7673,PKK,GOL,Azim Khan,2508,Gomal,????,Paktika,??????,25
19746,19747,Yale POP_MASTER,GOL-056,,0,PKK-GOL-056,205,Pashto,2,2479.304932,32.7614,68.8123,PKK,GOL,Dad Khan Kalay (zora),2508,Gomal,????,Paktika,??????,25
19747,19748,Yale POP_MASTER,GOL-063,,0,PKK-GOL-063,51,Pashto,2,2423.611084,32.7598,68.8184,PKK,GOL,Faqiran,2508,Gomal,????,Paktika,??????,25
19748,19749,Yale POP_MASTER,GOL-066,,0,PKK-GOL-066,618,Pashto,2,2542.209961,32.7342,68.8202,PKK,GOL,Haibati (juma Gul),2508,Gomal,????,Paktika,??????,25
19749,19750,Yale POP_MASTER,GOL-070,,0,PKK-GOL-070,24,Pashto,2,2692.554932,32.7496,68.801,PKK,GOL,Jalad (islam Khail),2508,Gomal,????,Paktika,??????,25
19750,19751,Yale POP_MASTER,GOL-075,,0,PKK-GOL-075,486,Pashto,2,2625.104004,32.7717,68.7939,PKK,GOL,Kar Khana,2508,Gomal,????,Paktika,??????,25
19751,19752,Yale POP_MASTER,GOL-077,,0,PKK-GOL-077,93,Pashto,2,2872.768066,32.8034,68.8359,PKK,GOL,Karo Wall Payin (land Karo Wall),2508,Gomal,????,Paktika,??????,25
19752,19753,Yale POP_MASTER,GOL-090,,0,PKK-GOL-090,158,Pashto,2,2979.451904,32.7583,68.7415,PKK,GOL,Mani (guli ),2508,Gomal,????,Paktika,??????,25
19753,19754,Yale POP_MASTER,GOL-096,,0,PKK-GOL-096,143,Pashto,2,2506.412109,32.7308,68.7847,PKK,GOL,Mohammad Gul,2508,Gomal,????,Paktika,??????,25
19754,19755,Yale POP_MASTER,GOL-099,,0,PKK-GOL-099,224,Pashto,2,2539.675049,32.7431,68.7682,PKK,GOL,Murad Khan (islam Kail),2508,Gomal,????,Paktika,??????,25
19755,19756,Yale POP_MASTER,GOL-104,,0,PKK-GOL-104,76,Pashto,2,2554.166016,32.7787,68.8625,PKK,GOL,Pir Mohammad Kalayl (diwana Khail),2508,Gomal,????,Paktika,??????,25
19756,19757,Yale POP_MASTER,GOL-110,,0,PKK-GOL-110,189,Pashto,2,2586.262939,32.7319,68.7774,PKK,GOL,Sayyid Gul,2508,Gomal,????,Paktika,??????,25
19757,19758,USAID AIDVillageView,OMN-002,,0,PKK-OMN-002,0,Pashto,2,2325.478027,32.801,68.684,PKK,OMN,De Tut Kote,2507,Omna,?????,Paktika,??????,25
19758,19759,USAID AIDVillageView,OMN-007,,0,PKK-OMN-007,0,Pashto,2,2274.925049,32.7969,68.668,PKK,OMN,Kolali Kote,2507,Omna,?????,Paktika,??????,25
19759,19760,USAID AIDVillageView,ZGS-007,,0,PKK-ZGS-007,0,Pashto,2,2272.580078,32.7539,68.639,PKK,ZGS,Dino Kote,2505,Zarghunshahr,????? ???,Paktika,??????,25
19760,19761,USAID AIDVillageView,ZGS-005,,0,PKK-ZGS-005,0,Pashto,2,2241.912109,32.7597,68.6297,PKK,ZGS,Aziz Kota,2505,Zarghunshahr,????? ???,Paktika,??????,25
19761,19762,USAID AIDVillageView,YYK-001,,0,PKK-YYK-001,0,Pashto,2,2152.7810059999997,32.8969,68.6595,PKK,YYK,Amir Mohammad Kor,2506,Yahyakhel,??? ???,Paktika,??????,25
19762,19763,USAID AIDVillageView,YYK-002,,0,PKK-YYK-002,0,Pashto,2,2131.604004,32.9516,68.6059,PKK,YYK,Nazar Mohammad Kala,2506,Yahyakhel,??? ???,Paktika,??????,25
19763,19764,USAID AIDVillageView,YYK-004,,0,PKK-YYK-004,0,Pashto,2,2128.573975,32.9343,68.6243,PKK,YYK,Yahyakhel,2506,Yahyakhel,??? ???,Paktika,??????,25
19764,19765,USAID AIDVillageView,ZGS-004,,0,PKK-ZGS-004,0,Pashto,2,2105.415039,32.8524,68.5725,PKK,ZGS,Azfar Kala,2505,Zarghunshahr,????? ???,Paktika,??????,25
19765,19766,USAID AIDVillageView,JK1-001,,0,PKK-JK1-001,0,Pashto,2,2322.749023,32.6885,68.6394,PKK,JK1,Ade Kota,2512,Janikhel,???? ???,Paktika,??????,25
19766,19767,Yale POP_MASTER,OMN-017,,0,PKK-OMN-017,1526,Pashto,2,2321.125977,32.8394,68.7025,PKK,OMN,Ata Khona,2507,Omna,?????,Paktika,??????,25
19767,19768,Yale POP_MASTER,OMN-029,,0,PKK-OMN-029,439,Pashto,2,2289.256104,32.8293,68.693,PKK,OMN,Kakai Baskhati,2507,Omna,?????,Paktika,??????,25
19768,19769,Yale POP_MASTER,OMN-035,,0,PKK-OMN-035,145,Pashto,2,2293.883057,32.8444,68.6991,PKK,OMN,Kolyan,2507,Omna,?????,Paktika,??????,25
19769,19770,Yale POP_MASTER,OMN-039,,0,PKK-OMN-039,0,Pashto,2,2353.416016,32.784,68.6771,PKK,OMN,Mira Jan Kut,2507,Omna,?????,Paktika,??????,25
19770,19771,Yale POP_MASTER,YYK-005,,0,PKK-YYK-005,258,Pashto,2,2107.590088,32.8626,68.5788,PKK,YYK,Abdullah,2506,Yahyakhel,??? ???,Paktika,??????,25
19771,19772,Yale POP_MASTER,YYK-006,,0,PKK-YYK-006,322,Pashto,2,2138.9689940000003,32.9577,68.6443,PKK,YYK,Adam Wal,2506,Yahyakhel,??? ???,Paktika,??????,25
19772,19773,Yale POP_MASTER,YYK-007,,0,PKK-YYK-007,134,Pashto,2,2147.433105,32.9714,68.6592,PKK,YYK,Afzal Kala,2506,Yahyakhel,??? ???,Paktika,??????,25
19773,19774,Yale POP_MASTER,YYK-008,,0,PKK-YYK-008,129,Pashto,2,2152.079102,32.9698,68.6772,PKK,YYK,Ahmadzay,2506,Yahyakhel,??? ???,Paktika,??????,25
19774,19775,Yale POP_MASTER,YYK-009,,0,PKK-YYK-009,193,Pashto,2,2114.1411129999997,32.8979,68.5912,PKK,YYK,Allah Yar,2506,Yahyakhel,??? ???,Paktika,??????,25
19775,19776,Yale POP_MASTER,YYK-010,,0,PKK-YYK-010,392,Pashto,2,2122.791016,32.9195,68.6171,PKK,YYK,Atlan,2506,Yahyakhel,??? ???,Paktika,??????,25
19776,19777,Yale POP_MASTER,YYK-011,,0,PKK-YYK-011,29,Pashto,2,2139.634033,32.9623,68.6384,PKK,YYK,Balo Godali,2506,Yahyakhel,??? ???,Paktika,??????,25
19777,19778,Yale POP_MASTER,YYK-012,,0,PKK-YYK-012,276,Pashto,2,2129.0471190000003,32.9363,68.6196,PKK,YYK,Dost Mohammad Kalay,2506,Yahyakhel,??? ???,Paktika,??????,25
19778,19779,Yale POP_MASTER,YYK-013,,0,PKK-YYK-013,237,Pashto,2,2115.832031,32.9016,68.5951,PKK,YYK,Gharbi Warakay,2506,Yahyakhel,??? ???,Paktika,??????,25
19779,19780,Yale POP_MASTER,YYK-014,,0,PKK-YYK-014,190,Pashto,2,2149.337891,32.9827,68.6576,PKK,YYK,Ghaza Kalay,2506,Yahyakhel,??? ???,Paktika,??????,25
19780,19781,Yale POP_MASTER,YYK-015,,0,PKK-YYK-015,1502,Pashto,2,2136.049072,32.9637,68.6303,PKK,YYK,Ghibi Godli,2506,Yahyakhel,??? ???,Paktika,??????,25
19781,19782,Yale POP_MASTER,YYK-016,,0,PKK-YYK-016,3868,Pashto,2,2132.959961,32.9529,68.6255,PKK,YYK,Ghibi Khail,2506,Yahyakhel,??? ???,Paktika,??????,25
19782,19783,Yale POP_MASTER,YYK-017,,0,PKK-YYK-017,87,Pashto,2,2158.4221190000003,32.9837,68.6905,PKK,YYK,Gulab Kala,2506,Yahyakhel,??? ???,Paktika,??????,25
19783,19784,Yale POP_MASTER,YYK-018,,0,PKK-YYK-018,253,Pashto,2,2140.8439940000003,32.9469,68.6633,PKK,YYK,Haji Alam Kala,2506,Yahyakhel,??? ???,Paktika,??????,25
19784,19785,Yale POP_MASTER,YYK-019,,0,PKK-YYK-019,342,Pashto,2,2106.177979,32.856,68.5739,PKK,YYK,Haji Asghar,2506,Yahyakhel,??? ???,Paktika,??????,25
19785,19786,Yale POP_MASTER,YYK-020,,0,PKK-YYK-020,313,Pashto,2,2137.833984,32.9327,68.6565,PKK,YYK,Hajiyan,2506,Yahyakhel,??? ???,Paktika,??????,25
19786,19787,Yale POP_MASTER,YYK-021,,0,PKK-YYK-021,84,Pashto,2,2179.079102,32.9852,68.7162,PKK,YYK,Hakim Kala,2506,Yahyakhel,??? ???,Paktika,??????,25
19787,19788,Yale POP_MASTER,YYK-022,,0,PKK-YYK-022,2146,Pashto,2,2123.793945,32.8967,68.6152,PKK,YYK,Junubi Nakam Mata Khail,2506,Yahyakhel,??? ???,Paktika,??????,25
19788,19789,Yale POP_MASTER,YYK-023,,0,PKK-YYK-023,291,Pashto,2,2112.985107,32.8996,68.5781,PKK,YYK,Junubi Zangi,2506,Yahyakhel,??? ???,Paktika,??????,25
19789,19790,Yale POP_MASTER,YYK-024,,0,PKK-YYK-024,597,Pashto,2,2135.6020510000003,32.9512,68.6363,PKK,YYK,Kala Tar,2506,Yahyakhel,??? ???,Paktika,??????,25
19790,19791,Yale POP_MASTER,YYK-025,,0,PKK-YYK-025,960,Pashto,2,2154.197998,32.9857,68.6722,PKK,YYK,Karabuddin,2506,Yahyakhel,??? ???,Paktika,??????,25
19791,19792,Yale POP_MASTER,YYK-026,,0,PKK-YYK-026,22,Pashto,2,2110.258057,32.8849,68.578,PKK,YYK,Kashmir,2506,Yahyakhel,??? ???,Paktika,??????,25
19792,19793,Yale POP_MASTER,YYK-028,,0,PKK-YYK-028,783,Pashto,2,2122.698975,32.899,68.6087,PKK,YYK,Khowja Khail,2506,Yahyakhel,??? ???,Paktika,??????,25
19793,19794,Yale POP_MASTER,YYK-029,,0,PKK-YYK-029,534,Pashto,2,2121.75293,32.919000000000004,68.6104,PKK,YYK,Koliyan,2506,Yahyakhel,??? ???,Paktika,??????,25
19794,19795,Yale POP_MASTER,YYK-030,,0,PKK-YYK-030,774,Pashto,2,2139.427979,32.9708,68.633,PKK,YYK,Manju Guldali,2506,Yahyakhel,??? ???,Paktika,??????,25
19795,19796,Yale POP_MASTER,YYK-031,,0,PKK-YYK-031,389,Pashto,2,2129.61499,32.9287,68.6407,PKK,YYK,Manjyan,2506,Yahyakhel,??? ???,Paktika,??????,25
19796,19797,Yale POP_MASTER,YYK-032,,0,PKK-YYK-032,184,Pashto,2,2112.330078,32.8989,68.5979,PKK,YYK,Marawat Khail,2506,Yahyakhel,??? ???,Paktika,??????,25
19797,19798,Yale POP_MASTER,YYK-033,,0,PKK-YYK-033,680,Pashto,2,2129.961914,32.936,68.6349,PKK,YYK,Markaz-i-waluswally,2506,Yahyakhel,??? ???,Paktika,??????,25
19798,19799,Yale POP_MASTER,YYK-034,,0,PKK-YYK-034,375,Pashto,2,2141.72998,32.9539,68.6551,PKK,YYK,Marzigan,2506,Yahyakhel,??? ???,Paktika,??????,25
19799,19800,Yale POP_MASTER,YYK-035,,0,PKK-YYK-035,976,Pashto,2,2142.730957,32.9622,68.6551,PKK,YYK,Mihtar Gay,2506,Yahyakhel,??? ???,Paktika,??????,25
19800,19801,Yale POP_MASTER,YYK-036,,0,PKK-YYK-036,524,Pashto,2,2137.770996,32.9441,68.6506,PKK,YYK,Muchan,2506,Yahyakhel,??? ???,Paktika,??????,25
19801,19802,Yale POP_MASTER,YYK-037,,0,PKK-YYK-037,1557,Pashto,2,2130.679932,32.9165,68.6348,PKK,YYK,Mughul Khail,2506,Yahyakhel,??? ???,Paktika,??????,25
19802,19803,Yale POP_MASTER,YYK-038,,0,PKK-YYK-038,228,Pashto,2,2107.1411129999997,32.8777,68.5757,PKK,YYK,Mukhtar,2506,Yahyakhel,??? ???,Paktika,??????,25
19803,19804,Yale POP_MASTER,YYK-039,,0,PKK-YYK-039,660,Pashto,2,2143.48291,32.9585,68.6635,PKK,YYK,Mullah Bagh,2506,Yahyakhel,??? ???,Paktika,??????,25
19804,19805,Yale POP_MASTER,YYK-041,,0,PKK-YYK-041,193,Pashto,2,2100.991943,32.8694,68.5673,PKK,YYK,Nawi Khalta,2506,Yahyakhel,??? ???,Paktika,??????,25
19805,19806,Yale POP_MASTER,YYK-042,,0,PKK-YYK-042,286,Pashto,2,2148.907959,32.9489,68.6756,PKK,YYK,Noor Mohammad Kalay,2506,Yahyakhel,??? ???,Paktika,??????,25
19806,19807,Yale POP_MASTER,YYK-043,,0,PKK-YYK-043,1530,Pashto,2,2134.1411129999997,32.9606,68.6256,PKK,YYK,Paraow,2506,Yahyakhel,??? ???,Paktika,??????,25
19807,19808,Yale POP_MASTER,YYK-044,,0,PKK-YYK-044,114,Pashto,2,2117.87207,32.8696,68.5992,PKK,YYK,Payo,2506,Yahyakhel,??? ???,Paktika,??????,25
19808,19809,Yale POP_MASTER,YYK-045,,0,PKK-YYK-045,163,Pashto,2,2149.572998,32.9895,68.6247,PKK,YYK,Posht Allah Akbar,2506,Yahyakhel,??? ???,Paktika,??????,25
19809,19810,Yale POP_MASTER,YYK-046,,0,PKK-YYK-046,47,Pashto,2,2121.793945,32.9102,68.5832,PKK,YYK,Qasim Kala,2506,Yahyakhel,??? ???,Paktika,??????,25
19810,19811,Yale POP_MASTER,YYK-048,,0,PKK-YYK-048,1075,Pashto,2,2165.572021,32.9571,68.5634,PKK,YYK,Sara Karaiz,2506,Yahyakhel,??? ???,Paktika,??????,25
19811,19812,Yale POP_MASTER,YYK-049,,0,PKK-YYK-049,229,Pashto,2,2131.0778809999997,32.9262,68.5742,PKK,YYK,Shagay Kala,2506,Yahyakhel,??? ???,Paktika,??????,25
19812,19813,Yale POP_MASTER,YYK-050,,0,PKK-YYK-050,2261,Pashto,2,2139.180908,32.9647,68.6343,PKK,YYK,Shamal Zay,2506,Yahyakhel,??? ???,Paktika,??????,25
19813,19814,Yale POP_MASTER,YYK-051,,0,PKK-YYK-051,909,Pashto,2,2131.8989260000003,32.9433,68.6324,PKK,YYK,Shamali Nakam,2506,Yahyakhel,??? ???,Paktika,??????,25
19814,19815,Yale POP_MASTER,YYK-052,,0,PKK-YYK-052,838,Pashto,2,2130.674072,32.9204,68.6377,PKK,YYK,Sharqi Warakay Jangali,2506,Yahyakhel,??? ???,Paktika,??????,25
19815,19816,Yale POP_MASTER,YYK-053,,0,PKK-YYK-053,106,Pashto,2,2158.491943,32.9719,68.6851,PKK,YYK,Shin Kala,2506,Yahyakhel,??? ???,Paktika,??????,25
19816,19817,Yale POP_MASTER,YYK-054,,0,PKK-YYK-054,162,Pashto,2,2109.229004,32.8926,68.5811,PKK,YYK,Tila Kala,2506,Yahyakhel,??? ???,Paktika,??????,25
19817,19818,Yale POP_MASTER,YYK-055,,0,PKK-YYK-055,169,Pashto,2,2151.697021,32.9741,68.6744,PKK,YYK,Usman Ghani Godli,2506,Yahyakhel,??? ???,Paktika,??????,25
19818,19819,Yale POP_MASTER,YYK-057,,0,PKK-YYK-057,1388,Pashto,2,2161.951904,32.968,68.5791,PKK,YYK,Zanki,2506,Yahyakhel,??? ???,Paktika,??????,25
19819,19820,Yale POP_MASTER,YYK-058,District,1,PKK-YYK-058,208,Pashto,2,2135.2890629999997,32.9361,68.6491,PKK,YYK,Yahya Khel,2506,Yahyakhel,??? ???,Paktika,??????,25
19820,19821,Yale POP_MASTER,YKH-014,,0,PKK-YKH-014,106,Pashto,2,2202.084961,32.9794,68.5703,PKK,YKH,Khazan,2503,Yosufkhel,???? ???,Paktika,??????,25
19821,19822,Yale POP_MASTER,YKH-017,,0,PKK-YKH-017,1135,Pashto,2,2183.566895,32.9698,68.5664,PKK,YKH,Malakh,2503,Yosufkhel,???? ???,Paktika,??????,25
19822,19823,Yale POP_MASTER,YKH-021,,0,PKK-YKH-021,3633,Pashto,2,2189.86792,32.965,68.5562,PKK,YKH,Misat,2503,Yosufkhel,???? ???,Paktika,??????,25
19823,19824,Yale POP_MASTER,YKH-022,,0,PKK-YKH-022,2301,Pashto,2,2232.7890629999997,32.9664,68.5314,PKK,YKH,Misat Sahib Khail,2503,Yosufkhel,???? ???,Paktika,??????,25
19824,19825,Yale POP_MASTER,ZGS-037,,0,PKK-ZGS-037,327,Pashto,2,2110.366943,32.841,68.5783,PKK,ZGS,Jandad,2505,Zarghunshahr,????? ???,Paktika,??????,25
19825,19826,Yale POP_MASTER,ZGS-055,,0,PKK-ZGS-055,21,Pashto,2,2224.693115,32.7476,68.6209,PKK,ZGS,Nazar Khail,2505,Zarghunshahr,????? ???,Paktika,??????,25
19826,19827,USAID AIDVillageView,ZGS-002,,0,PKK-ZGS-002,0,Pashto,2,2150.253906,32.8958,68.4916,PKK,ZGS,Amar Khan Kala(umar Khan Kala),2505,Zarghunshahr,????? ???,Paktika,??????,25
19827,19828,USAID AIDVillageView,ZGS-011,,0,PKK-ZGS-011,0,Pashto,2,2098.893066,32.8655,68.5138,PKK,ZGS,Shabur Kala,2505,Zarghunshahr,????? ???,Paktika,??????,25
19828,19829,USAID AIDVillageView,ZGS-001,,0,PKK-ZGS-001,0,Pashto,2,2093.363037,32.8571,68.5287,PKK,ZGS,Abdullahkhan Kalay,2505,Zarghunshahr,????? ???,Paktika,??????,25
19829,19830,USAID AIDVillageView,ZGS-008,,0,PKK-ZGS-008,0,Pashto,2,2171.780029,32.9391,68.5217,PKK,ZGS,Hosayn Kor,2505,Zarghunshahr,????? ???,Paktika,??????,25
19830,19831,USAID AIDVillageView,ZGS-012,,0,PKK-ZGS-012,0,Pashto,2,2109.7661129999997,32.7846,68.5563,PKK,ZGS,Suf Kalay,2505,Zarghunshahr,????? ???,Paktika,??????,25
19831,19832,USAID AIDVillageView,ZGS-009,,0,PKK-ZGS-009,0,Pashto,2,2148.825928,32.8869,68.476,PKK,ZGS,Nazir Kala,2505,Zarghunshahr,????? ???,Paktika,??????,25
19832,19833,Yale POP_MASTER,ZGS-048,,0,PKK-ZGS-048,232,Pashto,2,2102.63208,32.8692,68.509,PKK,ZGS,Malang Kalay,2505,Zarghunshahr,????? ???,Paktika,??????,25
19833,19834,Yale POP_MASTER,ZGS-062,,0,PKK-ZGS-062,675,Pashto,2,2091.079102,32.827,68.541,PKK,ZGS,Sayyid Haidar Kalay,2505,Zarghunshahr,????? ???,Paktika,??????,25
19834,19835,Yale POP_MASTER,ZGS-061,,0,PKK-ZGS-061,854,Pashto,2,2166.873047,32.9191,68.5044,PKK,ZGS,Satak (sah Gana),2505,Zarghunshahr,????? ???,Paktika,??????,25
19835,19836,Yale POP_MASTER,ZGS-027,,0,PKK-ZGS-027,423,Pashto,2,2099.099121,32.8274,68.5587,PKK,ZGS,Din Padshah,2505,Zarghunshahr,????? ???,Paktika,??????,25
19836,19837,Yale POP_MASTER,ZGS-065,,0,PKK-ZGS-065,145,Pashto,2,2184.909912,32.9101,68.4876,PKK,ZGS,Shaikh Abad,2505,Zarghunshahr,????? ???,Paktika,??????,25
19837,19838,Yale POP_MASTER,ZGS-032,,0,PKK-ZGS-032,319,Pashto,2,2097.159912,32.8325,68.5565,PKK,ZGS,Haji Khan Kalay,2505,Zarghunshahr,????? ???,Paktika,??????,25
19838,19839,Yale POP_MASTER,ZGS-018,,0,PKK-ZGS-018,1851,Pashto,2,2091.540039,32.818000000000005,68.5444,PKK,ZGS,Ana Khail,2505,Zarghunshahr,????? ???,Paktika,??????,25
19839,19840,Yale POP_MASTER,ZGS-042,,0,PKK-ZGS-042,63,Pashto,2,2096.045898,32.8463,68.5558,PKK,ZGS,Kari Kalay,2505,Zarghunshahr,????? ???,Paktika,??????,25
19840,19841,Yale POP_MASTER,ZGS-060,,0,PKK-ZGS-060,256,Pashto,2,2135.8520510000003,32.8963,68.4995,PKK,ZGS,Saifuddin Kala,2505,Zarghunshahr,????? ???,Paktika,??????,25
19841,19842,Yale POP_MASTER,ZGS-030,,0,PKK-ZGS-030,612,Pashto,2,2102.934082,32.8423,68.5612,PKK,ZGS,Haji Haidar Kalay,2505,Zarghunshahr,????? ???,Paktika,??????,25
19842,19843,Yale POP_MASTER,ZGS-067,,0,PKK-ZGS-067,593,Pashto,2,2134.48999,32.905,68.5154,PKK,ZGS,Shirin Kala,2505,Zarghunshahr,????? ???,Paktika,??????,25
19843,19844,Yale POP_MASTER,ZGS-035,,0,PKK-ZGS-035,813,Pashto,2,2100.793945,32.819,68.5583,PKK,ZGS,Ibrahim Abad,2505,Zarghunshahr,????? ???,Paktika,??????,25
19844,19845,Yale POP_MASTER,ZGS-025,,0,PKK-ZGS-025,823,Pashto,2,2094.681885,32.8583,68.5324,PKK,ZGS,Bos Khail,2505,Zarghunshahr,????? ???,Paktika,??????,25
19845,19846,Yale POP_MASTER,ZGS-015,,0,PKK-ZGS-015,344,Pashto,2,2098.623047,32.8264,68.5561,PKK,ZGS,Adin Shah Barat,2505,Zarghunshahr,????? ???,Paktika,??????,25
19846,19847,Yale POP_MASTER,ZGS-040,,0,PKK-ZGS-040,1070,Pashto,2,2143.666016,32.916,68.5228,PKK,ZGS,Kamrah Masjad (sah Gana),2505,Zarghunshahr,????? ???,Paktika,??????,25
19847,19848,Yale POP_MASTER,ZGS-021,,0,PKK-ZGS-021,1226,Pashto,2,2171.559082,32.9283,68.5087,PKK,ZGS,Bara Kala (sah Gana),2505,Zarghunshahr,????? ???,Paktika,??????,25
19848,19849,Yale POP_MASTER,ZGS-054,,0,PKK-ZGS-054,105,Pashto,2,2073.5778809999997,32.8075,68.4821,PKK,ZGS,Mohammad Shah Kalay,2505,Zarghunshahr,????? ???,Paktika,??????,25
19849,19850,Yale POP_MASTER,ZGS-031,,0,PKK-ZGS-031,151,Pashto,2,2075.657959,32.8122,68.4787,PKK,ZGS,Haji Hamid Jan,2505,Zarghunshahr,????? ???,Paktika,??????,25
19850,19851,Yale POP_MASTER,ZGS-013,District,1,PKK-ZGS-013,900,Pashto,2,2120.4021,32.85,68.4465,PKK,ZGS,Zarghun Shahr,2505,Zarghunshahr,????? ???,Paktika,??????,25
19851,19852,Yale POP_MASTER,ZGS-046,,0,PKK-ZGS-046,1140,Pashto,2,2115.198975,32.8531,68.457,PKK,ZGS,Khar Landay,2505,Zarghunshahr,????? ???,Paktika,??????,25
19852,19853,Yale POP_MASTER,ZGS-028,,0,PKK-ZGS-028,650,Pashto,2,2091.784912,32.8519,68.5053,PKK,ZGS,Gharbi Gori,2505,Zarghunshahr,????? ???,Paktika,??????,25
19853,19854,Yale POP_MASTER,ZGS-053,,0,PKK-ZGS-053,2058,Pashto,2,2075.220947,32.8089,68.4683,PKK,ZGS,Mohammad Hassan,2505,Zarghunshahr,????? ???,Paktika,??????,25
19854,19855,Yale POP_MASTER,ZGS-016,,0,PKK-ZGS-016,94,Pashto,2,2080.9021,32.813,68.4594,PKK,ZGS,Almar Jan Kala,2505,Zarghunshahr,????? ???,Paktika,??????,25
19855,19856,Yale POP_MASTER,ZGS-049,,0,PKK-ZGS-049,3603,Pashto,2,2074.6669920000004,32.7974,68.4934,PKK,ZGS,Malizay,2505,Zarghunshahr,????? ???,Paktika,??????,25
19856,19857,Yale POP_MASTER,ZGS-043,,0,PKK-ZGS-043,0,Pashto,2,2125.688965,32.8526,68.4468,PKK,ZGS,Khair Kot,2505,Zarghunshahr,????? ???,Paktika,??????,25
19857,19858,Yale POP_MASTER,ZGS-024,,0,PKK-ZGS-024,546,Pashto,2,2120.77002,32.8476,68.4435,PKK,ZGS,Blu Khail,2505,Zarghunshahr,????? ???,Paktika,??????,25
19858,19859,Yale POP_MASTER,ZGS-039,,0,PKK-ZGS-039,1018,Pashto,2,2087.160889,32.845,68.5097,PKK,ZGS,Kamaluddin,2505,Zarghunshahr,????? ???,Paktika,??????,25
19859,19860,Yale POP_MASTER,ZGS-045,,0,PKK-ZGS-045,237,Dari,1,2168.51001,32.8631,68.4192,PKK,ZGS,Khapri Sulaimanzay,2505,Zarghunshahr,????? ???,Paktika,??????,25
19860,19861,Yale POP_MASTER,ZGS-051,,0,PKK-ZGS-051,98,Pashto,2,2231.216064,32.8656,68.3911,PKK,ZGS,Marjik Sulaimanzay,2505,Zarghunshahr,????? ???,Paktika,??????,25
19861,19862,Yale POP_MASTER,ZGS-063,,0,PKK-ZGS-063,353,Dari,1,2066.9370120000003,32.7923,68.4688,PKK,ZGS,Shah Gul Kala,2505,Zarghunshahr,????? ???,Paktika,??????,25
19862,19863,Yale POP_MASTER,ZGS-036,,0,PKK-ZGS-036,169,Pashto,2,2122.6489260000003,32.7626,68.558,PKK,ZGS,Jalal Khail,2505,Zarghunshahr,????? ???,Paktika,??????,25
19863,19864,Yale POP_MASTER,ZGS-019,,0,PKK-ZGS-019,37,Pashto,2,2074.058105,32.783,68.4916,PKK,ZGS,Azal Khail,2505,Zarghunshahr,????? ???,Paktika,??????,25
19864,19865,Yale POP_MASTER,ZGS-071,,0,PKK-ZGS-071,265,Pashto,2,2082.969971,32.8306,68.5165,PKK,ZGS,Umari Kala,2505,Zarghunshahr,????? ???,Paktika,??????,25
19870,19871,Yale POP_MASTER,JK1-080,,0,PKK-JK1-080,253,Pashto,2,2184.6010739999997,32.7299,68.6022,PKK,JK1,Qalandaran Kalay,2512,Janikhel,???? ???,Paktika,??????,25
19871,19872,Yale POP_MASTER,JK1-088,,0,PKK-JK1-088,331,Pashto,2,2164.649902,32.7387,68.5793,PKK,JK1,Shin Kala,2512,Janikhel,???? ???,Paktika,??????,25
19872,19873,USAID AIDVillageView,DLA-003,,0,PKK-DLA-003,0,Pashto,2,2010.194946,32.6888,68.2391,PKK,DLA,Dila (2),2518,Dila,????,Paktika,??????,25
19873,19874,USAID AIDVillageView,JK1-002,,0,PKK-JK1-002,0,Pashto,2,2042.7209469999998,32.7429,68.3932,PKK,JK1,Angalak,2512,Janikhel,???? ???,Paktika,??????,25
19874,19875,USAID AIDVillageView,JK1-003,,0,PKK-JK1-003,0,Pashto,2,2329.826904,32.6662,68.6429,PKK,JK1,De Maqam Kota,2512,Janikhel,???? ???,Paktika,??????,25
19875,19876,USAID AIDVillageView,JK1-004,,0,PKK-JK1-004,0,Pashto,2,2019.542969,32.6875,68.2927,PKK,JK1,Gul Mohammad Kote,2512,Janikhel,???? ???,Paktika,??????,25
19876,19877,USAID AIDVillageView,JK1-005,,0,PKK-JK1-005,0,Pashto,2,2036.036011,32.7378,68.3599,PKK,JK1,Hasan Kala,2512,Janikhel,???? ???,Paktika,??????,25
19877,19878,USAID AIDVillageView,JK1-006,,0,PKK-JK1-006,0,Pashto,2,2048.5271,32.7636,68.3956,PKK,JK1,Janikhel,2512,Janikhel,???? ???,Paktika,??????,25
19878,19879,USAID AIDVillageView,JK1-008,,0,PKK-JK1-008,0,Pashto,2,2016.6030269999999,32.6817,68.2923,PKK,JK1,Kota,2512,Janikhel,???? ???,Paktika,??????,25
19879,19880,USAID AIDVillageView,JK1-010,,0,PKK-JK1-010,0,Pashto,2,2038.989014,32.659,68.3617,PKK,JK1,Nasukhel,2512,Janikhel,???? ???,Paktika,??????,25
19880,19881,USAID AIDVillageView,JK1-012,,0,PKK-JK1-012,0,Pashto,2,2044.249023,32.7425,68.3999,PKK,JK1,Rq'uf Kala,2512,Janikhel,???? ???,Paktika,??????,25
19881,19882,USAID AIDVillageView,JK1-013,,0,PKK-JK1-013,0,Pashto,2,2043.7290039999998,32.7433,68.4035,PKK,JK1,Sardar Kala,2512,Janikhel,???? ???,Paktika,??????,25
19882,19883,USAID AIDVillageView,JK1-014,,0,PKK-JK1-014,0,Pashto,2,2026.9739989999998,32.7144,68.2952,PKK,JK1,Shaturi Janubi,2512,Janikhel,???? ???,Paktika,??????,25
19883,19884,USAID AIDVillageView,JK1-015,,0,PKK-JK1-015,0,Pashto,2,2109.803955,32.6418,68.4856,PKK,JK1,Shawal Karez,2512,Janikhel,???? ???,Paktika,??????,25
19884,19885,CSO AIMS Villages (ACSOR),JK1-016,,0,PKK-JK1-016,325,Pashto,2,2171.510986,32.521840000000005,68.48723000000001,PKK,JK1,Sayyid Kalay,2512,Janikhel,???? ???,Paktika,??????,25
19886,19887,Yale POP_MASTER,WZK-075,,0,PKK-WZK-075,69,Pashto,2,2053.781982,32.5226,68.3145,PKK,WZK,Hamad Kalay,2513,Wazakhah,???? ????,Paktika,??????,25
19887,19888,Yale POP_MASTER,WZK-115,,0,PKK-WZK-115,383,Pashto,2,2136.993896,32.4886,68.3743,PKK,WZK,Qadir Khan,2513,Wazakhah,???? ????,Paktika,??????,25
19888,19889,Yale POP_MASTER,WZK-122,,0,PKK-WZK-122,373,Pashto,2,2080.420898,32.5113,68.3469,PKK,WZK,Shah Mardan,2513,Wazakhah,???? ????,Paktika,??????,25
19889,19890,Yale POP_MASTER,ZGS-041,,0,PKK-ZGS-041,132,Pashto,2,2058.39502,32.7855,68.4372,PKK,ZGS,Kamrani,2505,Zarghunshahr,????? ???,Paktika,??????,25
19890,19891,Yale POP_MASTER,DLA-020,,0,PKK-DLA-020,287,Pashto,2,2018.562988,32.6574,68.2928,PKK,DLA,Adam Kari,2518,Dila,????,Paktika,??????,25
19891,19892,Yale POP_MASTER,DLA-061,,0,PKK-DLA-061,1158,Pashto,2,2009.328003,32.6858,68.2333,PKK,DLA,Khushamand,2518,Dila,????,Paktika,??????,25
19892,19893,Yale POP_MASTER,DLA-062,,0,PKK-DLA-062,102,Pashto,2,2010.130005,32.6686,68.2397,PKK,DLA,Khushamand Khundi,2518,Dila,????,Paktika,??????,25
19893,19894,Yale POP_MASTER,DLA-066,,0,PKK-DLA-066,56,Pashto,2,2058.082031,32.5549,68.3587,PKK,DLA,Landay Karaiz,2518,Dila,????,Paktika,??????,25
19894,19895,Yale POP_MASTER,DLA-067,,0,PKK-DLA-067,251,Pashto,2,2021.121948,32.6262,68.2836,PKK,DLA,Lat,2518,Dila,????,Paktika,??????,25
19895,19896,Yale POP_MASTER,DLA-068,,0,PKK-DLA-068,627,Pashto,2,2009.625,32.6602,68.249,PKK,DLA,Loay Kala,2518,Dila,????,Paktika,??????,25
19896,19897,Yale POP_MASTER,DLA-071,,0,PKK-DLA-071,660,Pashto,2,2016.4200440000002,32.6476,68.2787,PKK,DLA,Mamor Khail,2518,Dila,????,Paktika,??????,25
19897,19898,Yale POP_MASTER,DLA-079,,0,PKK-DLA-079,88,Pashto,2,2011.012939,32.6513,68.2597,PKK,DLA,Mohammad Yar Chambar,2518,Dila,????,Paktika,??????,25
19898,19899,Yale POP_MASTER,DLA-083,,0,PKK-DLA-083,209,Pashto,2,2043.831055,32.5841,68.3262,PKK,DLA,Mullah Saman Sahib Kalay,2518,Dila,????,Paktika,??????,25
19899,19900,Yale POP_MASTER,DLA-105,,0,PKK-DLA-105,190,Pashto,2,2017.56897,32.604,68.2715,PKK,DLA,Tafar,2518,Dila,????,Paktika,??????,25
19900,19901,Yale POP_MASTER,ZGS-050,,0,PKK-ZGS-050,301,Pashto,2,2068.4021,32.7845,68.4735,PKK,ZGS,Mamur Khail,2505,Zarghunshahr,????? ???,Paktika,??????,25
19901,19902,Yale POP_MASTER,DLA-024,,0,PKK-DLA-024,260,Pashto,2,2028.051025,32.6575,68.3198,PKK,DLA,Ali Zay,2518,Dila,????,Paktika,??????,25
19902,19903,Yale POP_MASTER,DLA-033,,0,PKK-DLA-033,381,Pashto,2,2032.628052,32.6532,68.3433,PKK,DLA,Da Baz Mohammad Kala,2518,Dila,????,Paktika,??????,25
19903,19904,Yale POP_MASTER,DLA-065,,0,PKK-DLA-065,186,Pashto,2,2033.871948,32.6574,68.3493,PKK,DLA,Kutkay,2518,Dila,????,Paktika,??????,25
19904,19905,Yale POP_MASTER,DLA-087,,0,PKK-DLA-087,1893,Pashto,2,2036.8489989999998,32.6574,68.3603,PKK,DLA,Nasu Khail,2518,Dila,????,Paktika,??????,25
19905,19906,Yale POP_MASTER,DLA-098,,0,PKK-DLA-098,752,Pashto,2,2023.358032,32.6508,68.313,PKK,DLA,Shadi Khan Karaiz,2518,Dila,????,Paktika,??????,25
19906,19907,Yale POP_MASTER,JK1-017,,0,PKK-JK1-017,141,Pashto,2,2036.10498,32.6964,68.3706,PKK,JK1,Amin Kala,2512,Janikhel,???? ???,Paktika,??????,25
19907,19908,Yale POP_MASTER,JK1-018,,0,PKK-JK1-018,220,Pashto,2,2042.442017,32.7365,68.3955,PKK,JK1,Angalak,2512,Janikhel,???? ???,Paktika,??????,25
19908,19909,Yale POP_MASTER,JK1-019,,0,PKK-JK1-019,197,Pashto,2,2037.5059809999998,32.7228,68.3831,PKK,JK1,Asrail,2512,Janikhel,???? ???,Paktika,??????,25
19909,19910,Yale POP_MASTER,JK1-020,,0,PKK-JK1-020,562,Pashto,2,2152.581055,32.5363,68.4844,PKK,JK1,Azad Khan Kalay,2512,Janikhel,???? ???,Paktika,??????,25
19910,19911,Yale POP_MASTER,JK1-021,,0,PKK-JK1-021,1807,Pashto,2,2022.496948,32.7012,68.2938,PKK,JK1,Babo Khail,2512,Janikhel,???? ???,Paktika,??????,25
19911,19912,Yale POP_MASTER,JK1-022,,0,PKK-JK1-022,67,Pashto,2,2020.9630129999998,32.7019,68.2895,PKK,JK1,Babo Khail,2512,Janikhel,???? ???,Paktika,??????,25
19912,19913,Yale POP_MASTER,JK1-023,,0,PKK-JK1-023,82,Pashto,2,2244.900879,32.6927,68.6026,PKK,JK1,Bada Wal Kalay,2512,Janikhel,???? ???,Paktika,??????,25
19913,19914,Yale POP_MASTER,JK1-024,,0,PKK-JK1-024,165,Pashto,2,2054.468018,32.7754,68.41199999999999,PKK,JK1,Baloch,2512,Janikhel,???? ???,Paktika,??????,25
19914,19915,Yale POP_MASTER,JK1-025,,0,PKK-JK1-025,179,Pashto,2,2088.427002,32.6766,68.4556,PKK,JK1,Baloch Kalay,2512,Janikhel,???? ???,Paktika,??????,25
19915,19916,Yale POP_MASTER,JK1-026,,0,PKK-JK1-026,212,Pashto,2,2103.4221190000003,32.5853,68.4574,PKK,JK1,Banawisi,2512,Janikhel,???? ???,Paktika,??????,25
19916,19917,Yale POP_MASTER,JK1-027,,0,PKK-JK1-027,58,Pashto,2,2033.187012,32.6774,68.3456,PKK,JK1,Bango Kalay,2512,Janikhel,???? ???,Paktika,??????,25
19917,19918,Yale POP_MASTER,JK1-028,,0,PKK-JK1-028,1622,Pashto,2,2124.0239260000003,32.6722,68.4975,PKK,JK1,Barlak Payan,2512,Janikhel,???? ???,Paktika,??????,25
19918,19919,Yale POP_MASTER,JK1-029,,0,PKK-JK1-029,136,Pashto,2,2021.062012,32.7062,68.2813,PKK,JK1,Barnas,2512,Janikhel,???? ???,Paktika,??????,25
19919,19920,Yale POP_MASTER,JK1-030,,0,PKK-JK1-030,0,Pashto,2,2048.736084,32.7606,68.3896,PKK,JK1,Bazar Jani Khail,2512,Janikhel,???? ???,Paktika,??????,25
19920,19921,Yale POP_MASTER,JK1-031,,0,PKK-JK1-031,0,Pashto,2,2102.420898,32.6944,68.47800000000001,PKK,JK1,Bazar Shakhil Abad,2512,Janikhel,???? ???,Paktika,??????,25
19921,19922,Yale POP_MASTER,JK1-032,,0,PKK-JK1-032,171,Pashto,2,2088.966064,32.6037,68.4453,PKK,JK1,Chagan,2512,Janikhel,???? ???,Paktika,??????,25
19922,19923,Yale POP_MASTER,JK1-033,,0,PKK-JK1-033,2937,Pashto,2,2053.396973,32.7431,68.4282,PKK,JK1,Chamari,2512,Janikhel,???? ???,Paktika,??????,25
19923,19924,Yale POP_MASTER,JK1-034,,0,PKK-JK1-034,499,Pashto,2,2062.925049,32.7876,68.4157,PKK,JK1,Chambaran,2512,Janikhel,???? ???,Paktika,??????,25
19924,19925,Yale POP_MASTER,JK1-035,,0,PKK-JK1-035,621,Pashto,2,2055.50293,32.7786,68.4252,PKK,JK1,Chambaran Malik Payinda,2512,Janikhel,???? ???,Paktika,??????,25
19925,19926,Yale POP_MASTER,JK1-036,,0,PKK-JK1-036,67,Pashto,2,2135.300049,32.5628,68.4936,PKK,JK1,Da Qadir Khan Tangi,2512,Janikhel,???? ???,Paktika,??????,25
19926,19927,Yale POP_MASTER,JK1-037,,0,PKK-JK1-037,1007,Pashto,2,2050.283936,32.7611,68.3827,PKK,JK1,Faqir Kala,2512,Janikhel,???? ???,Paktika,??????,25
19927,19928,Yale POP_MASTER,JK1-038,,0,PKK-JK1-038,490,Pashto,2,2221.5390629999997,32.6982,68.5871,PKK,JK1,Faqiran,2512,Janikhel,???? ???,Paktika,??????,25
19928,19929,Yale POP_MASTER,JK1-039,,0,PKK-JK1-039,600,Pashto,2,2053.903076,32.7739,68.4042,PKK,JK1,Godli,2512,Janikhel,???? ???,Paktika,??????,25
19929,19930,Yale POP_MASTER,JK1-040,,0,PKK-JK1-040,166,Pashto,2,2094.405029,32.6259,68.4681,PKK,JK1,Gori Kalay,2512,Janikhel,???? ???,Paktika,??????,25
19930,19931,Yale POP_MASTER,JK1-041,,0,PKK-JK1-041,134,Pashto,2,2038.996948,32.7377,68.2999,PKK,JK1,Gul Baran Kalay,2512,Janikhel,???? ???,Paktika,??????,25
19931,19932,Yale POP_MASTER,JK1-042,,0,PKK-JK1-042,59,Pashto,2,2157.780029,32.5372,68.4526,PKK,JK1,Gulab Khan Kalay,2512,Janikhel,???? ???,Paktika,??????,25
19932,19933,Yale POP_MASTER,JK1-043,,0,PKK-JK1-043,420,Pashto,2,2051.970947,32.7654,68.4246,PKK,JK1,Guldad,2512,Janikhel,???? ???,Paktika,??????,25
19933,19934,Yale POP_MASTER,JK1-045,,0,PKK-JK1-045,175,Pashto,2,2057.599121,32.7586,68.4444,PKK,JK1,Haji Bangal Kala,2512,Janikhel,???? ???,Paktika,??????,25
19934,19935,Yale POP_MASTER,JK1-046,,0,PKK-JK1-046,126,Pashto,2,2082.938965,32.619,68.4298,PKK,JK1,Haji Daraz Khan,2512,Janikhel,???? ???,Paktika,??????,25
19935,19936,Yale POP_MASTER,JK1-047,,0,PKK-JK1-047,308,Pashto,2,2198.423096,32.5369,68.5332,PKK,JK1,Haji Khan Kalay,2512,Janikhel,???? ???,Paktika,??????,25
19936,19937,Yale POP_MASTER,JK1-048,,0,PKK-JK1-048,466,Pashto,2,2029.984009,32.7045,68.3458,PKK,JK1,Haji Yaqub Kala,2512,Janikhel,???? ???,Paktika,??????,25
19937,19938,Yale POP_MASTER,JK1-049,,0,PKK-JK1-049,845,Pashto,2,2082.2971190000003,32.7156,68.4669,PKK,JK1,Hakim Kala,2512,Janikhel,???? ???,Paktika,??????,25
19938,19939,Yale POP_MASTER,JK1-050,,0,PKK-JK1-050,173,Pashto,2,2044.9739989999998,32.7021,68.3996,PKK,JK1,Hamza Kalay,2512,Janikhel,???? ???,Paktika,??????,25
19939,19940,Yale POP_MASTER,JK1-051,,0,PKK-JK1-051,1195,Pashto,2,2032.75,32.6924,68.3431,PKK,JK1,Hasti,2512,Janikhel,???? ???,Paktika,??????,25
19940,19941,Yale POP_MASTER,JK1-052,,0,PKK-JK1-052,261,Pashto,2,2114.183105,32.6838,68.4952,PKK,JK1,Jak Barlak,2512,Janikhel,???? ???,Paktika,??????,25
19941,19942,Yale POP_MASTER,JK1-053,,0,PKK-JK1-053,2635,Pashto,2,2045.0799559999998,32.7473,68.3963,PKK,JK1,Jalal Zay,2512,Janikhel,???? ???,Paktika,??????,25
19942,19943,Yale POP_MASTER,JK1-054,,0,PKK-JK1-054,307,Pashto,2,2048.728027,32.7676,68.4023,PKK,JK1,Jani Khail Kla,2512,Janikhel,???? ???,Paktika,??????,25
19943,19944,Yale POP_MASTER,JK1-055,,0,PKK-JK1-055,414,Pashto,2,2060.11792,32.6512,68.4131,PKK,JK1,Kala Khail,2512,Janikhel,???? ???,Paktika,??????,25
19944,19945,Yale POP_MASTER,JK1-056,,0,PKK-JK1-056,673,Pashto,2,2130.385986,32.7109,68.5244,PKK,JK1,Kala Khail Machak,2512,Janikhel,???? ???,Paktika,??????,25
19945,19946,Yale POP_MASTER,JK1-057,,0,PKK-JK1-057,734,Pashto,2,2114.990967,32.6358,68.4959,PKK,JK1,Kanzak,2512,Janikhel,???? ???,Paktika,??????,25
19946,19947,Yale POP_MASTER,JK1-058,,0,PKK-JK1-058,608,Pashto,2,2063.378906,32.7807,68.3912,PKK,JK1,Khadi Khail,2512,Janikhel,???? ???,Paktika,??????,25
19947,19948,Yale POP_MASTER,JK1-059,,0,PKK-JK1-059,486,Pashto,2,2091.8479,32.7886,68.3378,PKK,JK1,Khanjaki,2512,Janikhel,???? ???,Paktika,??????,25
19948,19949,Yale POP_MASTER,JK1-060,,0,PKK-JK1-060,117,Pashto,2,2093.655029,32.7391,68.4896,PKK,JK1,Khudai Nazar Kalay,2512,Janikhel,???? ???,Paktika,??????,25
19949,19950,Yale POP_MASTER,JK1-061,,0,PKK-JK1-061,213,Pashto,2,2119.032959,32.5779,68.4595,PKK,JK1,Lawang Calgari,2512,Janikhel,???? ???,Paktika,??????,25
19950,19951,Yale POP_MASTER,JK1-062,,0,PKK-JK1-062,277,Pashto,2,2105.386963,32.7276,68.5115,PKK,JK1,Machak Kalay,2512,Janikhel,???? ???,Paktika,??????,25
19951,19952,Yale POP_MASTER,JK1-063,,0,PKK-JK1-063,280,Pashto,2,2047.9930420000003,32.7613,68.4089,PKK,JK1,Mahali Kala,2512,Janikhel,???? ???,Paktika,??????,25
19952,19953,Yale POP_MASTER,JK1-064,,0,PKK-JK1-064,807,Pashto,2,2060.558105,32.7794,68.3981,PKK,JK1,Malang,2512,Janikhel,???? ???,Paktika,??????,25
19953,19954,Yale POP_MASTER,JK1-065,,0,PKK-JK1-065,440,Pashto,2,2033.7640379999998,32.7137,68.3731,PKK,JK1,Mami Chambar,2512,Janikhel,???? ???,Paktika,??????,25
19954,19955,Yale POP_MASTER,JK1-066,,0,PKK-JK1-066,74,Pashto,2,2097.731934,32.6263,68.4761,PKK,JK1,Mamu Jan Kalay,2512,Janikhel,???? ???,Paktika,??????,25
19955,19956,Yale POP_MASTER,JK1-067,,0,PKK-JK1-067,155,Pashto,2,2298.325928,32.626,68.6157,PKK,JK1,Mana Kalay,2512,Janikhel,???? ???,Paktika,??????,25
19956,19957,Yale POP_MASTER,JK1-068,,0,PKK-JK1-068,451,Pashto,2,2028.036011,32.7154,68.2904,PKK,JK1,Marzak Khanjaki,2512,Janikhel,???? ???,Paktika,??????,25
19957,19958,Yale POP_MASTER,JK1-069,,0,PKK-JK1-069,245,Pashto,2,2178.033936,32.6655,68.5424,PKK,JK1,Mir Khani,2512,Janikhel,???? ???,Paktika,??????,25
19958,19959,Yale POP_MASTER,JK1-070,,0,PKK-JK1-070,285,Pashto,2,2139.394043,32.6108,68.5078,PKK,JK1,Mitar Kala,2512,Janikhel,???? ???,Paktika,??????,25
19959,19960,Yale POP_MASTER,JK1-071,,0,PKK-JK1-071,68,Pashto,2,2226.383057,32.5941,68.5398,PKK,JK1,Mitar Kala ( Shahzada Kalay ),2512,Janikhel,???? ???,Paktika,??????,25
19960,19961,Yale POP_MASTER,JK1-072,,0,PKK-JK1-072,139,Pashto,2,2027.7559809999998,32.7189,68.3046,PKK,JK1,Mohammad Ali Kala,2512,Janikhel,???? ???,Paktika,??????,25
19961,19962,Yale POP_MASTER,JK1-073,,0,PKK-JK1-073,451,Pashto,2,2179.01709,32.8126,68.2831,PKK,JK1,Mullah Manan Kalay,2512,Janikhel,???? ???,Paktika,??????,25
19962,19963,Yale POP_MASTER,JK1-074,,0,PKK-JK1-074,241,Pashto,2,2116.7451170000004,32.7896,68.3085,PKK,JK1,Mullah Rozuddin Kalay,2512,Janikhel,???? ???,Paktika,??????,25
19963,19964,Yale POP_MASTER,JK1-075,,0,PKK-JK1-075,290,Pashto,2,2251.043945,32.6713,68.5838,PKK,JK1,Musa Kalim Kalay,2512,Janikhel,???? ???,Paktika,??????,25
19964,19965,Yale POP_MASTER,JK1-076,,0,PKK-JK1-076,434,Pashto,2,2046.905029,32.6767,68.399,PKK,JK1,Naim Gul Kalay,2512,Janikhel,???? ???,Paktika,??????,25
19965,19966,Yale POP_MASTER,JK1-077,,0,PKK-JK1-077,268,Pashto,2,2194.399902,32.542,68.5159,PKK,JK1,Nato Kalay,2512,Janikhel,???? ???,Paktika,??????,25
19966,19967,Yale POP_MASTER,JK1-078,,0,PKK-JK1-078,90,Pashto,2,2079.88501,32.781,68.3304,PKK,JK1,Qala Abdul Shukor,2512,Janikhel,???? ???,Paktika,??????,25
19967,19968,Yale POP_MASTER,JK1-079,,0,PKK-JK1-079,305,Pashto,2,2027.3220210000002,32.6895,68.3239,PKK,JK1,Qalandar Khail,2512,Janikhel,???? ???,Paktika,??????,25
19968,19969,Yale POP_MASTER,JK1-081,,0,PKK-JK1-081,306,Pashto,2,2060.471924,32.7445,68.4542,PKK,JK1,Qanat Shah Zaman,2512,Janikhel,???? ???,Paktika,??????,25
19969,19970,Yale POP_MASTER,JK1-082,,0,PKK-JK1-082,407,Pashto,2,2095.883057,32.6793,68.4731,PKK,JK1,Qandahari Kalay,2512,Janikhel,???? ???,Paktika,??????,25
19970,19971,Yale POP_MASTER,JK1-083,,0,PKK-JK1-083,307,Pashto,2,2130.355957,32.5558,68.4585,PKK,JK1,Qazi China Calgari,2512,Janikhel,???? ???,Paktika,??????,25
19971,19972,Yale POP_MASTER,JK1-084,,0,PKK-JK1-084,185,Pashto,2,2061.259033,32.6428,68.4077,PKK,JK1,Rasol Khan Kalay,2512,Janikhel,???? ???,Paktika,??????,25
19972,19973,Yale POP_MASTER,JK1-085,,0,PKK-JK1-085,594,Pashto,2,2092.5390629999997,32.7971,68.3532,PKK,JK1,Shah Turi,2512,Janikhel,???? ???,Paktika,??????,25
19973,19974,Yale POP_MASTER,JK1-086,,0,PKK-JK1-086,73,Pashto,2,2038.7950440000002,32.7049,68.3844,PKK,JK1,Shak Khail,2512,Janikhel,???? ???,Paktika,??????,25
19974,19975,Yale POP_MASTER,JK1-087,,0,PKK-JK1-087,630,Pashto,2,2043.8929440000002,32.7342,68.2795,PKK,JK1,Shaturi,2512,Janikhel,???? ???,Paktika,??????,25
19975,19976,Yale POP_MASTER,JK1-089,,0,PKK-JK1-089,391,Pashto,2,2077.197998,32.6213,68.4356,PKK,JK1,Shin Kalay,2512,Janikhel,???? ???,Paktika,??????,25
19976,19977,Yale POP_MASTER,JK1-090,,0,PKK-JK1-090,647,Pashto,2,2051.990967,32.7688,68.4113,PKK,JK1,Shir Ali,2512,Janikhel,???? ???,Paktika,??????,25
19977,19978,Yale POP_MASTER,JK1-091,,0,PKK-JK1-091,107,Pashto,2,2081.875,32.6214,68.4274,PKK,JK1,Srorafi,2512,Janikhel,???? ???,Paktika,??????,25
19978,19979,Yale POP_MASTER,JK1-092,,0,PKK-JK1-092,162,Pashto,2,2083.4609379999997,32.6101,68.4361,PKK,JK1,Sur Kalay,2512,Janikhel,???? ???,Paktika,??????,25
19979,19980,Yale POP_MASTER,JK1-093,,0,PKK-JK1-093,140,Pashto,2,2063.76001,32.7313,68.4437,PKK,JK1,Taj Mohammad Kalay,2512,Janikhel,???? ???,Paktika,??????,25
19980,19981,Yale POP_MASTER,JK1-094,,0,PKK-JK1-094,271,Pashto,2,2230.433105,32.644,68.5612,PKK,JK1,Wacha Wana Dinar Khail,2512,Janikhel,???? ???,Paktika,??????,25
19981,19982,Yale POP_MASTER,JK1-095,,0,PKK-JK1-095,180,Pashto,2,2252.5830079999996,32.6363,68.5722,PKK,JK1,Wacha Wana Sultan Khail Mohammad,2512,Janikhel,???? ???,Paktika,??????,25
19982,19983,Yale POP_MASTER,JK1-096,,0,PKK-JK1-096,1467,Pashto,2,2030.078003,32.708,68.3479,PKK,JK1,Zara Kala,2512,Janikhel,???? ???,Paktika,??????,25
19983,19984,Yale POP_MASTER,JK1-097,,0,PKK-JK1-097,1045,Pashto,2,2149.831055,32.7999,68.2851,PKK,JK1,Zira Gulab Kalay,2512,Janikhel,???? ???,Paktika,??????,25
19984,19985,Yale POP_MASTER,JK1-098,District,1,PKK-JK1-098,796,Pashto,2,2051.7338870000003,32.7698,68.4042,PKK,JK1,Jani Khel,2512,Janikhel,???? ???,Paktika,??????,25
19988,19989,USAID AIDVillageView,DLA-004,,0,PKK-DLA-004,0,Pashto,2,1993.27002,32.6141,68.1565,PKK,DLA,Faruqi Jay,2518,Dila,????,Paktika,??????,25
19989,19990,USAID AIDVillageView,DLA-005,,0,PKK-DLA-005,0,Pashto,2,2010.697998,32.6339,68.2473,PKK,DLA,Ghuti Chambar,2518,Dila,????,Paktika,??????,25
19990,19991,USAID AIDVillageView,DLA-006,,0,PKK-DLA-006,0,Pashto,2,1980.175049,32.6236,68.039,PKK,DLA,Gilut,2518,Dila,????,Paktika,??????,25
19991,19992,USAID AIDVillageView,DLA-007,,0,PKK-DLA-007,0,Pashto,2,1989.834961,32.6467,68.0074,PKK,DLA,Guldad Ghuti,2518,Dila,????,Paktika,??????,25
19992,19993,USAID AIDVillageView,DLA-008,,0,PKK-DLA-008,0,Pashto,2,1986.765015,32.6529,68.0914,PKK,DLA,Janikhel,2518,Dila,????,Paktika,??????,25
19993,19994,USAID AIDVillageView,DLA-010,,0,PKK-DLA-010,0,Pashto,2,1988.500977,32.5931,68.1434,PKK,DLA,Mukhtar Khona,2518,Dila,????,Paktika,??????,25
19994,19995,USAID AIDVillageView,DLA-013,,0,PKK-DLA-013,0,Pashto,2,2026.640015,32.5019,68.2502,PKK,DLA,Shatoray,2518,Dila,????,Paktika,??????,25
19995,19996,CSO AIMS Villages (ACSOR),DLA-016,,0,PKK-DLA-016,1812,Pashto,2,1979.555054,32.597159999999995,68.04261,PKK,DLA,Sher Khail,2518,Dila,????,Paktika,??????,25
19997,19998,USAID AIDVillageView,DLA-001,,0,PKK-DLA-001,0,Pashto,2,1980.0090329999998,32.5137,68.126,PKK,DLA,Abdul Bari Kor,2518,Dila,????,Paktika,??????,25
20183,20184,Yale POP_MASTER,TWO-011,,0,PKK-TWO-011,145,Other,9,2113.7338870000003,31.8182,68.1124,PKK,TWO,Chashma Darakht Yahya,2519,Turwo (Tarwe),????,Paktika,??????,25
20184,20185,Yale POP_MASTER,TWO-026,,0,PKK-TWO-026,87,Other,9,2141.444092,31.8326,68.0995,PKK,TWO,Manda Darakht Yahya,2519,Turwo (Tarwe),????,Paktika,??????,25
20185,20186,Yale POP_MASTER,TWO-032,,0,PKK-TWO-032,185,Pashto,2,2191.325928,31.8446,68.053,PKK,TWO,Obidullah,2519,Turwo (Tarwe),????,Paktika,??????,25
20186,20187,Yale POP_MASTER,TWO-039,,0,PKK-TWO-039,179,Other,9,2190.99292,31.8508,68.0654,PKK,TWO,Sarki Kalay,2519,Turwo (Tarwe),????,Paktika,??????,25
21744,21745,USAID AIDVillageView,DLA-002,,0,PKK-DLA-002,0,Pashto,2,1979.0909420000003,32.4823,68.1119,PKK,DLA,Ahmadkhel,2518,Dila,????,Paktika,??????,25
21745,21746,USAID AIDVillageView,DLA-014,,0,PKK-DLA-014,0,Pashto,2,2088.927979,32.3687,68.1605,PKK,DLA,Tor Tangay,2518,Dila,????,Paktika,??????,25
21746,21747,CSO AIMS Villages (ACSOR),DLA-015,,0,PKK-DLA-015,455,Pashto,2,2016.192993,32.4783,68.20076,PKK,DLA,Sar Kala,2518,Dila,????,Paktika,??????,25
21749,21750,Yale POP_MASTER,DLA-017,,0,PKK-DLA-017,61,Pashto,2,1991.364014,32.6883,68.1161,PKK,DLA,Abdulrahman Chambar,2518,Dila,????,Paktika,??????,25
21750,21751,Yale POP_MASTER,DLA-018,,0,PKK-DLA-018,119,Pashto,2,1981.524048,32.5918,68.0857,PKK,DLA,Adam,2518,Dila,????,Paktika,??????,25
21751,21752,Yale POP_MASTER,DLA-021,,0,PKK-DLA-021,34,Pashto,2,1989.2020260000002,32.6768,68.1025,PKK,DLA,Ahamad Zay,2518,Dila,????,Paktika,??????,25
21752,21753,Yale POP_MASTER,DLA-022,,0,PKK-DLA-022,342,Pashto,2,1985.265015,32.6393,68.0537,PKK,DLA,Akan Khail,2518,Dila,????,Paktika,??????,25
21753,21754,Yale POP_MASTER,DLA-023,,0,PKK-DLA-023,327,Pashto,2,1984.640015,32.5731,68.1206,PKK,DLA,Akhtar Mohammad,2518,Dila,????,Paktika,??????,25
21754,21755,Yale POP_MASTER,DLA-025,,0,PKK-DLA-025,83,Pashto,2,1993.3339839999999,32.6033,68.1725,PKK,DLA,Allah Yar,2518,Dila,????,Paktika,??????,25
21755,21756,Yale POP_MASTER,DLA-027,,0,PKK-DLA-027,61,Pashto,2,1992.625,32.6127,68.1757,PKK,DLA,Asharaf Khan,2518,Dila,????,Paktika,??????,25
21756,21757,Yale POP_MASTER,DLA-028,,0,PKK-DLA-028,346,Pashto,2,1977.991943,32.6194,68.0166,PKK,DLA,Aspargi,2518,Dila,????,Paktika,??????,25
21757,21758,Yale POP_MASTER,DLA-029,,0,PKK-DLA-029,1157,Pashto,2,1983.7910160000001,32.6222,68.0864,PKK,DLA,Atagay,2518,Dila,????,Paktika,??????,25
21758,21759,Yale POP_MASTER,DLA-030,,0,PKK-DLA-030,593,Pashto,2,1997.589966,32.649,68.1654,PKK,DLA,Bay Jan,2518,Dila,????,Paktika,??????,25
21759,21760,Yale POP_MASTER,DLA-032,,0,PKK-DLA-032,3823,Pashto,2,1997.281006,32.6383,68.1848,PKK,DLA,Churi,2518,Dila,????,Paktika,??????,25
21760,21761,Yale POP_MASTER,DLA-034,,0,PKK-DLA-034,798,Pashto,2,1979.442017,32.6051,68.0469,PKK,DLA,Da Dilay Pana Gir,2518,Dila,????,Paktika,??????,25
21761,21762,Yale POP_MASTER,DLA-036,,0,PKK-DLA-036,22,Pashto,2,1986.1429440000002,32.6412,68.0807,PKK,DLA,Darazan,2518,Dila,????,Paktika,??????,25
21762,21763,Yale POP_MASTER,DLA-039,,0,PKK-DLA-039,364,Pashto,2,1995.4749760000002,32.6885,68.1397,PKK,DLA,Dost Mohammad,2518,Dila,????,Paktika,??????,25
21763,21764,Yale POP_MASTER,DLA-040,,0,PKK-DLA-040,234,Pashto,2,2003.641968,32.638000000000005,68.2209,PKK,DLA,Fazil Rahman Kalay,2518,Dila,????,Paktika,??????,25
21764,21765,Yale POP_MASTER,DLA-041,,0,PKK-DLA-041,305,Pashto,2,1991.088989,32.664,68.1338,PKK,DLA,Gari,2518,Dila,????,Paktika,??????,25
21765,21766,Yale POP_MASTER,DLA-042,,0,PKK-DLA-042,733,Pashto,2,1983.848022,32.6405,68.0165,PKK,DLA,Ghuti,2518,Dila,????,Paktika,??????,25
21766,21767,Yale POP_MASTER,DLA-043,,0,PKK-DLA-043,132,Pashto,2,1978.890991,32.6097,68.042,PKK,DLA,Gulut,2518,Dila,????,Paktika,??????,25
21767,21768,Yale POP_MASTER,DLA-044,,0,PKK-DLA-044,55,Pashto,2,1984.192993,32.6139,68.1072,PKK,DLA,Haji Mohammad Noor,2518,Dila,????,Paktika,??????,25
21768,21769,Yale POP_MASTER,DLA-045,,0,PKK-DLA-045,107,Pashto,2,1989.3139649999998,32.6731,68.0928,PKK,DLA,Haji Rabani,2518,Dila,????,Paktika,??????,25
21769,21770,Yale POP_MASTER,DLA-046,,0,PKK-DLA-046,433,Pashto,2,1988.2130129999998,32.6237,68.1181,PKK,DLA,Haji Wati,2518,Dila,????,Paktika,??????,25
21770,21771,Yale POP_MASTER,DLA-047,,0,PKK-DLA-047,520,Pashto,2,2012.000977,32.4957,68.2115,PKK,DLA,Ibrahim Kala,2518,Dila,????,Paktika,??????,25
21771,21772,Yale POP_MASTER,DLA-048,,0,PKK-DLA-048,427,Pashto,2,2058.644043,32.7224,68.0031,PKK,DLA,Ibrahim Khail,2518,Dila,????,Paktika,??????,25
21772,21773,Yale POP_MASTER,DLA-049,,0,PKK-DLA-049,186,Pashto,2,1998.301025,32.6981,68.1419,PKK,DLA,Jamal,2518,Dila,????,Paktika,??????,25
21773,21774,Yale POP_MASTER,DLA-050,,0,PKK-DLA-050,1666,Pashto,2,1979.41394,32.5926,68.03399999999999,PKK,DLA,Jandad Kalay,2518,Dila,????,Paktika,??????,25
21774,21775,Yale POP_MASTER,DLA-053,,0,PKK-DLA-053,478,Pashto,2,1999.1319579999997,32.5766,68.1968,PKK,DLA,Karim Khan,2518,Dila,????,Paktika,??????,25
21775,21776,Yale POP_MASTER,DLA-055,,0,PKK-DLA-055,28,Pashto,2,1986.6889649999998,32.6228,68.1051,PKK,DLA,Khashih,2518,Dila,????,Paktika,??????,25
21776,21777,Yale POP_MASTER,DLA-056,,0,PKK-DLA-056,134,Pashto,2,1977.0639649999998,32.6217,67.9907,PKK,DLA,Kheruddin,2518,Dila,????,Paktika,??????,25
21777,21778,Yale POP_MASTER,DLA-059,,0,PKK-DLA-059,713,Pashto,2,1992.1340329999998,32.5698,68.175,PKK,DLA,Khowja Dad Khail,2518,Dila,????,Paktika,??????,25
21778,21779,Yale POP_MASTER,DLA-060,,0,PKK-DLA-060,51,Pashto,2,1991.442017,32.6436,68.1213,PKK,DLA,Khowja Zay,2518,Dila,????,Paktika,??????,25
21779,21780,Yale POP_MASTER,DLA-069,,0,PKK-DLA-069,95,Pashto,2,1992.1779789999998,32.5892,68.1733,PKK,DLA,Malik Din,2518,Dila,????,Paktika,??????,25
21780,21781,Yale POP_MASTER,DLA-070,,0,PKK-DLA-070,1515,Pashto,2,1978.910034,32.6027,68.0205,PKK,DLA,Mamo Khail,2518,Dila,????,Paktika,??????,25
21781,21782,Yale POP_MASTER,DLA-072,,0,PKK-DLA-072,1007,Pashto,2,2009.2679440000002,32.6275,68.2426,PKK,DLA,Mamor Khail Jadid,2518,Dila,????,Paktika,??????,25
21782,21783,Yale POP_MASTER,DLA-073,,0,PKK-DLA-073,950,Pashto,2,2000.5909420000003,32.5221,68.2009,PKK,DLA,Manari,2518,Dila,????,Paktika,??????,25
21783,21784,Yale POP_MASTER,DLA-076,,0,PKK-DLA-076,359,Pashto,2,1996.5290530000002,32.5934,68.1977,PKK,DLA,Mirza Khan,2518,Dila,????,Paktika,??????,25
21784,21785,Yale POP_MASTER,DLA-078,,0,PKK-DLA-078,2590,Pashto,2,2026.3409420000003,32.6555,67.965,PKK,DLA,Mohammad Rafiq,2518,Dila,????,Paktika,??????,25
21785,21786,Yale POP_MASTER,DLA-080,,0,PKK-DLA-080,257,Pashto,2,1979.33606,32.5934,68.04,PKK,DLA,Mullah Abdulwahab Kalay,2518,Dila,????,Paktika,??????,25
21786,21787,Yale POP_MASTER,DLA-081,,0,PKK-DLA-081,270,Pashto,2,2004.230957,32.7064,68.1566,PKK,DLA,Mullah Khilwat,2518,Dila,????,Paktika,??????,25
21787,21788,Yale POP_MASTER,DLA-082,,0,PKK-DLA-082,1100,Pashto,2,2007.087036,32.6364,67.9603,PKK,DLA,Mullah Pistu,2518,Dila,????,Paktika,??????,25
21788,21789,Yale POP_MASTER,DLA-084,,0,PKK-DLA-084,757,Pashto,2,2023.870972,32.6651,67.9833,PKK,DLA,Mullah Zalmay,2518,Dila,????,Paktika,??????,25
21789,21790,Yale POP_MASTER,DLA-085,,0,PKK-DLA-085,34,Pashto,2,1986.927002,32.6629,68.1053,PKK,DLA,Mut Khail,2518,Dila,????,Paktika,??????,25
21790,21791,Yale POP_MASTER,DLA-086,,0,PKK-DLA-086,727,Pashto,2,2008.6500239999998,32.6756,68.2226,PKK,DLA,Nakam,2518,Dila,????,Paktika,??????,25
21791,21792,Yale POP_MASTER,DLA-088,,0,PKK-DLA-088,120,Pashto,2,1984.0410160000001,32.6357,68.0602,PKK,DLA,Nikam Kalay,2518,Dila,????,Paktika,??????,25
21792,21793,Yale POP_MASTER,DLA-089,,0,PKK-DLA-089,252,Pashto,2,2055.3701170000004,32.4752,68.2705,PKK,DLA,Omna,2518,Dila,????,Paktika,??????,25
21793,21794,Yale POP_MASTER,DLA-090,,0,PKK-DLA-090,823,Pashto,2,1985.402954,32.57,68.1392,PKK,DLA,Pahlawan,2518,Dila,????,Paktika,??????,25
21794,21795,Yale POP_MASTER,DLA-091,,0,PKK-DLA-091,608,Uzbek,3,2004.823975,32.6579,68.2159,PKK,DLA,Pana Gir,2518,Dila,????,Paktika,??????,25
21795,21796,Yale POP_MASTER,DLA-092,,0,PKK-DLA-092,142,Pashto,2,2002.0419920000002,32.6623,68.0499,PKK,DLA,Pitan Kalay,2518,Dila,????,Paktika,??????,25
21796,21797,Yale POP_MASTER,DLA-095,,0,PKK-DLA-095,273,Pashto,2,1999.339966,32.6006,68.1977,PKK,DLA,Saluzay,2518,Dila,????,Paktika,??????,25
21797,21798,Yale POP_MASTER,DLA-096,,0,PKK-DLA-096,62,Pashto,2,1983.505005,32.6341,68.0478,PKK,DLA,Sardar Khan,2518,Dila,????,Paktika,??????,25
21798,21799,Yale POP_MASTER,DLA-101,,0,PKK-DLA-101,370,Pashto,2,1979.469971,32.5945,68.0611,PKK,DLA,Sher Ali,2518,Dila,????,Paktika,??????,25
21799,21800,Yale POP_MASTER,DLA-102,,0,PKK-DLA-102,27,Pashto,2,1996.5090329999998,32.658,68.1694,PKK,DLA,Sher Mohammad,2518,Dila,????,Paktika,??????,25
21800,21801,Yale POP_MASTER,DLA-104,,0,PKK-DLA-104,303,Pashto,2,1988.428955,32.6613,68.0772,PKK,DLA,Sidiq,2518,Dila,????,Paktika,??????,25
21801,21802,Yale POP_MASTER,DLA-106,,0,PKK-DLA-106,104,Pashto,2,1996.7249760000002,32.6251,68.1921,PKK,DLA,Tafar Mashu,2518,Dila,????,Paktika,??????,25
21802,21803,Yale POP_MASTER,DLA-107,,0,PKK-DLA-107,705,Pashto,2,1999.906006,32.518,68.1996,PKK,DLA,Umar Khail,2518,Dila,????,Paktika,??????,25
21803,21804,Yale POP_MASTER,DLA-108,,0,PKK-DLA-108,45,Pashto,2,1994.80603,32.5837,68.1928,PKK,DLA,Umar Khan Chambar,2518,Dila,????,Paktika,??????,25
21804,21805,Yale POP_MASTER,DLA-109,,0,PKK-DLA-109,899,Pashto,2,2010.2049559999998,32.6026,68.2415,PKK,DLA,Uoto Khail,2518,Dila,????,Paktika,??????,25
21805,21806,Yale POP_MASTER,DLA-110,,0,PKK-DLA-110,477,Pashto,2,2046.594971,32.681999999999995,68.0045,PKK,DLA,Usman Kalay,2518,Dila,????,Paktika,??????,25
21806,21807,Yale POP_MASTER,DLA-111,,0,PKK-DLA-111,237,Pashto,2,1984.7760010000002,32.6291,68.0878,PKK,DLA,Watak,2518,Dila,????,Paktika,??????,25
21807,21808,Yale POP_MASTER,DLA-112,,0,PKK-DLA-112,667,Pashto,2,1994.68396,32.6583,68.1495,PKK,DLA,Zabtu Jan,2518,Dila,????,Paktika,??????,25
21808,21809,Yale POP_MASTER,DLA-115,District,1,PKK-DLA-115,1482,Pashto,2,1979.4090579999997,32.5976,68.0443,PKK,DLA,Dila (1),2518,Dila,????,Paktika,??????,25
21811,21812,Yale POP_MASTER,DLA-026,,0,PKK-DLA-026,314,Pashto,2,2044.386963,32.3895,68.1251,PKK,DLA,Amir Khan,2518,Dila,????,Paktika,??????,25
21812,21813,Yale POP_MASTER,DLA-035,,0,PKK-DLA-035,137,Pashto,2,1983.9659420000003,32.4589,68.1052,PKK,DLA,Dado Khail,2518,Dila,????,Paktika,??????,25
21813,21814,Yale POP_MASTER,DLA-037,,0,PKK-DLA-037,687,Pashto,2,1980.0250239999998,32.607,67.9665,PKK,DLA,Dawlat Khan,2518,Dila,????,Paktika,??????,25
21814,21815,Yale POP_MASTER,DLA-038,,0,PKK-DLA-038,406,Pashto,2,2019.578003,32.3986,68.0975,PKK,DLA,Dildar Kalay,2518,Dila,????,Paktika,??????,25
21815,21816,Yale POP_MASTER,DLA-051,,0,PKK-DLA-051,364,Pashto,2,2075.948975,32.3741,68.1531,PKK,DLA,Janwar,2518,Dila,????,Paktika,??????,25
21816,21817,Yale POP_MASTER,DLA-052,,0,PKK-DLA-052,661,Pashto,2,1987.43396,32.6149,67.9596,PKK,DLA,Kala Khan,2518,Dila,????,Paktika,??????,25
21817,21818,Yale POP_MASTER,DLA-054,,0,PKK-DLA-054,552,Pashto,2,1978.614014,32.5872,68.0144,PKK,DLA,Karo Khail Haji Alam Khan,2518,Dila,????,Paktika,??????,25
21818,21819,Yale POP_MASTER,DLA-063,,0,PKK-DLA-063,140,Pashto,2,2069.443115,32.408,68.1977,PKK,DLA,Kumaki Jamuk,2518,Dila,????,Paktika,??????,25
21819,21820,Yale POP_MASTER,DLA-074,,0,PKK-DLA-074,1327,Pashto,2,2047.862061,32.4104,68.1564,PKK,DLA,Maruf Khail,2518,Dila,????,Paktika,??????,25
21820,21821,Yale POP_MASTER,DLA-075,,0,PKK-DLA-075,534,Pashto,2,1990.567993,32.4894,68.1669,PKK,DLA,Mir Khani,2518,Dila,????,Paktika,??????,25
21821,21822,Yale POP_MASTER,DLA-097,,0,PKK-DLA-097,370,Pashto,2,2053.729004,32.4568,68.2338,PKK,DLA,Sayyidan,2518,Dila,????,Paktika,??????,25
21822,21823,Yale POP_MASTER,DLA-099,,0,PKK-DLA-099,17,Pashto,2,1983.9980469999998,32.5042,68.14699999999999,PKK,DLA,Shah Gul,2518,Dila,????,Paktika,??????,25
21823,21824,Yale POP_MASTER,DLA-100,,0,PKK-DLA-100,264,Pashto,2,2035.2359620000002,32.398,68.1263,PKK,DLA,Shahbaz,2518,Dila,????,Paktika,??????,25
21824,21825,Yale POP_MASTER,DLA-103,,0,PKK-DLA-103,1097,Pashto,2,2000.5639649999998,32.6365,67.9438,PKK,DLA,Shirajuddin,2518,Dila,????,Paktika,??????,25
21825,21826,Yale POP_MASTER,DLA-113,,0,PKK-DLA-113,1205,Pashto,2,1977.875,32.5786,68.0421,PKK,DLA,Zafar Khan,2518,Dila,????,Paktika,??????,25
21832,21833,USAID AIDVillageView,SRA-020,,0,PKK-SRA-020,0,Pashto,2,2128.436035,33.2173,68.7861,PKK,SRA,Slemanzi,2501,Sharan,???,Paktika,??????,25
21833,21834,USAID AIDVillageView,SRA-016,,0,PKK-SRA-016,0,Pashto,2,2101.6521,33.2062,68.7769,PKK,SRA,Nazarmohammad Kala,2501,Sharan,???,Paktika,??????,25
21834,21835,USAID AIDVillageView,SRA-011,,0,PKK-SRA-011,0,Pashto,2,2141.035889,33.1582,68.7805,PKK,SRA,Khanakwal,2501,Sharan,???,Paktika,??????,25
21835,21836,CSO AIMS Villages (ACSOR),SRA-127,,0,PKK-SRA-127,649,Pashto,2,2154.4221190000003,33.148540000000004,68.81448,PKK,SRA,Zara Sharan,2501,Sharan,???,Paktika,??????,25
21836,21837,USAID AIDVillageView,SRA-021,,0,PKK-SRA-021,0,Pashto,2,2138.480957,33.1778,68.7552,PKK,SRA,Tatiwal,2501,Sharan,???,Paktika,??????,25
21837,21838,USAID AIDVillageView,SRA-012,,0,PKK-SRA-012,0,Pashto,2,2147.220947,33.2762,68.7285,PKK,SRA,Malekan,2501,Sharan,???,Paktika,??????,25
21838,21839,USAID AIDVillageView,SRA-013,,0,PKK-SRA-013,0,Pashto,2,2110.169922,33.2761,68.7602,PKK,SRA,Marigat,2501,Sharan,???,Paktika,??????,25
21839,21840,USAID AIDVillageView,SRA-001,,0,PKK-SRA-001,0,Pashto,2,2136.011963,33.17,68.7816,PKK,SRA,Amran Khel,2501,Sharan,???,Paktika,??????,25
21840,21841,USAID AIDVillageView,SRA-002,,0,PKK-SRA-002,0,Pashto,2,2106.5830079999996,33.2844,68.7239,PKK,SRA,Besmellah Kala,2501,Sharan,???,Paktika,??????,25
21841,21842,USAID AIDVillageView,SRA-019,,0,PKK-SRA-019,0,Pashto,2,2150.224121,33.1443,68.7846,PKK,SRA,Qal'a-i-sakhi Jan,2501,Sharan,???,Paktika,??????,25
21842,21843,USAID AIDVillageView,SRA-010,,0,PKK-SRA-010,0,Pashto,2,2144.528076,33.1614,68.7748,PKK,SRA,Jabbar Khel,2501,Sharan,???,Paktika,??????,25
21843,21844,USAID AIDVillageView,SRA-009,,0,PKK-SRA-009,0,Pashto,2,2128.962891,33.1622,68.7932,PKK,SRA,Golo Kala,2501,Sharan,???,Paktika,??????,25
21844,21845,USAID AIDVillageView,SRA-017,,0,PKK-SRA-017,0,Pashto,2,2128.137939,33.157,68.7498,PKK,SRA,Nurmohammad Kala,2501,Sharan,???,Paktika,??????,25
21845,21846,USAID AIDVillageView,SRA-008,,0,PKK-SRA-008,0,Pashto,2,2143.7338870000003,33.1761,68.7488,PKK,SRA,Golawal,2501,Sharan,???,Paktika,??????,25
21847,21848,Yale POP_MASTER,SRA-032,,0,PKK-SRA-032,188,Pashto,2,2141.145996,33.181,68.7938,PKK,SRA,Ambar Khail Patan,2501,Sharan,???,Paktika,??????,25
21848,21849,Yale POP_MASTER,SRA-037,,0,PKK-SRA-037,152,Pashto,2,2132.349121,33.1948,68.7812,PKK,SRA,Baharman,2501,Sharan,???,Paktika,??????,25
21849,21850,Yale POP_MASTER,SRA-044,,0,PKK-SRA-044,436,Pashto,2,2126.271973,33.2509,68.7151,PKK,SRA,Char Payan,2501,Sharan,???,Paktika,??????,25
21850,21851,Yale POP_MASTER,SRA-074,,0,PKK-SRA-074,488,Pashto,2,2138.236084,33.1905,68.7346,PKK,SRA,Kodily Mami,2501,Sharan,???,Paktika,??????,25
21851,21852,Yale POP_MASTER,SRA-083,,0,PKK-SRA-083,364,Pashto,2,2128.028076,33.2,68.7645,PKK,SRA,Mir Alam,2501,Sharan,???,Paktika,??????,25
21852,21853,Yale POP_MASTER,SRA-092,,0,PKK-SRA-092,273,Pashto,2,2120.343018,33.2207,68.7437,PKK,SRA,Nakam,2501,Sharan,???,Paktika,??????,25
21853,21854,Yale POP_MASTER,SRA-095,,0,PKK-SRA-095,128,Pashto,2,2131.268066,33.179,68.7383,PKK,SRA,Niyaz Gani,2501,Sharan,???,Paktika,??????,25
21854,21855,Yale POP_MASTER,SRA-096,,0,PKK-SRA-096,853,Pashto,2,2145.349121,33.1541,68.7433,PKK,SRA,Niyazi,2501,Sharan,???,Paktika,??????,25
21855,21856,Yale POP_MASTER,SRA-100,,0,PKK-SRA-100,243,Pashto,2,2146.388916,33.1559,68.7851,PKK,SRA,Pat Khail,2501,Sharan,???,Paktika,??????,25
21856,21857,Yale POP_MASTER,SRA-102,,0,PKK-SRA-102,246,Pashto,2,2146.979004,33.1438,68.7802,PKK,SRA,Qala -i- Haji Sakhi Jan,2501,Sharan,???,Paktika,??????,25
21857,21858,Yale POP_MASTER,SRA-103,,0,PKK-SRA-103,101,Pashto,2,2126.5620120000003,33.1878,68.7469,PKK,SRA,Qala Galo Ya Gara Kala,2501,Sharan,???,Paktika,??????,25
21858,21859,Yale POP_MASTER,SRA-104,,0,PKK-SRA-104,436,Pashto,2,2151.35791,33.1526,68.7921,PKK,SRA,Qala Mohammad Jan,2501,Sharan,???,Paktika,??????,25
21859,21860,Yale POP_MASTER,SRA-106,,0,PKK-SRA-106,696,Pashto,2,2147.050049,33.1377,68.7532,PKK,SRA,Qamaruddin,2501,Sharan,???,Paktika,??????,25
21860,21861,Yale POP_MASTER,SRA-107,,0,PKK-SRA-107,854,Pashto,2,2124.292969,33.2231,68.7723,PKK,SRA,Qara Khail,2501,Sharan,???,Paktika,??????,25
21861,21862,Yale POP_MASTER,SRA-109,,0,PKK-SRA-109,172,Pashto,2,2155.143066,33.1488,68.7953,PKK,SRA,Sarki Khail,2501,Sharan,???,Paktika,??????,25
21862,21863,Yale POP_MASTER,SRA-110,,0,PKK-SRA-110,423,Pashto,2,2128.008057,33.2142,68.7811,PKK,SRA,Sayyid Ahmad Khail,2501,Sharan,???,Paktika,??????,25
21863,21864,Yale POP_MASTER,SRA-112,,0,PKK-SRA-112,324,Pashto,2,2124.532959,33.2175,68.7589,PKK,SRA,Shah Tori,2501,Sharan,???,Paktika,??????,25
21864,21865,Yale POP_MASTER,SRA-115,,0,PKK-SRA-115,327,Pashto,2,2352.065918,33.2075,68.6522,PKK,SRA,Sharm Sulaiman Zay,2501,Sharan,???,Paktika,??????,25
21865,21866,Yale POP_MASTER,SRA-117,,0,PKK-SRA-117,213,Pashto,2,2439.305908,33.1971,68.6314,PKK,SRA,Spin Cak,2501,Sharan,???,Paktika,??????,25
21866,21867,Yale POP_MASTER,SRA-120,,0,PKK-SRA-120,368,Pashto,2,2137.737061,33.1869,68.788,PKK,SRA,Tarkanan,2501,Sharan,???,Paktika,??????,25
21867,21868,Yale POP_MASTER,SRA-121,,0,PKK-SRA-121,200,Pashto,2,2499.907959,33.1889,68.6105,PKK,SRA,Tarnab,2501,Sharan,???,Paktika,??????,25
21868,21869,Yale POP_MASTER,SRA-122,,0,PKK-SRA-122,291,Pashto,2,2139.52002,33.1593,68.7683,PKK,SRA,Tazi Wal,2501,Sharan,???,Paktika,??????,25
21869,21870,Yale POP_MASTER,SRA-124,,0,PKK-SRA-124,477,Pashto,2,2139.675049,33.1545,68.7557,PKK,SRA,Turokay,2501,Sharan,???,Paktika,??????,25
21870,21871,Yale POP_MASTER,SRA-125,,0,PKK-SRA-125,186,Pashto,2,2123.731934,33.2161,68.7382,PKK,SRA,Usman,2501,Sharan,???,Paktika,??????,25
21871,21872,Yale POP_MASTER,SRA-126,,0,PKK-SRA-126,3569,Pashto,2,2149.895996,33.1373,68.7747,PKK,SRA,Za Wali,2501,Sharan,???,Paktika,??????,25
21872,21873,Yale POP_MASTER,SRA-128,Provincial,2,PKK-SRA-128,500,Pashto,2,2142.5310059999997,33.1764,68.7307,PKK,SRA,Sharan,2501,Sharan,???,Paktika,??????,25
21873,21874,Yale POP_MASTER,YKH-028,,0,PKK-YKH-028,245,Pashto,2,2167.924072,33.0896,68.736,PKK,YKH,Park Landizay,2503,Yosufkhel,???? ???,Paktika,??????,25
21874,21875,Yale POP_MASTER,SRA-067,,0,PKK-SRA-067,409,Pashto,2,2125.24707,33.2294,68.7419,PKK,SRA,Khachi,2501,Sharan,???,Paktika,??????,25
21875,21876,Yale POP_MASTER,SRA-046,,0,PKK-SRA-046,781,Pashto,2,2133.48999,33.2156,68.7462,PKK,SRA,Dalwa,2501,Sharan,???,Paktika,??????,25
21876,21877,Yale POP_MASTER,SRA-056,,0,PKK-SRA-056,188,Pashto,2,2309.456055,33.2584,68.7696,PKK,SRA,Haji Gulab Gari,2501,Sharan,???,Paktika,??????,25
21877,21878,Yale POP_MASTER,SRA-031,,0,PKK-SRA-031,1535,Pashto,2,2154.280029,33.2511,68.7582,PKK,SRA,Ambar Khail,2501,Sharan,???,Paktika,??????,25
21878,21879,Yale POP_MASTER,SRA-081,,0,PKK-SRA-081,472,Pashto,2,2149.396973,33.2421,68.7652,PKK,SRA,Maqarrib Khail,2501,Sharan,???,Paktika,??????,25
21879,21880,Yale POP_MASTER,SRA-050,,0,PKK-SRA-050,276,Pashto,2,2134.2451170000004,33.1975,68.7784,PKK,SRA,Godali Mahro,2501,Sharan,???,Paktika,??????,25
21880,21881,Yale POP_MASTER,SRA-026,,0,PKK-SRA-026,480,Pashto,2,2108.933105,33.2083,68.7651,PKK,SRA,Afghani,2501,Sharan,???,Paktika,??????,25
21881,21882,Yale POP_MASTER,SRA-068,,0,PKK-SRA-068,260,Pashto,2,2153.3278809999997,33.2334,68.7846,PKK,SRA,Khalqiyan,2501,Sharan,???,Paktika,??????,25
21882,21883,Yale POP_MASTER,SRA-049,,0,PKK-SRA-049,442,Pashto,2,2121.724121,33.1942,68.7664,PKK,SRA,Ghunday,2501,Sharan,???,Paktika,??????,25
21883,21884,Yale POP_MASTER,SRA-080,,0,PKK-SRA-080,594,Pashto,2,2125.0161129999997,33.2,68.7645,PKK,SRA,Manhoras Kalay,2501,Sharan,???,Paktika,??????,25
21884,21885,Yale POP_MASTER,SRA-034,,0,PKK-SRA-034,586,Pashto,2,2115.0629879999997,33.1948,68.7812,PKK,SRA,Azamat,2501,Sharan,???,Paktika,??????,25
21885,21886,Yale POP_MASTER,SRA-029,,0,PKK-SRA-029,413,Pashto,2,2126.339111,33.181,68.7938,PKK,SRA,Ali Khan,2501,Sharan,???,Paktika,??????,25
21886,21887,Yale POP_MASTER,SRA-123,,0,PKK-SRA-123,49,Pashto,2,2185.813965,33.1373,68.7747,PKK,SRA,Tur Makh,2501,Sharan,???,Paktika,??????,25
21887,21888,Yale POP_MASTER,SRA-069,,0,PKK-SRA-069,414,Pashto,2,2136.033936,33.1518,68.7825,PKK,SRA,Khani,2501,Sharan,???,Paktika,??????,25
21888,21889,Yale POP_MASTER,SRA-091,,0,PKK-SRA-091,294,Pashto,2,2142.74292,33.1353,68.7924,PKK,SRA,Mullayan (1),2501,Sharan,???,Paktika,??????,25
21889,21890,Yale POP_MASTER,SRA-076,,0,PKK-SRA-076,2189,Pashto,2,2141.628906,33.1567,68.7739,PKK,SRA,Kotowal,2501,Sharan,???,Paktika,??????,25
21890,21891,Yale POP_MASTER,SRA-042,,0,PKK-SRA-042,1055,Pashto,2,2143.087891,33.1456,68.7637,PKK,SRA,Chakan,2501,Sharan,???,Paktika,??????,25
21891,21892,Yale POP_MASTER,SRA-072,,0,PKK-SRA-072,1486,Pashto,2,2146.6479489999997,33.1609,68.7606,PKK,SRA,Khowja Dor Khail,2501,Sharan,???,Paktika,??????,25
21892,21893,Yale POP_MASTER,SRA-051,,0,PKK-SRA-051,78,Pashto,2,2291.136963,33.1686,68.7658,PKK,SRA,Gul Dara,2501,Sharan,???,Paktika,??????,25
21893,21894,Yale POP_MASTER,SRA-038,,0,PKK-SRA-038,300,Pashto,2,2110.9021,33.1392,68.7775,PKK,SRA,Baz Qala Ya Baz Kala,2501,Sharan,???,Paktika,??????,25
21894,21895,Yale POP_MASTER,SRA-028,,0,PKK-SRA-028,138,Pashto,2,2458.237061,33.1503,68.7996,PKK,SRA,Akhundzada Khail,2501,Sharan,???,Paktika,??????,25
21895,21896,Yale POP_MASTER,SRA-099,,0,PKK-SRA-099,174,Pashto,2,2196.124023,33.1438,68.7802,PKK,SRA,Palto,2501,Sharan,???,Paktika,??????,25
21896,21897,Yale POP_MASTER,SRA-065,,0,PKK-SRA-065,976,Pashto,2,2116.7739260000003,33.1321,68.76899999999999,PKK,SRA,Jika,2501,Sharan,???,Paktika,??????,25
21897,21898,Yale POP_MASTER,SRA-075,,0,PKK-SRA-075,193,Pashto,2,2136.375977,33.1521,68.7966,PKK,SRA,Kormo Khail,2501,Sharan,???,Paktika,??????,25
21898,21899,Yale POP_MASTER,SRA-119,,0,PKK-SRA-119,404,Pashto,2,2132.846924,33.1593,68.7683,PKK,SRA,Sumlaiman Zay La,2501,Sharan,???,Paktika,??????,25
21899,21900,Yale POP_MASTER,SRA-078,,0,PKK-SRA-078,338,Pashto,2,2152.962891,33.1489,68.7839,PKK,SRA,Malari Wal Kalay,2501,Sharan,???,Paktika,??????,25
21901,21902,Yale POP_MASTER,SRA-118,,0,PKK-SRA-118,2090,Pashto,2,2146.496094,33.1889,68.6105,PKK,SRA,Sra Kala,2501,Sharan,???,Paktika,??????,25
21904,21905,Yale POP_MASTER,SRA-041,,0,PKK-SRA-041,3255,Pashto,2,2148.570068,33.2509,68.7151,PKK,SRA,Chahar Dih Kuhna,2501,Sharan,???,Paktika,??????,25
21905,21906,Yale POP_MASTER,SRA-030,,0,PKK-SRA-030,959,Pashto,2,2151.146973,33.2017,68.7395,PKK,SRA,Almunir Khail,2501,Sharan,???,Paktika,??????,25
21906,21907,Yale POP_MASTER,SRA-054,,0,PKK-SRA-054,179,Pashto,2,2134.749023,33.2017,68.73100000000001,PKK,SRA,Haji Baro,2501,Sharan,???,Paktika,??????,25
21907,21908,Yale POP_MASTER,SRA-077,,0,PKK-SRA-077,190,Pashto,2,2635.717041,33.223,68.7371,PKK,SRA,Madrasa,2501,Sharan,???,Paktika,??????,25
21908,21909,Yale POP_MASTER,SRA-064,,0,PKK-SRA-064,93,Pashto,2,2144.1010739999997,33.2136,68.7371,PKK,SRA,Jahadina Mohammad Isa,2501,Sharan,???,Paktika,??????,25
21909,21910,Yale POP_MASTER,SRA-057,,0,PKK-SRA-057,253,Pashto,2,2142.215088,33.1305,68.7595,PKK,SRA,Haji Kharoti Naw Abad,2501,Sharan,???,Paktika,??????,25
21910,21911,Yale POP_MASTER,SRA-047,,0,PKK-SRA-047,212,Pashto,2,2724.996094,33.17,68.7414,PKK,SRA,Dara Gay,2501,Sharan,???,Paktika,??????,25
21911,21912,Yale POP_MASTER,SRA-035,,0,PKK-SRA-035,177,Pashto,2,2392.230957,33.2723,68.6809,PKK,SRA,Baba Wana,2501,Sharan,???,Paktika,??????,25
21912,21913,Yale POP_MASTER,SRA-084,,0,PKK-SRA-084,320,Pashto,2,2117.6088870000003,33.1819,68.7272,PKK,SRA,Mirza Ahmad Lat Wal,2501,Sharan,???,Paktika,??????,25
21913,21914,Yale POP_MASTER,SRA-045,,0,PKK-SRA-045,270,Pashto,2,2145.196045,33.1916,68.6721,PKK,SRA,Dagaryi,2501,Sharan,???,Paktika,??????,25
21914,21915,Yale POP_MASTER,SRA-071,,0,PKK-SRA-071,492,Pashto,2,2122.724121,33.1905,68.7346,PKK,SRA,Khazan,2501,Sharan,???,Paktika,??????,25
21915,21916,Yale POP_MASTER,SRA-048,,0,PKK-SRA-048,419,Pashto,2,2245.191895,33.1739,68.6782,PKK,SRA,Gari,2501,Sharan,???,Paktika,??????,25
21916,21917,Yale POP_MASTER,SRA-033,,0,PKK-SRA-033,328,Pashto,2,2127.550049,33.2445,68.6708,PKK,SRA,Atta Gul Kalay,2501,Sharan,???,Paktika,??????,25
21917,21918,Yale POP_MASTER,SRA-061,,0,PKK-SRA-061,457,Pashto,2,2126.404053,33.2425,68.6951,PKK,SRA,Jabar Khail,2501,Sharan,???,Paktika,??????,25
21918,21919,Yale POP_MASTER,SRA-087,,0,PKK-SRA-087,950,Pashto,2,2151.413086,33.1642,68.7393,PKK,SRA,Mohammad Khail,2501,Sharan,???,Paktika,??????,25
21919,21920,Yale POP_MASTER,SRA-070,,0,PKK-SRA-070,126,Pashto,2,2119.604004,33.2289,68.6691,PKK,SRA,Kharo,2501,Sharan,???,Paktika,??????,25
21920,21921,Yale POP_MASTER,SRA-085,,0,PKK-SRA-085,668,Pashto,2,2148.042969,33.1763,68.6533,PKK,SRA,Mirza Kala,2501,Sharan,???,Paktika,??????,25
21921,21922,Yale POP_MASTER,SRA-060,,0,PKK-SRA-060,704,Pashto,2,2152.8330079999996,33.183,68.7349,PKK,SRA,Haybat,2501,Sharan,???,Paktika,??????,25
21922,21923,Yale POP_MASTER,SRA-093,,0,PKK-SRA-093,1198,Pashto,2,2170.125,33.1541,68.7433,PKK,SRA,Naw Abad Ambar Khail,2501,Sharan,???,Paktika,??????,25
21923,21924,Yale POP_MASTER,SRA-073,,0,PKK-SRA-073,164,Pashto,2,2241.6479489999997,33.1467,68.7527,PKK,SRA,Khuzha Wali Sulaiman Zay,2501,Sharan,???,Paktika,??????,25
21924,21925,Yale POP_MASTER,SRA-114,,0,PKK-SRA-114,259,Pashto,2,2186.072998,33.1971,68.6314,PKK,SRA,Shapawan,2501,Sharan,???,Paktika,??????,25
21925,21926,Yale POP_MASTER,SRA-053,,0,PKK-SRA-053,96,Pashto,2,2129.409912,33.1694,68.6398,PKK,SRA,Haji Asghar Qala,2501,Sharan,???,Paktika,??????,25
21926,21927,USAID AIDVillageView,SRA-005,,0,PKK-SRA-005,0,Pashto,2,2272.948975,33.114000000000004,68.8851,PKK,SRA,De Rod Khona,2501,Sharan,???,Paktika,??????,25
21927,21928,USAID AIDVillageView,SRA-007,,0,PKK-SRA-007,0,Pashto,2,2109.316895,33.2786,68.7789,PKK,SRA,Ghalikhel,2501,Sharan,???,Paktika,??????,25
21928,21929,USAID AIDVillageView,SRA-015,,0,PKK-SRA-015,0,Pashto,2,2134.599121,33.2137,68.8201,PKK,SRA,Mohammaday,2501,Sharan,???,Paktika,??????,25
21929,21930,CSO AIMS Villages (ACSOR),SRA-022,,0,PKK-SRA-022,327,Pashto,2,2140.465088,33.20004,68.82392,PKK,SRA,Atta Gul,2501,Sharan,???,Paktika,??????,25
21930,21931,CSO AIMS Villages (ACSOR),SRA-024,,0,PKK-SRA-024,757,Pashto,2,2142.626953,33.19272,68.81541999999999,PKK,SRA,Madad Khail,2501,Sharan,???,Paktika,??????,25
21931,21932,CSO AIMS Villages (ACSOR),SRA-025,,0,PKK-SRA-025,814,Pashto,2,2118.4580079999996,33.254690000000004,68.79968000000001,PKK,SRA,Marzak,2501,Sharan,???,Paktika,??????,25
21932,21933,USAID AIDVillageView,SRA-014,,0,PKK-SRA-014,0,Pashto,2,2109.36499,33.2137,68.8201,PKK,SRA,Mohammad-afdzal Kala,2501,Sharan,???,Paktika,??????,25
21933,21934,USAID AIDVillageView,SRA-003,,0,PKK-SRA-003,0,Pashto,2,2144.660889,33.3309,68.7666,PKK,SRA,Chah Musayi Kalim,2501,Sharan,???,Paktika,??????,25
21934,21935,USAID AIDVillageView,SRA-006,,0,PKK-SRA-006,0,Pashto,2,2148.114014,33.2786,68.7789,PKK,SRA,Fatema Khel,2501,Sharan,???,Paktika,??????,25
21935,21936,USAID AIDVillageView,SRA-004,,0,PKK-SRA-004,0,Pashto,2,2148.9580079999996,33.114000000000004,68.8851,PKK,SRA,Chahar Deh,2501,Sharan,???,Paktika,??????,25
21936,21937,USAID AIDVillageView,MTK-003,,0,PKK-MTK-003,0,Pashto,2,2118.167969,33.265,68.8629,PKK,MTK,Kodali,2502,Matakhan,??????,Paktika,??????,25
21937,21938,USAID AIDVillageView,MTK-004,,0,PKK-MTK-004,0,Pashto,2,2119.720947,33.2445,68.8114,PKK,MTK,Kotikhel,2502,Matakhan,??????,Paktika,??????,25
21938,21939,CSO AIMS Villages (ACSOR),MTK-074,,0,PKK-MTK-074,329,Pashto,2,2115.590088,33.27583,68.86910999999999,PKK,MTK,Kot Khail,2502,Matakhan,??????,Paktika,??????,25
21939,21940,CSO AIMS Villages (ACSOR),MTK-073,,0,PKK-MTK-073,1164,Pashto,2,2119.706055,33.2463,68.8159,PKK,MTK,Kati Khail,2502,Matakhan,??????,Paktika,??????,25
21940,21941,USAID AIDVillageView,MTK-005,,0,PKK-MTK-005,0,Pashto,2,2121.565918,33.2436,68.8381,PKK,MTK,Landiwal,2502,Matakhan,??????,Paktika,??????,25
21941,21942,USAID AIDVillageView,MTK-014,,0,PKK-MTK-014,0,Pashto,2,2110.746094,33.3221,68.8334,PKK,MTK,Yarmohammad Kala,2502,Matakhan,??????,Paktika,??????,25
21942,21943,USAID AIDVillageView,MTK-002,,0,PKK-MTK-002,0,Pashto,2,2129.052002,33.3273,68.9348,PKK,MTK,Kamkalay Jamalay,2502,Matakhan,??????,Paktika,??????,25
21943,21944,USAID AIDVillageView,MTK-012,,0,PKK-MTK-012,0,Pashto,2,2127.645996,33.3256,68.9273,PKK,MTK,Temurkhel,2502,Matakhan,??????,Paktika,??????,25
21944,21945,USAID AIDVillageView,MTK-010,,0,PKK-MTK-010,0,Pashto,2,2109.471924,33.2887,68.8045,PKK,MTK,Sherabuddin Kala,2502,Matakhan,??????,Paktika,??????,25
21945,21946,USAID AIDVillageView,MTK-007,,0,PKK-MTK-007,0,Pashto,2,2108.596924,33.3032,68.846,PKK,MTK,Moryan,2502,Matakhan,??????,Paktika,??????,25
21946,21947,USAID AIDVillageView,MTK-006,,0,PKK-MTK-006,0,Pashto,2,2127.714111,33.3484,68.9457,PKK,MTK,Mazela Faqir,2502,Matakhan,??????,Paktika,??????,25
21947,21948,USAID AIDVillageView,MTK-008,,0,PKK-MTK-008,0,Pashto,2,2118.030029,33.381,68.8734,PKK,MTK,Omarkhel,2502,Matakhan,??????,Paktika,??????,25
21948,21949,Yale POP_MASTER,SRA-027,,0,PKK-SRA-027,360,Pashto,2,2122.508057,33.2357,68.8014,PKK,SRA,Akhto Kalay,2501,Sharan,???,Paktika,??????,25
21949,21950,Yale POP_MASTER,SRA-039,,0,PKK-SRA-039,233,Pashto,2,2148.475098,33.1832,68.8213,PKK,SRA,Bazar Qala,2501,Sharan,???,Paktika,??????,25
21950,21951,Yale POP_MASTER,SRA-043,,0,PKK-SRA-043,365,Pashto,2,2120.248047,33.2441,68.7942,PKK,SRA,Chambar Khail,2501,Sharan,???,Paktika,??????,25
21951,21952,Yale POP_MASTER,SRA-058,,0,PKK-SRA-058,284,Pashto,2,2131.568115,33.2195,68.8217,PKK,SRA,Haji Payinda Mohammad,2501,Sharan,???,Paktika,??????,25
21952,21953,Yale POP_MASTER,SRA-062,,0,PKK-SRA-062,413,Pashto,2,2136.583984,33.2013,68.8007,PKK,SRA,Jadran,2501,Sharan,???,Paktika,??????,25
21953,21954,Yale POP_MASTER,SRA-066,,0,PKK-SRA-066,841,Pashto,2,2139.559082,33.1948,68.8043,PKK,SRA,Kanawa Khail,2501,Sharan,???,Paktika,??????,25
21954,21955,Yale POP_MASTER,SRA-082,,0,PKK-SRA-082,252,Pashto,2,2129.749023,33.2182,68.8138,PKK,SRA,Mihraban,2501,Sharan,???,Paktika,??????,25
21955,21956,Yale POP_MASTER,SRA-089,,0,PKK-SRA-089,454,Pashto,2,2115.323975,33.2572,68.7876,PKK,SRA,Mullayan (2),2501,Sharan,???,Paktika,??????,25
21956,21957,Yale POP_MASTER,SRA-088,,0,PKK-SRA-088,93,Pashto,2,2291.087891,33.1881,68.8081,PKK,SRA,Mohammad Noor Gari,2501,Sharan,???,Paktika,??????,25
21957,21958,Yale POP_MASTER,SRA-036,,0,PKK-SRA-036,80,Pashto,2,2186.066895,33.1832,68.8213,PKK,SRA,Badi Sulaiman Zyi,2501,Sharan,???,Paktika,??????,25
21958,21959,Yale POP_MASTER,SRA-090,,0,PKK-SRA-090,730,Pashto,2,2142.155029,33.155,68.8301,PKK,SRA,Mullayan (3),2501,Sharan,???,Paktika,??????,25
21959,21960,Yale POP_MASTER,SRA-059,,0,PKK-SRA-059,430,Pashto,2,2113.50708,33.2013,68.8007,PKK,SRA,Hanif Wal,2501,Sharan,???,Paktika,??????,25
21960,21961,Yale POP_MASTER,SRA-079,,0,PKK-SRA-079,328,Pashto,2,2143.6560059999997,33.2182,68.8138,PKK,SRA,Malikan,2501,Sharan,???,Paktika,??????,25
21961,21962,Yale POP_MASTER,SRA-063,,0,PKK-SRA-063,653,Pashto,2,2135.6560059999997,33.1948,68.8043,PKK,SRA,Jagan,2501,Sharan,???,Paktika,??????,25
21962,21963,Yale POP_MASTER,SRA-040,,0,PKK-SRA-040,138,Pashto,2,2388.23291,33.2441,68.7942,PKK,SRA,Borak,2501,Sharan,???,Paktika,??????,25
21963,21964,Yale POP_MASTER,SRA-086,,0,PKK-SRA-086,138,Pashto,2,2519.489014,33.2572,68.7876,PKK,SRA,Mohammad Akbar Kala,2501,Sharan,???,Paktika,??????,25
21964,21965,Yale POP_MASTER,SRA-052,,0,PKK-SRA-052,213,Pashto,2,2130.014893,33.1478,68.8605,PKK,SRA,Haji Amir,2501,Sharan,???,Paktika,??????,25
21965,21966,Yale POP_MASTER,SRA-055,,0,PKK-SRA-055,52,Pashto,2,2215.2739260000003,33.2195,68.8217,PKK,SRA,Haji Fatih Kalay,2501,Sharan,???,Paktika,??????,25
21966,21967,Yale POP_MASTER,MTK-018,,0,PKK-MTK-018,61,Pashto,2,2112.2971190000003,33.279,68.8517,PKK,MTK,Aka Khail,2502,Matakhan,??????,Paktika,??????,25
21967,21968,Yale POP_MASTER,MTK-054,,0,PKK-MTK-054,412,Pashto,2,2127.060059,33.2302,68.8238,PKK,MTK,Rustam Khail,2502,Matakhan,??????,Paktika,??????,25
21968,21969,Yale POP_MASTER,MTK-041,,0,PKK-MTK-041,112,Pashto,2,2120.36499,33.2604,68.8682,PKK,MTK,Koday,2502,Matakhan,??????,Paktika,??????,25
21969,21970,Yale POP_MASTER,MTK-070,,0,PKK-MTK-070,235,Pashto,2,2110.927979,33.2886,68.8673,PKK,MTK,Wali Dad Khail,2502,Matakhan,??????,Paktika,??????,25
21970,21971,Yale POP_MASTER,MTK-026,,0,PKK-MTK-026,604,Pashto,2,2117.864014,33.2789,68.8763,PKK,MTK,Faqir Kalay,2502,Matakhan,??????,Paktika,??????,25
21971,21972,Yale POP_MASTER,MTK-034,,0,PKK-MTK-034,714,Pashto,2,2124.1088870000003,33.2367,68.8297,PKK,MTK,Ibrahim Zay,2502,Matakhan,??????,Paktika,??????,25
21972,21973,Yale POP_MASTER,MTK-049,,0,PKK-MTK-049,404,Pashto,2,2123.137939,33.2324,68.8545,PKK,MTK,Mussa Khail Baykar,2502,Matakhan,??????,Paktika,??????,25
21973,21974,Yale POP_MASTER,MTK-066,,0,PKK-MTK-066,391,Pashto,2,2123.10498,33.2311,68.8408,PKK,MTK,Tatori,2502,Matakhan,??????,Paktika,??????,25
21974,21975,Yale POP_MASTER,MTK-060,,0,PKK-MTK-060,189,Pashto,2,2113.451904,33.2731,68.8561,PKK,MTK,Shobri,2502,Matakhan,??????,Paktika,??????,25
21975,21976,Yale POP_MASTER,MTK-032,,0,PKK-MTK-032,0,Pashto,2,2115.8989260000003,33.2693,68.8572,PKK,MTK,Hukumati Mata Khan,2502,Matakhan,??????,Paktika,??????,25
21976,21977,Yale POP_MASTER,MTK-035,,0,PKK-MTK-035,127,Pashto,2,2121.308105,33.2562,68.8676,PKK,MTK,Jahan Gir Kalay,2502,Matakhan,??????,Paktika,??????,25
21977,21978,Yale POP_MASTER,MTK-048,,0,PKK-MTK-048,237,Pashto,2,2120.399902,33.2415,68.8539,PKK,MTK,Musa Khail Payin,2502,Matakhan,??????,Paktika,??????,25
21978,21979,Yale POP_MASTER,MTK-072,District,1,PKK-MTK-072,5795,Pashto,2,2122.908936,33.239000000000004,68.8642,PKK,MTK,Mata Khan,2502,Matakhan,??????,Paktika,??????,25
21979,21980,Yale POP_MASTER,MTK-025,,0,PKK-MTK-025,163,Pashto,2,2124.053955,33.2438,68.8674,PKK,MTK,Dado Khail,2502,Matakhan,??????,Paktika,??????,25
21980,21981,Yale POP_MASTER,MTK-062,,0,PKK-MTK-062,130,Pashto,2,2113.9379879999997,33.2606,68.8487,PKK,MTK,Shuturak,2502,Matakhan,??????,Paktika,??????,25
21981,21982,Yale POP_MASTER,MTK-016,,0,PKK-MTK-016,130,Pashto,2,2120.409912,33.2675,68.8693,PKK,MTK,Abdul Kala,2502,Matakhan,??????,Paktika,??????,25
21982,21983,Yale POP_MASTER,MTK-059,,0,PKK-MTK-059,454,Pashto,2,2117.331055,33.2717,68.8652,PKK,MTK,Shay Wal,2502,Matakhan,??????,Paktika,??????,25
21983,21984,Yale POP_MASTER,MTK-040,,0,PKK-MTK-040,151,Pashto,2,2118.410889,33.2503,68.858,PKK,MTK,Khwazak,2502,Matakhan,??????,Paktika,??????,25
21984,21985,Yale POP_MASTER,MTK-023,,0,PKK-MTK-023,724,Pashto,2,2128.940918,33.2245,68.8525,PKK,MTK,Choni,2502,Matakhan,??????,Paktika,??????,25
21985,21986,Yale POP_MASTER,MTK-064,,0,PKK-MTK-064,152,Pashto,2,2118.079102,33.2821,68.8779,PKK,MTK,Sozi Kala,2502,Matakhan,??????,Paktika,??????,25
21986,21987,Yale POP_MASTER,MTK-043,,0,PKK-MTK-043,497,Pashto,2,2122.2548829999996,33.2444,68.8298,PKK,MTK,Landiwal Wa Churi Khail,2502,Matakhan,??????,Paktika,??????,25
21987,21988,Yale POP_MASTER,MTK-039,,0,PKK-MTK-039,195,Pashto,2,2126.333984,33.2282,68.8455,PKK,MTK,Khari Wal,2502,Matakhan,??????,Paktika,??????,25
21988,21989,Yale POP_MASTER,MTK-028,,0,PKK-MTK-028,185,Pashto,2,2115.99707,33.3351,68.9027,PKK,MTK,Folad Khail,2502,Matakhan,??????,Paktika,??????,25
21989,21990,Yale POP_MASTER,MTK-019,,0,PKK-MTK-019,232,Pashto,2,2144.025879,33.2958,68.932,PKK,MTK,Akhrot,2502,Matakhan,??????,Paktika,??????,25
21990,21991,Yale POP_MASTER,MTK-021,,0,PKK-MTK-021,399,Pashto,2,2118.50293,33.2933,68.8898,PKK,MTK,Baran Kala,2502,Matakhan,??????,Paktika,??????,25
21991,21992,Yale POP_MASTER,MTK-030,,0,PKK-MTK-030,464,Pashto,2,2113.735107,33.3486,68.8472,PKK,MTK,Girdi,2502,Matakhan,??????,Paktika,??????,25
21992,21993,Yale POP_MASTER,MTK-017,,0,PKK-MTK-017,503,Pashto,2,2107.427979,33.3202,68.7881,PKK,MTK,Ahmad Zay,2502,Matakhan,??????,Paktika,??????,25
21993,21994,Yale POP_MASTER,MTK-056,,0,PKK-MTK-056,1039,Pashto,2,2118.731934,33.3169,68.9058,PKK,MTK,Saydo Kala,2502,Matakhan,??????,Paktika,??????,25
21994,21995,Yale POP_MASTER,MTK-022,,0,PKK-MTK-022,356,Pashto,2,2116.805908,33.3466,68.898,PKK,MTK,Boch,2502,Matakhan,??????,Paktika,??????,25
21995,21996,Yale POP_MASTER,MTK-052,,0,PKK-MTK-052,138,Pashto,2,2119.290039,33.2985,68.899,PKK,MTK,Poddin,2502,Matakhan,??????,Paktika,??????,25
21996,21997,Yale POP_MASTER,MTK-047,,0,PKK-MTK-047,688,Pashto,2,2111.001953,33.3236,68.8491,PKK,MTK,Mullah Yan,2502,Matakhan,??????,Paktika,??????,25
21997,21998,Yale POP_MASTER,MTK-020,,0,PKK-MTK-020,47,Pashto,2,2209.656982,33.1685,68.8915,PKK,MTK,Bagh China Ya Spi China,2502,Matakhan,??????,Paktika,??????,25
21998,21999,Yale POP_MASTER,MTK-058,,0,PKK-MTK-058,283,Pashto,2,2113.322998,33.2704,68.8029,PKK,MTK,Shah Kala,2502,Matakhan,??????,Paktika,??????,25
21999,22000,Yale POP_MASTER,MTK-053,,0,PKK-MTK-053,85,Pashto,2,2126.545898,33.3204,68.9203,PKK,MTK,Podin,2502,Matakhan,??????,Paktika,??????,25
22000,22001,Yale POP_MASTER,MTK-065,,0,PKK-MTK-065,379,Pashto,2,2122.8701170000004,33.3293,68.9232,PKK,MTK,Taimor Khail,2502,Matakhan,??????,Paktika,??????,25
22001,22002,Yale POP_MASTER,MTK-061,,0,PKK-MTK-061,288,Pashto,2,2116.179932,33.3034,68.792,PKK,MTK,Shor Kacha,2502,Matakhan,??????,Paktika,??????,25
22002,22003,Yale POP_MASTER,MTK-063,,0,PKK-MTK-063,186,Pashto,2,2123.815918,33.3009,68.9059,PKK,MTK,Siway Kala,2502,Matakhan,??????,Paktika,??????,25
22003,22004,Yale POP_MASTER,MTK-027,,0,PKK-MTK-027,281,Pashto,2,2113.7661129999997,33.3372,68.8566,PKK,MTK,Fatih Khan,2502,Matakhan,??????,Paktika,??????,25
22004,22005,Yale POP_MASTER,MTK-029,,0,PKK-MTK-029,119,Pashto,2,2113.861084,33.3271,68.8825,PKK,MTK,Folad Khail Shami,2502,Matakhan,??????,Paktika,??????,25
22005,22006,Yale POP_MASTER,MTK-038,,0,PKK-MTK-038,350,Pashto,2,2109.521973,33.3051,68.8268,PKK,MTK,Karso,2502,Matakhan,??????,Paktika,??????,25
22006,22007,Yale POP_MASTER,MTK-067,,0,PKK-MTK-067,474,Pashto,2,2191.230957,33.202,68.9199,PKK,MTK,Tawda China,2502,Matakhan,??????,Paktika,??????,25
22007,22008,Yale POP_MASTER,MTK-045,,0,PKK-MTK-045,361,Pashto,2,2108.876953,33.298,68.8434,PKK,MTK,Marjan,2502,Matakhan,??????,Paktika,??????,25
22008,22009,Yale POP_MASTER,MTK-046,,0,PKK-MTK-046,784,Pashto,2,2112.551025,33.3131,68.8625,PKK,MTK,Maryanay,2502,Matakhan,??????,Paktika,??????,25
22009,22010,Yale POP_MASTER,MTK-037,,0,PKK-MTK-037,330,Pashto,2,2114.883057,33.3374,68.8821,PKK,MTK,Karma,2502,Matakhan,??????,Paktika,??????,25
22010,22011,Yale POP_MASTER,MTK-036,,0,PKK-MTK-036,563,Pashto,2,2136.60498,33.3369,68.955,PKK,MTK,Jamali,2502,Matakhan,??????,Paktika,??????,25
22011,22012,Yale POP_MASTER,MTK-057,,0,PKK-MTK-057,204,Pashto,2,2114.050049,33.3591,68.8498,PKK,MTK,Sayoura,2502,Matakhan,??????,Paktika,??????,25
22012,22013,Yale POP_MASTER,MTK-024,,0,PKK-MTK-024,576,Pashto,2,2124.48291,33.3674,68.8415,PKK,MTK,Dadi,2502,Matakhan,??????,Paktika,??????,25
22013,22014,Yale POP_MASTER,MTK-033,,0,PKK-MTK-033,630,Pashto,2,2137.010986,33.39,68.8574,PKK,MTK,Ibrahim Khail,2502,Matakhan,??????,Paktika,??????,25
22014,22015,Yale POP_MASTER,MTK-071,,0,PKK-MTK-071,314,Pashto,2,2120.674072,33.352,68.8346,PKK,MTK,Zardad,2502,Matakhan,??????,Paktika,??????,25
22015,22016,Yale POP_MASTER,MTK-050,,0,PKK-MTK-050,292,Pashto,2,2129.090088,33.3593,68.8316,PKK,MTK,Niyazi,2502,Matakhan,??????,Paktika,??????,25
22016,22017,Yale POP_MASTER,MTK-055,,0,PKK-MTK-055,553,Pashto,2,2121.560059,33.3604,68.9318,PKK,MTK,Sar Prekery,2502,Matakhan,??????,Paktika,??????,25
22017,22018,Yale POP_MASTER,MTK-068,,0,PKK-MTK-068,935,Pashto,2,2130.8510739999997,33.3483,68.9518,PKK,MTK,Toor Khail,2502,Matakhan,??????,Paktika,??????,25
22018,22019,Yale POP_MASTER,MTK-051,,0,PKK-MTK-051,53,Pashto,2,2126.086914,33.3361,68.9356,PKK,MTK,Paitkay,2502,Matakhan,??????,Paktika,??????,25
22019,22020,Yale POP_MASTER,MTK-069,,0,PKK-MTK-069,26,Pashto,2,2117.447998,33.376,68.8681,PKK,MTK,Umar Khail,2502,Matakhan,??????,Paktika,??????,25
22020,22021,Yale POP_MASTER,MTK-044,,0,PKK-MTK-044,61,Pashto,2,2120.383057,33.3462,68.9215,PKK,MTK,Lat Khail,2502,Matakhan,??????,Paktika,??????,25
22021,22022,Yale POP_MASTER,MTK-042,,0,PKK-MTK-042,134,Pashto,2,2117.695068,33.3729,68.8967,PKK,MTK,Lal Mohammad,2502,Matakhan,??????,Paktika,??????,25
22023,22024,USAID AIDVillageView,WZK-007,,0,PKK-WZK-007,0,Pashto,2,2314.406982,32.0555,68.12100000000001,PKK,WZK,Dad Mohammad Koruna,2513,Wazakhah,???? ????,Paktika,??????,25
22024,22025,USAID AIDVillageView,WZK-008,,0,PKK-WZK-008,0,Pashto,2,2168.457031,32.4358,68.3869,PKK,WZK,De Aziz China,2513,Wazakhah,???? ????,Paktika,??????,25
22025,22026,USAID AIDVillageView,WZK-009,,0,PKK-WZK-009,0,Pashto,2,2433.0419920000004,32.2378,68.5372,PKK,WZK,Doray,2513,Wazakhah,???? ????,Paktika,??????,25
22026,22027,USAID AIDVillageView,WZK-010,,0,PKK-WZK-010,0,Pashto,2,2297.27002,32.1585,68.1754,PKK,WZK,Faydz Mohammad Qal'a,2513,Wazakhah,???? ????,Paktika,??????,25
22027,22028,USAID AIDVillageView,WZK-011,,0,PKK-WZK-011,0,Pashto,2,2153.677002,32.4365,68.3944,PKK,WZK,Gharbi Akhtar China,2513,Wazakhah,???? ????,Paktika,??????,25
22028,22029,USAID AIDVillageView,WZK-012,,0,PKK-WZK-012,0,Pashto,2,2237.6669920000004,32.0462,68.2139,PKK,WZK,Gholam Sarwar Khona,2513,Wazakhah,???? ????,Paktika,??????,25
