,OBJECTID,SOURCE,VIL_UID,CENTER,CNTR_CODE,AFG_UID,POPULATION,LANGUAGE_,LANG_CODE,ELEVATION,LAT_Y,LON_X,MISTI_PROV,MISTI_DIST,VILLAGE_NA,DIST_CODE,DIST_NA_EN,DIST_NA_DA,PROV_NA_EN,PROV_NA_DA,PROV_CODE
11917,11918,CSO AIMS Villages (ACSOR),WAR-128,,0,BMY-WAR-128,184,Dari,1,2711.471924,34.17114,66.52319,BMY,WAR,Sar Bom (1),1007,Waras,???,Bamyan,??????,10
11918,11919,USAID AIDVillageView,WAR-010,,0,BMY-WAR-010,0,Dari,1,2908.662109,34.2167,66.5545,BMY,WAR,Dahane Hadya,1007,Waras,???,Bamyan,??????,10
11919,11920,USAID AIDVillageView,WAR-018,,0,BMY-WAR-018,0,Dari,1,2873.395996,34.2255,66.5378,BMY,WAR,Ghundasang,1007,Waras,???,Bamyan,??????,10
11920,11921,USAID AIDVillageView,WAR-025,,0,BMY-WAR-025,0,Dari,1,2700.701904,34.1356,66.5602,BMY,WAR,Letak,1007,Waras,???,Bamyan,??????,10
11921,11922,USAID AIDVillageView,WAR-038,,0,BMY-WAR-038,0,Dari,1,2919.644043,34.1882,66.5058,BMY,WAR,Sare Jangal,1007,Waras,???,Bamyan,??????,10
11930,11931,USAID AIDVillageView,WAR-050,,0,BMY-WAR-050,0,Dari,1,2725.457031,34.0539,66.52199999999999,BMY,WAR,Zardnaye Ulya,1007,Waras,???,Bamyan,??????,10
11931,11932,USAID AIDVillageView,WAR-051,,0,BMY-WAR-051,0,Dari,1,2567.969971,34.1052,66.4916,BMY,WAR,Zarsang,1007,Waras,???,Bamyan,??????,10
11932,11933,CSO AIMS Villages (ACSOR),WAR-052,,0,BMY-WAR-052,224,Dari,1,2874.212891,34.1688,66.50327,BMY,WAR,Acha Mazar (1),1007,Waras,???,Bamyan,??????,10
11933,11934,CSO AIMS Villages (ACSOR),WAR-055,,0,BMY-WAR-055,69,Dari,1,2930.50293,34.03544,66.57094000000001,BMY,WAR,Ashtur Mourda,1007,Waras,???,Bamyan,??????,10
11934,11935,CSO AIMS Villages (ACSOR),WAR-066,,0,BMY-WAR-066,90,Dari,1,2377.209961,34.073409999999996,66.51248000000001,BMY,WAR,Dahan Walyatak (1),1007,Waras,???,Bamyan,??????,10
11935,11936,CSO AIMS Villages (ACSOR),WAR-071,,0,BMY-WAR-071,281,Dari,1,2366.2919920000004,34.07909,66.52331,BMY,WAR,Do Ab (1),1007,Waras,???,Bamyan,??????,10
11936,11937,CSO AIMS Villages (ACSOR),WAR-089,,0,BMY-WAR-089,154,Dari,1,2857.792969,34.1373,66.49031,BMY,WAR,Khak Baybe,1007,Waras,???,Bamyan,??????,10
11937,11938,CSO AIMS Villages (ACSOR),WAR-103,,0,BMY-WAR-103,222,Dari,1,2408.962891,34.08093,66.555,BMY,WAR,Noorak (1),1007,Waras,???,Bamyan,??????,10
11938,11939,CSO AIMS Villages (ACSOR),WAR-180,,0,BMY-WAR-180,132,Dari,1,2503.037109,34.14653,66.54618,BMY,WAR,Walyatak (1),1007,Waras,???,Bamyan,??????,10
11984,11985,Yale POP_MASTER,PJB-126,,0,BMY-PJB-126,366,Dari,1,2832.793945,34.2491,66.5509,BMY,PJB,Garam Ab,1004,Panjab,?????,Bamyan,??????,10
12030,12031,Yale POP_MASTER,WAR-193,,0,BMY-WAR-193,305,Dari,1,2406.072998,34.0842,66.5344,BMY,WAR,Ali Jam,1007,Waras,???,Bamyan,??????,10
12031,12032,Yale POP_MASTER,WAR-243,,0,BMY-WAR-243,113,Dari,1,2752.409912,34.1384,66.5197,BMY,WAR,Chahar Do,1007,Waras,???,Bamyan,??????,10
12032,12033,Yale POP_MASTER,WAR-244,,0,BMY-WAR-244,117,Dari,1,2493.355957,34.1185,66.5436,BMY,WAR,Chahar Roba,1007,Waras,???,Bamyan,??????,10
12033,12034,Yale POP_MASTER,WAR-270,,0,BMY-WAR-270,102,Dari,1,2488.712891,34.0808,66.5999,BMY,WAR,Dahan Hassanak,1007,Waras,???,Bamyan,??????,10
12034,12035,Yale POP_MASTER,WAR-271,,0,BMY-WAR-271,122,Dari,1,2629.656982,34.2113,66.5635,BMY,WAR,Dahan Jang Jay,1007,Waras,???,Bamyan,??????,10
12035,12036,Yale POP_MASTER,WAR-274,,0,BMY-WAR-274,146,Dari,1,2469.919922,34.1254,66.5415,BMY,WAR,Dahan Laili,1007,Waras,???,Bamyan,??????,10
12036,12037,Yale POP_MASTER,WAR-280,,0,BMY-WAR-280,232,Dari,1,2440.690918,34.0813,66.581,BMY,WAR,Dahan Qoul Massod,1007,Waras,???,Bamyan,??????,10
12037,12038,Yale POP_MASTER,WAR-285,,0,BMY-WAR-285,130,Dari,1,2626.288086,34.1679,66.5501,BMY,WAR,Dahan Sabzak,1007,Waras,???,Bamyan,??????,10
12038,12039,Yale POP_MASTER,WAR-322,,0,BMY-WAR-322,295,Dari,1,2807.907959,34.1509,66.5668,BMY,WAR,Eid Gank,1007,Waras,???,Bamyan,??????,10
12039,12040,Yale POP_MASTER,WAR-323,,0,BMY-WAR-323,153,Dari,1,2709.683105,34.1565,66.5601,BMY,WAR,Eid Ghayak,1007,Waras,???,Bamyan,??????,10
12040,12041,Yale POP_MASTER,WAR-330,,0,BMY-WAR-330,155,Dari,1,2819.541016,34.1783,66.5175,BMY,WAR,Gard Baid,1007,Waras,???,Bamyan,??????,10
12041,12042,Yale POP_MASTER,WAR-341,,0,BMY-WAR-341,103,Dari,1,2777.604004,34.2242,66.5489,BMY,WAR,Ghonda Sang (1),1007,Waras,???,Bamyan,??????,10
12042,12043,Yale POP_MASTER,WAR-345,,0,BMY-WAR-345,62,Dari,1,2795.63501,34.1609,66.5624,BMY,WAR,Ghow Chak,1007,Waras,???,Bamyan,??????,10
12043,12044,Yale POP_MASTER,WAR-376,,0,BMY-WAR-376,75,Dari,1,2558.019043,34.186,66.5663,BMY,WAR,Jalorak,1007,Waras,???,Bamyan,??????,10
12044,12045,Yale POP_MASTER,WAR-407,,0,BMY-WAR-407,79,Dari,1,2714.8330079999996,34.0569,66.5499,BMY,WAR,Khak Daykcha,1007,Waras,???,Bamyan,??????,10
12045,12046,Yale POP_MASTER,WAR-438,,0,BMY-WAR-438,78,Dari,1,2774.301025,34.1207,66.486,BMY,WAR,Kun Gow,1007,Waras,???,Bamyan,??????,10
12046,12047,Yale POP_MASTER,WAR-441,,0,BMY-WAR-441,332,Dari,1,2572.6721190000003,34.1213,66.5232,BMY,WAR,Laile,1007,Waras,???,Bamyan,??????,10
12047,12048,Yale POP_MASTER,WAR-443,,0,BMY-WAR-443,55,Dari,1,2378.349121,34.0748,66.5162,BMY,WAR,Lakh Toghi,1007,Waras,???,Bamyan,??????,10
12048,12049,Yale POP_MASTER,WAR-448,,0,BMY-WAR-448,220,Dari,1,2629.966064,34.1281,66.5621,BMY,WAR,Majnoon,1007,Waras,???,Bamyan,??????,10
12049,12050,Yale POP_MASTER,WAR-467,,0,BMY-WAR-467,321,Dari,1,2454.3588870000003,34.0797,66.5686,BMY,WAR,Nawa Gak,1007,Waras,???,Bamyan,??????,10
12051,12052,Yale POP_MASTER,WAR-505,,0,BMY-WAR-505,63,Dari,1,2899.86792,34.1885,66.5322,BMY,WAR,Poshta,1007,Waras,???,Bamyan,??????,10
12052,12053,Yale POP_MASTER,WAR-509,,0,BMY-WAR-509,34,Dari,1,2672.180908,34.1571,66.5349,BMY,WAR,Qala Dozdan,1007,Waras,???,Bamyan,??????,10
12053,12054,Yale POP_MASTER,WAR-529,,0,BMY-WAR-529,163,Dari,1,3004.194092,34.1527,66.5009,BMY,WAR,Qeyaghak,1007,Waras,???,Bamyan,??????,10
12054,12055,Yale POP_MASTER,WAR-562,,0,BMY-WAR-562,71,Dari,1,2868.454102,34.1937,66.5451,BMY,WAR,Sabzak,1007,Waras,???,Bamyan,??????,10
12055,12056,Yale POP_MASTER,WAR-581,,0,BMY-WAR-581,150,Dari,1,2855.206055,34.2301,66.571,BMY,WAR,Sar Hadya,1007,Waras,???,Bamyan,??????,10
12056,12057,Yale POP_MASTER,WAR-614,,0,BMY-WAR-614,167,Dari,1,2898.660889,34.1808,66.5085,BMY,WAR,Sewak (2),1007,Waras,???,Bamyan,??????,10
12057,12058,Yale POP_MASTER,WAR-618,,0,BMY-WAR-618,92,Dari,1,2780.881104,34.0524,66.5547,BMY,WAR,Seya Nawar (1),1007,Waras,???,Bamyan,??????,10
12058,12059,Yale POP_MASTER,WAR-638,,0,BMY-WAR-638,57,Dari,1,2679.403076,34.1851,66.5493,BMY,WAR,Sheena Sabzak,1007,Waras,???,Bamyan,??????,10
12059,12060,Yale POP_MASTER,WAR-647,,0,BMY-WAR-647,79,Dari,1,2857.743896,34.1452,66.5346,BMY,WAR,Somak,1007,Waras,???,Bamyan,??????,10
12060,12061,Yale POP_MASTER,WAR-661,,0,BMY-WAR-661,206,Dari,1,2775.570068,34.2313,66.5321,BMY,WAR,Sorkh Toop,1007,Waras,???,Bamyan,??????,10
12061,12062,Yale POP_MASTER,WAR-671,,0,BMY-WAR-671,296,Dari,1,2933.510986,34.0282,66.5748,BMY,WAR,Tangi Zadak,1007,Waras,???,Bamyan,??????,10
12062,12063,Yale POP_MASTER,WAR-698,,0,BMY-WAR-698,32,Dari,1,2840.003906,34.1676,66.5774,BMY,WAR,Zard Sang,1007,Waras,???,Bamyan,??????,10
12065,12066,Yale POP_MASTER,WAR-700,,0,BMY-WAR-700,116,Dari,1,2644.341064,34.0643,66.5255,BMY,WAR,Zarnai Hulya,1007,Waras,???,Bamyan,??????,10
12066,12067,Yale POP_MASTER,WAR-701,,0,BMY-WAR-701,240,Dari,1,2623.5629879999997,34.0564,66.5071,BMY,WAR,Zarnai Sufla,1007,Waras,???,Bamyan,??????,10
13375,13376,CSO AIMS Villages (ACSOR),WAR-112,,0,BMY-WAR-112,122,Dari,1,2914.39502,34.02803,66.68018000000001,BMY,WAR,Raig Jowi (1),1007,Waras,???,Bamyan,??????,10
13376,13377,CSO AIMS Villages (ACSOR),WAR-122,,0,BMY-WAR-122,122,Dari,1,2964.99292,34.04119,66.67541999999999,BMY,WAR,Safid Sang (1),1007,Waras,???,Bamyan,??????,10
13377,13378,CSO AIMS Villages (ACSOR),WAR-127,,0,BMY-WAR-127,107,Dari,1,3131.4770510000003,34.028420000000004,66.66557,BMY,WAR,Sar Bom (2),1007,Waras,???,Bamyan,??????,10
13378,13379,CSO AIMS Villages (ACSOR),WAR-129,,0,BMY-WAR-129,694,Dari,1,2787.106934,34.03849,66.60069,BMY,WAR,Sar Bom (3),1007,Waras,???,Bamyan,??????,10
13379,13380,CSO AIMS Villages (ACSOR),WAR-139,,0,BMY-WAR-139,442,Dari,1,3040.25708,34.026109999999996,66.74399,BMY,WAR,Sayel Borda (1),1007,Waras,???,Bamyan,??????,10
13380,13381,CSO AIMS Villages (ACSOR),WAR-160,,0,BMY-WAR-160,164,Dari,1,3027.920898,34.01569,66.61851,BMY,WAR,Shahristan (1),1007,Waras,???,Bamyan,??????,10
13381,13382,USAID AIDVillageView,WAR-021,,0,BMY-WAR-021,0,Dari,1,2561.591064,33.9446,67.0026,BMY,WAR,Joydeh,1007,Waras,???,Bamyan,??????,10
13382,13383,USAID AIDVillageView,WAR-037,,0,BMY-WAR-037,0,Dari,1,2982.224121,33.9629,66.9785,BMY,WAR,Sare Gulkhalan,1007,Waras,???,Bamyan,??????,10
13383,13384,USAID AIDVillageView,WAR-044,,0,BMY-WAR-044,0,Dari,1,2972.88501,34.0452,66.7282,BMY,WAR,Syahqolak,1007,Waras,???,Bamyan,??????,10
13384,13385,CSO AIMS Villages (ACSOR),WAR-061,,0,BMY-WAR-061,86,Dari,1,3363.0920409999994,34.02844,66.79365,BMY,WAR,Barghasang,1007,Waras,???,Bamyan,??????,10
13385,13386,CSO AIMS Villages (ACSOR),WAR-085,,0,BMY-WAR-085,230,Dari,1,3029.1879879999997,34.019909999999996,66.6994,BMY,WAR,Jow Qoul (1),1007,Waras,???,Bamyan,??????,10
13386,13387,CSO AIMS Villages (ACSOR),WAR-101,,0,BMY-WAR-101,141,Dari,1,2824.468018,34.03123,66.60783,BMY,WAR,Noorak (2),1007,Waras,???,Bamyan,??????,10
13387,13388,CSO AIMS Villages (ACSOR),WAR-107,,0,BMY-WAR-107,27,Dari,1,3010.978027,34.035270000000004,66.70268,BMY,WAR,Pasqoulak Bala,1007,Waras,???,Bamyan,??????,10
13388,13389,CSO AIMS Villages (ACSOR),WAR-109,,0,BMY-WAR-109,95,Dari,1,2991.89209,34.01716,66.6696,BMY,WAR,Qala (1),1007,Waras,???,Bamyan,??????,10
13389,13390,CSO AIMS Villages (ACSOR),WAR-177,,0,BMY-WAR-177,94,Dari,1,3101.11499,34.055890000000005,66.67652,BMY,WAR,Walitak,1007,Waras,???,Bamyan,??????,10
13452,13453,Yale POP_MASTER,WAR-301,,0,BMY-WAR-301,145,Dari,1,2491.211914,34.0846,66.6152,BMY,WAR,Dahani Takht,1007,Waras,???,Bamyan,??????,10
13453,13454,Yale POP_MASTER,WAR-306,,0,BMY-WAR-306,95,Dari,1,2607.12793,33.9407,67.0104,BMY,WAR,Dail Beyta,1007,Waras,???,Bamyan,??????,10
13454,13455,Yale POP_MASTER,WAR-307,,0,BMY-WAR-307,165,Dari,1,2678.86792,33.952,66.9983,BMY,WAR,Dar Kusht,1007,Waras,???,Bamyan,??????,10
13455,13456,Yale POP_MASTER,WAR-318,,0,BMY-WAR-318,87,Dari,1,2977.237061,34.0107,66.6697,BMY,WAR,Doabi,1007,Waras,???,Bamyan,??????,10
13456,13457,Yale POP_MASTER,WAR-336,,0,BMY-WAR-336,46,Dari,1,3526.634033,34.0125,66.8426,BMY,WAR,Gedar Go,1007,Waras,???,Bamyan,??????,10
13457,13458,Yale POP_MASTER,WAR-348,,0,BMY-WAR-348,123,Dari,1,3622.389893,33.9593,66.9386,BMY,WAR,Gok,1007,Waras,???,Bamyan,??????,10
13458,13459,Yale POP_MASTER,WAR-354,,0,BMY-WAR-354,344,Dari,1,2777.668945,33.9343,66.9866,BMY,WAR,Gul Khaldna,1007,Waras,???,Bamyan,??????,10
13459,13460,Yale POP_MASTER,WAR-384,,0,BMY-WAR-384,383,Dari,1,2626.4580079999996,33.9518,67.0114,BMY,WAR,Jowi Dahi,1007,Waras,???,Bamyan,??????,10
13460,13461,Yale POP_MASTER,WAR-422,,0,BMY-WAR-422,204,Dari,1,2832.065918,34.0722,66.6391,BMY,WAR,Khargoshak,1007,Waras,???,Bamyan,??????,10
13461,13462,Yale POP_MASTER,WAR-452,,0,BMY-WAR-452,103,Dari,1,3090.337891,34.004,66.673,BMY,WAR,Manteq,1007,Waras,???,Bamyan,??????,10
13462,13463,Yale POP_MASTER,WAR-495,,0,BMY-WAR-495,57,Dari,1,3011.01001,34.0435,66.7056,BMY,WAR,Pasqoulak Payen,1007,Waras,???,Bamyan,??????,10
13463,13464,Yale POP_MASTER,WAR-503,,0,BMY-WAR-503,228,Dari,1,3214.885986,34.0082,66.70100000000001,BMY,WAR,Posht Barghaso,1007,Waras,???,Bamyan,??????,10
13464,13465,Yale POP_MASTER,WAR-552,,0,BMY-WAR-552,42,Dari,1,2679.145996,34.0482,66.623,BMY,WAR,Raigak,1007,Waras,???,Bamyan,??????,10
13465,13466,Yale POP_MASTER,WAR-569,,0,BMY-WAR-569,67,Dari,1,3044.73291,33.9339,66.9596,BMY,WAR,Safid Khana Jahan Numa,1007,Waras,???,Bamyan,??????,10
13466,13467,Yale POP_MASTER,WAR-572,,0,BMY-WAR-572,73,Dari,1,3057.033936,34.0083,66.6246,BMY,WAR,Safidak Chashma,1007,Waras,???,Bamyan,??????,10
13467,13468,Yale POP_MASTER,WAR-573,,0,BMY-WAR-573,470,Dari,1,3532.445068,33.9442,67.0702,BMY,WAR,Samoochak,1007,Waras,???,Bamyan,??????,10
13468,13469,Yale POP_MASTER,WAR-610,,0,BMY-WAR-610,227,Dari,1,2590.1669920000004,33.9481,67.0314,BMY,WAR,Sayestan,1007,Waras,???,Bamyan,??????,10
13469,13470,Yale POP_MASTER,WAR-613,,0,BMY-WAR-613,81,Dari,1,2962.77002,34.0296,66.6359,BMY,WAR,Sena Balaq,1007,Waras,???,Bamyan,??????,10
13470,13471,Yale POP_MASTER,WAR-621,,0,BMY-WAR-621,38,Dari,1,2871.073975,34.0702,66.6638,BMY,WAR,Seya Raig (1),1007,Waras,???,Bamyan,??????,10
13471,13472,Yale POP_MASTER,WAR-630,,0,BMY-WAR-630,289,Dari,1,2883.3798829999996,33.931,66.9803,BMY,WAR,Shakhak,1007,Waras,???,Bamyan,??????,10
13472,13473,Yale POP_MASTER,WAR-662,,0,BMY-WAR-662,134,Dari,1,2759.646973,34.0448,66.6451,BMY,WAR,Sultan Baik,1007,Waras,???,Bamyan,??????,10
13473,13474,Yale POP_MASTER,WAR-664,,0,BMY-WAR-664,64,Dari,1,3222.0979,33.9518,66.9516,BMY,WAR,Tagab Barf,1007,Waras,???,Bamyan,??????,10
13474,13475,Yale POP_MASTER,WAR-668,,0,BMY-WAR-668,501,Dari,1,3130.1201170000004,33.9983,66.6625,BMY,WAR,Tala Qoulak,1007,Waras,???,Bamyan,??????,10
13475,13476,Yale POP_MASTER,WAR-699,,0,BMY-WAR-699,253,Dari,1,2634.086914,34.0588,66.601,BMY,WAR,Zardak Pairana,1007,Waras,???,Bamyan,??????,10
25656,25657,USAID AIDVillageView,YAK-002,,0,BMY-YAK-002,0,Dari,1,3115.1411129999997,35.1259,66.7071,BMY,YAK,Bedak,1003,Yakawlang,???????,Bamyan,??????,10
25657,25658,USAID AIDVillageView,YAK-005,,0,BMY-YAK-005,0,Dari,1,2325.685059,35.0142,66.4925,BMY,YAK,Doshaqadam,1003,Yakawlang,???????,Bamyan,??????,10
25658,25659,USAID AIDVillageView,YAK-006,,0,BMY-YAK-006,0,Dari,1,2069.576904,35.1323,66.3715,BMY,YAK,Ghashar,1003,Yakawlang,???????,Bamyan,??????,10
25659,25660,USAID AIDVillageView,YAK-009,,0,BMY-YAK-009,0,Dari,1,2588.441895,35.0986,66.455,BMY,YAK,Katabed,1003,Yakawlang,???????,Bamyan,??????,10
25660,25661,USAID AIDVillageView,YAK-012,,0,BMY-YAK-012,0,Dari,1,2394.282959,35.1473,66.4179,BMY,YAK,Khoiak,1003,Yakawlang,???????,Bamyan,??????,10
25661,25662,CSO AIMS Villages (ACSOR),YAK-023,,0,BMY-YAK-023,66,Dari,1,2105.9021,35.12359,66.38488000000001,BMY,YAK,Baidak (3),1003,Yakawlang,???????,Bamyan,??????,10
25700,25701,Yale POP_MASTER,YAK-050,,0,BMY-YAK-050,209,Dari,1,2216.947021,35.016999999999996,66.4694,BMY,YAK,Amrotak,1003,Yakawlang,???????,Bamyan,??????,10
25701,25702,Yale POP_MASTER,YAK-068,,0,BMY-YAK-068,274,Dari,1,2240.874023,35.0507,66.4317,BMY,YAK,Bayarak,1003,Yakawlang,???????,Bamyan,??????,10
25702,25703,Yale POP_MASTER,YAK-087,,0,BMY-YAK-087,33,Dari,1,2245.337891,35.1329,66.3496,BMY,YAK,Dahan Ghashar,1003,Yakawlang,???????,Bamyan,??????,10
25703,25704,Yale POP_MASTER,YAK-091,,0,BMY-YAK-091,102,Dari,1,2168.854004,35.0847,66.4104,BMY,YAK,Dahan Khaisrow,1003,Yakawlang,???????,Bamyan,??????,10
25704,25705,Yale POP_MASTER,YAK-101,,0,BMY-YAK-101,244,Dari,1,2203.069092,35.0438,66.4375,BMY,YAK,Dahana,1003,Yakawlang,???????,Bamyan,??????,10
25705,25706,Yale POP_MASTER,YAK-111,,0,BMY-YAK-111,19,Dari,1,2118.6201170000004,35.1498,66.3326,BMY,YAK,Dahi Yak,1003,Yakawlang,???????,Bamyan,??????,10
25706,25707,Yale POP_MASTER,YAK-115,,0,BMY-YAK-115,502,Dari,1,2213.980957,35.096,66.415,BMY,YAK,Dara Mazar,1003,Yakawlang,???????,Bamyan,??????,10
25707,25708,Yale POP_MASTER,YAK-128,,0,BMY-YAK-128,147,Dari,1,3129.951904,35.1161,66.6284,BMY,YAK,Dorashtak,1003,Yakawlang,???????,Bamyan,??????,10
25708,25709,Yale POP_MASTER,YAK-129,,0,BMY-YAK-129,226,Dari,1,2887.339111,35.3106,67.0363,BMY,YAK,Dozdan Chashma,1003,Yakawlang,???????,Bamyan,??????,10
25709,25710,Yale POP_MASTER,YAK-134,,0,BMY-YAK-134,145,Dari,1,2174.386963,35.0459,66.4474,BMY,YAK,Gahwara Sang,1003,Yakawlang,???????,Bamyan,??????,10
25710,25711,Yale POP_MASTER,YAK-136,,0,BMY-YAK-136,66,Dari,1,3061.537109,35.1068,66.6424,BMY,YAK,Gandab,1003,Yakawlang,???????,Bamyan,??????,10
25711,25712,Yale POP_MASTER,YAK-145,,0,BMY-YAK-145,423,Dari,1,2341.028076,35.0533,66.445,BMY,YAK,Ghorband,1003,Yakawlang,???????,Bamyan,??????,10
25712,25713,Yale POP_MASTER,YAK-153,,0,BMY-YAK-153,100,Dari,1,2969.2771,35.3014,66.986,BMY,YAK,Hazar Chashma Ganda Jowi,1003,Yakawlang,???????,Bamyan,??????,10
25713,25714,Yale POP_MASTER,YAK-154,,0,BMY-YAK-154,243,Dari,1,2876.625,35.2994,67.006,BMY,YAK,Hazar Chashma Paitow,1003,Yakawlang,???????,Bamyan,??????,10
25714,25715,Yale POP_MASTER,YAK-155,,0,BMY-YAK-155,163,Dari,1,3098.491943,35.3194,66.9818,BMY,YAK,Hazar Chashma Sokhta,1003,Yakawlang,???????,Bamyan,??????,10
25715,25716,Yale POP_MASTER,YAK-157,,0,BMY-YAK-157,183,Dari,1,2130.806885,35.0768,66.4179,BMY,YAK,Hessarak,1003,Yakawlang,???????,Bamyan,??????,10
25716,25717,Yale POP_MASTER,YAK-161,,0,BMY-YAK-161,135,Dari,1,2355.811035,35.0858,66.3989,BMY,YAK,Ispi Dark,1003,Yakawlang,???????,Bamyan,??????,10
25717,25718,Yale POP_MASTER,YAK-197,,0,BMY-YAK-197,147,Hazaragi,8,2198.032959,35.0272,66.47,BMY,YAK,Khowja Kafsha,1003,Yakawlang,???????,Bamyan,??????,10
25718,25719,Yale POP_MASTER,YAK-225,,0,BMY-YAK-225,49,Dari,1,2950.800049,35.0992,66.6582,BMY,YAK,Naicha Balaq,1003,Yakawlang,???????,Bamyan,??????,10
25719,25720,Yale POP_MASTER,YAK-263,,0,BMY-YAK-263,116,Dari,1,2039.81897,35.1413,66.3576,BMY,YAK,Qala Ghashar,1003,Yakawlang,???????,Bamyan,??????,10
25720,25721,Yale POP_MASTER,YAK-290,,0,BMY-YAK-290,80,Dari,1,2200.0419920000004,35.0335,66.4599,BMY,YAK,Sar Gahwara Sang,1003,Yakawlang,???????,Bamyan,??????,10
25721,25722,Yale POP_MASTER,YAK-293,,0,BMY-YAK-293,134,Dari,1,2485.033936,35.1314,66.3217,BMY,YAK,Sar Mukhtar,1003,Yakawlang,???????,Bamyan,??????,10
25722,25723,Yale POP_MASTER,YAK-297,,0,BMY-YAK-297,337,Dari,1,2555.738037,35.0919,66.689,BMY,YAK,Sar Sari,1003,Yakawlang,???????,Bamyan,??????,10
25723,25724,Yale POP_MASTER,YAK-309,,0,BMY-YAK-309,243,Dari,1,2161.89502,35.0945,66.3952,BMY,YAK,Seya Chobak,1003,Yakawlang,???????,Bamyan,??????,10
25936,25937,Yale POP_MASTER,KMD-018,,0,BMY-KMD-018,418,Dari,1,1916.512939,35.3816,67.8932,BMY,KMD,Chakari Darah,1006,Kahmard,?????,Bamyan,??????,10
25937,25938,Yale POP_MASTER,KMD-027,,0,BMY-KMD-027,1418,Dari,1,1598.516968,35.3175,67.9081,BMY,KMD,Dasht Safid,1006,Kahmard,?????,Bamyan,??????,10
25938,25939,Yale POP_MASTER,KMD-034,,0,BMY-KMD-034,298,Dari,1,2306.503906,35.3608,67.9891,BMY,KMD,Ferozak,1006,Kahmard,?????,Bamyan,??????,10
25939,25940,Yale POP_MASTER,KMD-040,,0,BMY-KMD-040,249,Dari,1,1797.81897,35.3707,67.7988,BMY,KMD,Kohna Qala,1006,Kahmard,?????,Bamyan,??????,10
25940,25941,Yale POP_MASTER,KMD-044,,0,BMY-KMD-044,1248,Dari,1,1942.8459469999998,35.3988,67.8086,BMY,KMD,Madar,1006,Kahmard,?????,Bamyan,??????,10
25941,25942,Yale POP_MASTER,KMD-045,,0,BMY-KMD-045,436,Dari,1,2003.953979,35.4167,67.811,BMY,KMD,Pai Pancha,1006,Kahmard,?????,Bamyan,??????,10
25942,25943,Yale POP_MASTER,KMD-057,,0,BMY-KMD-057,97,Dari,1,2310.559082,35.3852,67.9301,BMY,KMD,Yakhak Hulya,1006,Kahmard,?????,Bamyan,??????,10
25943,25944,Yale POP_MASTER,KMD-058,,0,BMY-KMD-058,162,Dari,1,2315.957031,35.3728,67.9703,BMY,KMD,Yakhak Sufla,1006,Kahmard,?????,Bamyan,??????,10
30760,30761,USAID AIDVillageView,YAK-001,,0,BMY-YAK-001,0,Dari,1,3211.688965,34.8696,67.2051,BMY,YAK,Bala Tang,1003,Yakawlang,???????,Bamyan,??????,10
30761,30762,USAID AIDVillageView,YAK-003,,0,BMY-YAK-003,0,Dari,1,2636.303955,34.7153,67.0144,BMY,YAK,Bum,1003,Yakawlang,???????,Bamyan,??????,10
30762,30763,USAID AIDVillageView,YAK-007,,0,BMY-YAK-007,0,Dari,1,3074.741943,34.8083,67.26899999999999,BMY,YAK,Jedachel,1003,Yakawlang,???????,Bamyan,??????,10
30763,30764,USAID AIDVillageView,YAK-011,,0,BMY-YAK-011,0,Dari,1,3239.198975,34.953,67.2584,BMY,YAK,Khakdaw,1003,Yakawlang,???????,Bamyan,??????,10
30764,30765,USAID AIDVillageView,YAK-013,,0,BMY-YAK-013,0,Dari,1,3095.804932,35.0084,67.0842,BMY,YAK,Kochokak,1003,Yakawlang,???????,Bamyan,??????,10
30765,30766,USAID AIDVillageView,YAK-015,,0,BMY-YAK-015,0,Dari,1,2519.853027,35.0728,66.6827,BMY,YAK,Payocha,1003,Yakawlang,???????,Bamyan,??????,10
30766,30767,USAID AIDVillageView,YAK-016,,0,BMY-YAK-016,0,Dari,1,2640.7109379999997,34.7339,67.047,BMY,YAK,Rashake Giro,1003,Yakawlang,???????,Bamyan,??????,10
30767,30768,USAID AIDVillageView,YAK-017,,0,BMY-YAK-017,0,Dari,1,2624.6640629999997,34.8961,66.5544,BMY,YAK,Safedsange Tayna,1003,Yakawlang,???????,Bamyan,??????,10
30768,30769,USAID AIDVillageView,YAK-019,,0,BMY-YAK-019,0,Dari,1,3113.426025,34.6599,67.2485,BMY,YAK,Shirdosh,1003,Yakawlang,???????,Bamyan,??????,10
30769,30770,USAID AIDVillageView,YAK-020,,0,BMY-YAK-020,0,Dari,1,3162.988037,35.037,66.6582,BMY,YAK,Solo,1003,Yakawlang,???????,Bamyan,??????,10
30770,30771,USAID AIDVillageView,YAK-021,,0,BMY-YAK-021,0,Dari,1,3362.422119,35.0134,66.8964,BMY,YAK,Sur Lugh,1003,Yakawlang,???????,Bamyan,??????,10
30771,30772,CSO AIMS Villages (ACSOR),YAK-024,,0,BMY-YAK-024,125,Dari,1,2982.139893,34.64785,67.21826999999999,BMY,YAK,Baidak (1),1003,Yakawlang,???????,Bamyan,??????,10
30772,30773,CSO AIMS Villages (ACSOR),YAK-025,,0,BMY-YAK-025,235,Dari,1,2900.894043,34.55627,66.80214000000001,BMY,YAK,Baidak (2),1003,Yakawlang,???????,Bamyan,??????,10
30773,30774,CSO AIMS Villages (ACSOR),YAK-026,,0,BMY-YAK-026,279,Dari,1,2620.3911129999997,34.81407,66.6648,BMY,YAK,Meyan Dahi,1003,Yakawlang,???????,Bamyan,??????,10
30774,30775,CSO AIMS Villages (ACSOR),YAK-027,,0,BMY-YAK-027,75,Dari,1,3013.811035,34.59451,66.79916999999999,BMY,YAK,Meyana Dahi,1003,Yakawlang,???????,Bamyan,??????,10
30775,30776,CSO AIMS Villages (ACSOR),YAK-028,,0,BMY-YAK-028,69,Dari,1,2918.665039,34.59322,66.80408,BMY,YAK,Qala (1),1003,Yakawlang,???????,Bamyan,??????,10
30776,30777,CSO AIMS Villages (ACSOR),YAK-029,,0,BMY-YAK-029,157,Dari,1,2795.042969,34.71914,66.72726999999999,BMY,YAK,Qala (2),1003,Yakawlang,???????,Bamyan,??????,10
30777,30778,CSO AIMS Villages (ACSOR),YAK-030,,0,BMY-YAK-030,218,Dari,1,2542.908936,34.76263,66.7348,BMY,YAK,Qala (3),1003,Yakawlang,???????,Bamyan,??????,10
30778,30779,CSO AIMS Villages (ACSOR),YAK-031,,0,BMY-YAK-031,68,Dari,1,2562.183105,34.68233,66.85483,BMY,YAK,Qala Now (1),1003,Yakawlang,???????,Bamyan,??????,10
30779,30780,CSO AIMS Villages (ACSOR),YAK-032,,0,BMY-YAK-032,188,Dari,1,2604.9379879999997,34.67344,66.89346,BMY,YAK,Qala Now (2),1003,Yakawlang,???????,Bamyan,??????,10
30780,30781,CSO AIMS Villages (ACSOR),YAK-033,,0,BMY-YAK-033,176,Dari,1,2954.944092,34.69288,67.1519,BMY,YAK,Sang Sorakh (1),1003,Yakawlang,???????,Bamyan,??????,10
30781,30782,CSO AIMS Villages (ACSOR),YAK-034,,0,BMY-YAK-034,181,Dari,1,2708.090088,34.66618,66.8754,BMY,YAK,Sang Sorakh (2),1003,Yakawlang,???????,Bamyan,??????,10
30782,30783,CSO AIMS Villages (ACSOR),YAK-035,,0,BMY-YAK-035,61,Dari,1,3039.454102,34.62853,67.10028,BMY,YAK,Seya Bomak (1),1003,Yakawlang,???????,Bamyan,??????,10
30783,30784,CSO AIMS Villages (ACSOR),YAK-036,,0,BMY-YAK-036,150,Dari,1,3072.4951170000004,34.61476,67.22285,BMY,YAK,Seya Bomak (2),1003,Yakawlang,???????,Bamyan,??????,10
30784,30785,CSO AIMS Villages (ACSOR),YAK-037,,0,BMY-YAK-037,172,Dari,1,2803.133057,34.78438,66.70260999999999,BMY,YAK,Shahristan (1),1003,Yakawlang,???????,Bamyan,??????,10
30785,30786,CSO AIMS Villages (ACSOR),YAK-038,,0,BMY-YAK-038,327,Dari,1,2956.875977,34.784440000000004,67.2236,BMY,YAK,Shahristan (2),1003,Yakawlang,???????,Bamyan,??????,10
30786,30787,CSO AIMS Villages (ACSOR),YAK-040,,0,BMY-YAK-040,50,Dari,1,3517.929932,34.58081,66.78299,BMY,YAK,Shenah,1003,Yakawlang,???????,Bamyan,??????,10
30787,30788,CSO AIMS Villages (ACSOR),YAK-041,,0,BMY-YAK-041,79,Dari,1,3119.7270510000003,34.73033,67.30798,BMY,YAK,Tawa Ghajar,1003,Yakawlang,???????,Bamyan,??????,10
30788,30789,CSO AIMS Villages (ACSOR),YAK-042,,0,BMY-YAK-042,42,Dari,1,3097.798096,34.587590000000006,66.79496,BMY,YAK,Wata Poor (1),1003,Yakawlang,???????,Bamyan,??????,10
30789,30790,CSO AIMS Villages (ACSOR),YAK-043,,0,BMY-YAK-043,96,Dari,1,2854.73999,34.67662,67.07223,BMY,YAK,Wata Poor (2),1003,Yakawlang,???????,Bamyan,??????,10
30790,30791,CSO AIMS Villages (ACSOR),BMY-002,,0,BMY-BMY-002,624,Dari,1,3319.375,34.73281,67.3863,BMY,BMY,Pai Kotal (2),1001,Bamyan,??????,Bamyan,??????,10
30792,30793,Yale POP_MASTER,YAK-044,,0,BMY-YAK-044,46,Dari,1,3231.25293,34.8918,67.2691,BMY,YAK,Ab Qoul Bala,1003,Yakawlang,???????,Bamyan,??????,10
30793,30794,Yale POP_MASTER,YAK-045,,0,BMY-YAK-045,71,Dari,1,3121.055908,34.8735,67.2654,BMY,YAK,Ab Qoul Sufla,1003,Yakawlang,???????,Bamyan,??????,10
30794,30795,Yale POP_MASTER,YAK-046,,0,BMY-YAK-046,67,Dari,1,2646.837891,34.729,66.7347,BMY,YAK,Air Koch,1003,Yakawlang,???????,Bamyan,??????,10
30795,30796,Yale POP_MASTER,YAK-047,,0,BMY-YAK-047,196,Dari,1,2561.439941,34.7413,66.9717,BMY,YAK,Akhondan,1003,Yakawlang,???????,Bamyan,??????,10
30796,30797,Yale POP_MASTER,YAK-048,,0,BMY-YAK-048,122,Dari,1,2854.000977,34.6727,67.0322,BMY,YAK,Ala Qala,1003,Yakawlang,???????,Bamyan,??????,10
30797,30798,Yale POP_MASTER,YAK-049,,0,BMY-YAK-049,218,Dari,1,2396.4689940000003,35.0252,66.6327,BMY,YAK,Ali Jan,1003,Yakawlang,???????,Bamyan,??????,10
30798,30799,Yale POP_MASTER,YAK-051,,0,BMY-YAK-051,180,Dari,1,3324.825928,34.5805,66.7217,BMY,YAK,Aptoo,1003,Yakawlang,???????,Bamyan,??????,10
30799,30800,Yale POP_MASTER,YAK-052,,0,BMY-YAK-052,166,Dari,1,2491.0859379999997,34.7551,66.7582,BMY,YAK,Aral,1003,Yakawlang,???????,Bamyan,??????,10
30800,30801,Yale POP_MASTER,YAK-053,,0,BMY-YAK-053,96,Dari,1,2616.47998,34.6714,66.8893,BMY,YAK,Arg Zary,1003,Yakawlang,???????,Bamyan,??????,10
30801,30802,Yale POP_MASTER,YAK-054,,0,BMY-YAK-054,74,Dari,1,3097.431885,35.0158,67.1391,BMY,YAK,Arghosha,1003,Yakawlang,???????,Bamyan,??????,10
30802,30803,Yale POP_MASTER,YAK-055,,0,BMY-YAK-055,30,Dari,1,3391.429932,34.5969,66.7481,BMY,YAK,Aspgoli,1003,Yakawlang,???????,Bamyan,??????,10
30803,30804,Yale POP_MASTER,YAK-056,,0,BMY-YAK-056,114,Dari,1,2476.033936,34.7662,66.7657,BMY,YAK,Bagh Arbab Ya Khawalak,1003,Yakawlang,???????,Bamyan,??????,10
30804,30805,Yale POP_MASTER,YAK-057,,0,BMY-YAK-057,153,Dari,1,2843.4838870000003,34.6071,66.8976,BMY,YAK,Baghalak,1003,Yakawlang,???????,Bamyan,??????,10
30805,30806,Yale POP_MASTER,YAK-058,,0,BMY-YAK-058,213,Dari,1,3032.498047,34.7893,66.8785,BMY,YAK,Baghalak Hulya,1003,Yakawlang,???????,Bamyan,??????,10
30806,30807,Yale POP_MASTER,YAK-059,,0,BMY-YAK-059,287,Dari,1,2884.0939940000003,34.789,66.8648,BMY,YAK,Baghalak Sufla,1003,Yakawlang,???????,Bamyan,??????,10
30807,30808,Yale POP_MASTER,YAK-060,,0,BMY-YAK-060,358,Dari,1,2533.385986,34.7404,66.9377,BMY,YAK,Baid Moshkai,1003,Yakawlang,???????,Bamyan,??????,10
30808,30809,Yale POP_MASTER,YAK-061,,0,BMY-YAK-061,75,Dari,1,2471.325928,34.7385,66.8031,BMY,YAK,Baigal Joy Bala,1003,Yakawlang,???????,Bamyan,??????,10
30809,30810,Yale POP_MASTER,YAK-062,,0,BMY-YAK-062,31,Dari,1,3297.7189940000003,34.6129,67.0506,BMY,YAK,Bairly,1003,Yakawlang,???????,Bamyan,??????,10
30810,30811,Yale POP_MASTER,YAK-063,,0,BMY-YAK-063,444,Dari,1,3183.427002,34.6339,66.8028,BMY,YAK,Bakak Bala,1003,Yakawlang,???????,Bamyan,??????,10
30811,30812,Yale POP_MASTER,YAK-064,,0,BMY-YAK-064,557,Dari,1,2832.864014,34.6396,66.8371,BMY,YAK,Bakak Payen,1003,Yakawlang,???????,Bamyan,??????,10
30812,30813,Yale POP_MASTER,YAK-066,,0,BMY-YAK-066,175,Dari,1,2792.565918,34.7205,66.7327,BMY,YAK,Bala Sai,1003,Yakawlang,???????,Bamyan,??????,10
30813,30814,Yale POP_MASTER,YAK-067,,0,BMY-YAK-067,85,Dari,1,3082.131104,34.8136,66.8555,BMY,YAK,Bato Ye,1003,Yakawlang,???????,Bamyan,??????,10
30814,30815,Yale POP_MASTER,YAK-069,,0,BMY-YAK-069,906,Dari,1,2564.010986,34.7333,66.9683,BMY,YAK,Bazar Yakawulang,1003,Yakawlang,???????,Bamyan,??????,10
30815,30816,Yale POP_MASTER,YAK-070,,0,BMY-YAK-070,105,Dari,1,2733.986084,34.6849,67.0536,BMY,YAK,Boghondak,1003,Yakawlang,???????,Bamyan,??????,10
30816,30817,Yale POP_MASTER,YAK-071,,0,BMY-YAK-071,111,Dari,1,3017.3359379999997,34.7571,67.2184,BMY,YAK,Boghondak Chashma,1003,Yakawlang,???????,Bamyan,??????,10
30817,30818,Yale POP_MASTER,YAK-072,,0,BMY-YAK-072,56,Dari,1,2397.0,35.0399,66.64,BMY,YAK,Boghri,1003,Yakawlang,???????,Bamyan,??????,10
30818,30819,Yale POP_MASTER,YAK-073,,0,BMY-YAK-073,11,Dari,1,2915.403076,34.5743,66.851,BMY,YAK,Bom,1003,Yakawlang,???????,Bamyan,??????,10
30819,30820,Yale POP_MASTER,YAK-074,,0,BMY-YAK-074,63,Dari,1,3068.656982,34.6593,67.0556,BMY,YAK,Bom Kakul,1003,Yakawlang,???????,Bamyan,??????,10
30820,30821,Yale POP_MASTER,YAK-075,,0,BMY-YAK-075,286,Dari,1,3279.135986,34.7164,67.3408,BMY,YAK,Borka,1003,Yakawlang,???????,Bamyan,??????,10
30821,30822,Yale POP_MASTER,YAK-076,,0,BMY-YAK-076,50,Dari,1,2873.700928,34.5882,66.8195,BMY,YAK,Bota Zar,1003,Yakawlang,???????,Bamyan,??????,10
30822,30823,Yale POP_MASTER,YAK-077,,0,BMY-YAK-077,679,Dari,1,2735.139893,34.8765,66.5939,BMY,YAK,Chahil Borj,1003,Yakawlang,???????,Bamyan,??????,10
30823,30824,Yale POP_MASTER,YAK-078,,0,BMY-YAK-078,168,Dari,1,2800.333984,34.7045,67.1487,BMY,YAK,Char Dewaly,1003,Yakawlang,???????,Bamyan,??????,10
30824,30825,Yale POP_MASTER,YAK-079,,0,BMY-YAK-079,249,Dari,1,2585.863037,34.7578,66.7201,BMY,YAK,Char Dewar,1003,Yakawlang,???????,Bamyan,??????,10
30825,30826,Yale POP_MASTER,YAK-080,,0,BMY-YAK-080,172,Dari,1,3279.054932,34.8841,67.0932,BMY,YAK,Chashma Pahlokaf Lezak,1003,Yakawlang,???????,Bamyan,??????,10
30826,30827,Yale POP_MASTER,YAK-081,,0,BMY-YAK-081,66,Dari,1,2672.554932,34.715,66.9678,BMY,YAK,Chashma Sheren,1003,Yakawlang,???????,Bamyan,??????,10
30827,30828,Yale POP_MASTER,YAK-082,,0,BMY-YAK-082,177,Dari,1,2916.878906,34.6722,67.0445,BMY,YAK,Cheahl Dukhtaran,1003,Yakawlang,???????,Bamyan,??????,10
30828,30829,Yale POP_MASTER,YAK-083,,0,BMY-YAK-083,40,Dari,1,2587.842041,34.8354,66.6863,BMY,YAK,Chowkak,1003,Yakawlang,???????,Bamyan,??????,10
30829,30830,Yale POP_MASTER,YAK-084,,0,BMY-YAK-084,322,Dari,1,2537.735107,34.7143,66.8165,BMY,YAK,Dahan Char Dahi Dasht,1003,Yakawlang,???????,Bamyan,??????,10
30830,30831,Yale POP_MASTER,YAK-085,,0,BMY-YAK-085,305,Dari,1,2256.270996,34.9588,66.5486,BMY,YAK,Dahan Dara Chasht,1003,Yakawlang,???????,Bamyan,??????,10
30831,30832,Yale POP_MASTER,YAK-086,,0,BMY-YAK-086,99,Dari,1,2800.183105,34.593,66.8477,BMY,YAK,Dahan Dargashtak,1003,Yakawlang,???????,Bamyan,??????,10
30832,30833,Yale POP_MASTER,YAK-088,,0,BMY-YAK-088,131,Dari,1,2472.23291,34.7311,66.8155,BMY,YAK,Dahan Jaghori,1003,Yakawlang,???????,Bamyan,??????,10
30833,30834,Yale POP_MASTER,YAK-089,,0,BMY-YAK-089,540,Dari,1,2526.5939940000003,34.7231,66.8578,BMY,YAK,Dahan Kank,1003,Yakawlang,???????,Bamyan,??????,10
30834,30835,Yale POP_MASTER,YAK-090,,0,BMY-YAK-090,157,Dari,1,2777.4580079999996,34.6036,66.885,BMY,YAK,Dahan Kech,1003,Yakawlang,???????,Bamyan,??????,10
30835,30836,Yale POP_MASTER,YAK-092,,0,BMY-YAK-092,315,Dari,1,2239.9838870000003,34.9568,66.5328,BMY,YAK,Dahan Morghi,1003,Yakawlang,???????,Bamyan,??????,10
30836,30837,Yale POP_MASTER,YAK-093,,0,BMY-YAK-093,21,Dari,1,2891.616943,34.5718,66.819,BMY,YAK,Dahan Naw Shor,1003,Yakawlang,???????,Bamyan,??????,10
30837,30838,Yale POP_MASTER,YAK-094,,0,BMY-YAK-094,52,Dari,1,2371.990967,34.919000000000004,66.6181,BMY,YAK,Dahan Qoul Chahil Borj,1003,Yakawlang,???????,Bamyan,??????,10
30838,30839,Yale POP_MASTER,YAK-095,,0,BMY-YAK-095,246,Dari,1,2706.37793,34.6248,66.8979,BMY,YAK,Dahan Sayer Dagh,1003,Yakawlang,???????,Bamyan,??????,10
30839,30840,Yale POP_MASTER,YAK-096,,0,BMY-YAK-096,333,Dari,1,2366.326904,34.9555,66.5649,BMY,YAK,Dahan Seya Darah,1003,Yakawlang,???????,Bamyan,??????,10
30840,30841,Yale POP_MASTER,YAK-097,,0,BMY-YAK-097,178,Dari,1,2621.51001,34.7394,66.7206,BMY,YAK,Dahan Sorkh Baid,1003,Yakawlang,???????,Bamyan,??????,10
30841,30842,Yale POP_MASTER,YAK-098,,0,BMY-YAK-098,100,Dari,1,2478.114014,34.7535,66.7632,BMY,YAK,Dahan Tarnook,1003,Yakawlang,???????,Bamyan,??????,10
30842,30843,Yale POP_MASTER,YAK-099,,0,BMY-YAK-099,53,Dari,1,2471.38208,34.7479,66.8102,BMY,YAK,Dahan Tawa,1003,Yakawlang,???????,Bamyan,??????,10
30843,30844,Yale POP_MASTER,YAK-100,,0,BMY-YAK-100,427,Dari,1,2293.573975,34.9538,66.578,BMY,YAK,Dahan Zoleaj,1003,Yakawlang,???????,Bamyan,??????,10
30844,30845,Yale POP_MASTER,YAK-102,,0,BMY-YAK-102,612,Dari,1,2465.221924,34.7827,66.7625,BMY,YAK,Dahanah Gazak,1003,Yakawlang,???????,Bamyan,??????,10
30845,30846,Yale POP_MASTER,YAK-103,,0,BMY-YAK-103,102,Dari,1,3246.636963,35.0603,67.1153,BMY,YAK,Dahi Baybod,1003,Yakawlang,???????,Bamyan,??????,10
30846,30847,Yale POP_MASTER,YAK-104,,0,BMY-YAK-104,108,Dari,1,2767.590088,34.6807,67.0768,BMY,YAK,Dahi Mir,1003,Yakawlang,???????,Bamyan,??????,10
30847,30848,Yale POP_MASTER,YAK-105,,0,BMY-YAK-105,200,Dari,1,2826.431885,34.6889,67.0667,BMY,YAK,Dahi Now,1003,Yakawlang,???????,Bamyan,??????,10
30848,30849,Yale POP_MASTER,YAK-106,,0,BMY-YAK-106,110,Dari,1,3005.0859379999997,34.5667,66.8399,BMY,YAK,Dahi Paitoo,1003,Yakawlang,???????,Bamyan,??????,10
30849,30850,Yale POP_MASTER,YAK-107,,0,BMY-YAK-107,95,Dari,1,2609.863037,34.6775,66.8405,BMY,YAK,Dahi Payen Kota Sadat,1003,Yakawlang,???????,Bamyan,??????,10
30850,30851,Yale POP_MASTER,YAK-108,,0,BMY-YAK-108,876,Dari,1,2484.834961,34.7358,66.8366,BMY,YAK,Dahi Sorkh,1003,Yakawlang,???????,Bamyan,??????,10
30851,30852,Yale POP_MASTER,YAK-109,,0,BMY-YAK-109,156,Dari,1,2503.3479,35.0654,66.6715,BMY,YAK,Dahi Sorkhak,1003,Yakawlang,???????,Bamyan,??????,10
30852,30853,Yale POP_MASTER,YAK-110,,0,BMY-YAK-110,211,Dari,1,2522.829102,34.7393,66.8906,BMY,YAK,Dahi Tarchi,1003,Yakawlang,???????,Bamyan,??????,10
30853,30854,Yale POP_MASTER,YAK-112,,0,BMY-YAK-112,19,Dari,1,2978.86792,34.755,66.658,BMY,YAK,Dahi Yak,1003,Yakawlang,???????,Bamyan,??????,10
30854,30855,Yale POP_MASTER,YAK-113,,0,BMY-YAK-113,359,Dari,1,2827.237061,34.7031,66.8024,BMY,YAK,Dahi Yalak Kata Tala Bayanan,1003,Yakawlang,???????,Bamyan,??????,10
30855,30856,Yale POP_MASTER,YAK-114,,0,BMY-YAK-114,196,Dari,1,2543.445068,34.8233,66.676,BMY,YAK,Dam Dasht Sabz Darah,1003,Yakawlang,???????,Bamyan,??????,10
30856,30857,Yale POP_MASTER,YAK-117,,0,BMY-YAK-117,65,Dari,1,2401.616943,34.8394,66.7239,BMY,YAK,Dara Zowar,1003,Yakawlang,???????,Bamyan,??????,10
30857,30858,Yale POP_MASTER,YAK-118,,0,BMY-YAK-118,161,Dari,1,2593.917969,34.8009,66.7022,BMY,YAK,Dasht Daga,1003,Yakawlang,???????,Bamyan,??????,10
30858,30859,Yale POP_MASTER,YAK-119,,0,BMY-YAK-119,75,Dari,1,2607.056885,34.7955,66.6995,BMY,YAK,Dasht Ghaibi,1003,Yakawlang,???????,Bamyan,??????,10
30859,30860,Yale POP_MASTER,YAK-120,,0,BMY-YAK-120,300,Dari,1,2612.054932,34.7493,66.7135,BMY,YAK,Dasht Hulya,1003,Yakawlang,???????,Bamyan,??????,10
30860,30861,Yale POP_MASTER,YAK-121,,0,BMY-YAK-121,775,Dari,1,2563.778076,34.84,66.6481,BMY,YAK,Dasht Sachak,1003,Yakawlang,???????,Bamyan,??????,10
30861,30862,Yale POP_MASTER,YAK-122,,0,BMY-YAK-122,150,Dari,1,2485.717041,34.7555,66.7367,BMY,YAK,Dasht Sufla,1003,Yakawlang,???????,Bamyan,??????,10
30862,30863,Yale POP_MASTER,YAK-123,,0,BMY-YAK-123,208,Dari,1,2863.614014,34.8137,67.15,BMY,YAK,Deow Khana,1003,Yakawlang,???????,Bamyan,??????,10
30863,30864,Yale POP_MASTER,YAK-124,,0,BMY-YAK-124,139,Dari,1,2467.6721190000003,34.7461,66.7974,BMY,YAK,Do Abi,1003,Yakawlang,???????,Bamyan,??????,10
30864,30865,Yale POP_MASTER,YAK-125,,0,BMY-YAK-125,239,Dari,1,2903.634033,34.6816,67.1877,BMY,YAK,Do Borja,1003,Yakawlang,???????,Bamyan,??????,10
30865,30866,Yale POP_MASTER,YAK-127,,0,BMY-YAK-127,50,Dari,1,2893.4021,34.6352,66.8284,BMY,YAK,Dodak,1003,Yakawlang,???????,Bamyan,??????,10
30866,30867,Yale POP_MASTER,YAK-130,,0,BMY-YAK-130,143,Dari,1,2365.1560059999997,35.006,66.616,BMY,YAK,Eail Boyak,1003,Yakawlang,???????,Bamyan,??????,10
30867,30868,Yale POP_MASTER,YAK-131,,0,BMY-YAK-131,101,Dari,1,2489.158936,34.7376,66.8537,BMY,YAK,Ealdo Dar,1003,Yakawlang,???????,Bamyan,??????,10
30868,30869,Yale POP_MASTER,YAK-132,,0,BMY-YAK-132,588,Dari,1,2673.466064,34.747,67.0745,BMY,YAK,Fairoz Bahar,1003,Yakawlang,???????,Bamyan,??????,10
30869,30870,Yale POP_MASTER,YAK-133,,0,BMY-YAK-133,194,Dari,1,2682.571045,34.7486,67.0698,BMY,YAK,Feroz Bahar Samadi,1003,Yakawlang,???????,Bamyan,??????,10
30870,30871,Yale POP_MASTER,YAK-135,,0,BMY-YAK-135,361,Dari,1,2573.951904,34.8128,66.7035,BMY,YAK,Galalak,1003,Yakawlang,???????,Bamyan,??????,10
30871,30872,Yale POP_MASTER,YAK-137,,0,BMY-YAK-137,117,Dari,1,2985.774902,34.5334,66.7866,BMY,YAK,Gandah Kotal,1003,Yakawlang,???????,Bamyan,??????,10
30872,30873,Yale POP_MASTER,YAK-138,,0,BMY-YAK-138,209,Dari,1,2511.197998,34.7382,66.914,BMY,YAK,Gard Baid,1003,Yakawlang,???????,Bamyan,??????,10
30873,30874,Yale POP_MASTER,YAK-139,,0,BMY-YAK-139,139,Dari,1,2610.165039,34.7285,66.7631,BMY,YAK,Gardana Anbar Patoo,1003,Yakawlang,???????,Bamyan,??????,10
30874,30875,Yale POP_MASTER,YAK-140,,0,BMY-YAK-140,110,Dari,1,2723.388916,34.7172,66.7613,BMY,YAK,Gayro Gardana Anbar,1003,Yakawlang,???????,Bamyan,??????,10
30875,30876,Yale POP_MASTER,YAK-141,,0,BMY-YAK-141,330,Dari,1,3237.4379879999997,34.7231,67.3428,BMY,YAK,Gharak,1003,Yakawlang,???????,Bamyan,??????,10
30876,30877,Yale POP_MASTER,YAK-142,,0,BMY-YAK-142,95,Dari,1,2755.3330079999996,34.7872,67.0646,BMY,YAK,Ghazi,1003,Yakawlang,???????,Bamyan,??????,10
30877,30878,Yale POP_MASTER,YAK-143,,0,BMY-YAK-143,65,Dari,1,2583.209961,34.7284,66.8866,BMY,YAK,Ghonda Sang,1003,Yakawlang,???????,Bamyan,??????,10
30878,30879,Yale POP_MASTER,YAK-146,,0,BMY-YAK-146,92,Dari,1,2507.6201170000004,34.8211,66.6807,BMY,YAK,Giro,1003,Yakawlang,???????,Bamyan,??????,10
30879,30880,Yale POP_MASTER,YAK-147,,0,BMY-YAK-147,112,Dari,1,2835.6669920000004,34.8116,67.0619,BMY,YAK,Gom Ab,1003,Yakawlang,???????,Bamyan,??????,10
30880,30881,Yale POP_MASTER,YAK-148,,0,BMY-YAK-148,143,Dari,1,2565.993896,34.7371,66.9894,BMY,YAK,Gombazi,1003,Yakawlang,???????,Bamyan,??????,10
30881,30882,Yale POP_MASTER,YAK-149,,0,BMY-YAK-149,136,Dari,1,2707.871094,34.7372,67.1016,BMY,YAK,Gor Gak,1003,Yakawlang,???????,Bamyan,??????,10
30882,30883,Yale POP_MASTER,YAK-151,,0,BMY-YAK-151,117,Dari,1,2710.775879,34.7406,67.0921,BMY,YAK,Gowhar Gen,1003,Yakawlang,???????,Bamyan,??????,10
30883,30884,Yale POP_MASTER,YAK-152,,0,BMY-YAK-152,205,Dari,1,3011.913086,34.6465,67.2229,BMY,YAK,Halwa Qoul,1003,Yakawlang,???????,Bamyan,??????,10
30884,30885,Yale POP_MASTER,YAK-156,,0,BMY-YAK-156,175,Dari,1,2469.5471190000003,34.7528,66.7919,BMY,YAK,Hazar Kushta,1003,Yakawlang,???????,Bamyan,??????,10
30885,30886,Yale POP_MASTER,YAK-158,,0,BMY-YAK-158,152,Dari,1,2806.468018,34.9586,66.5869,BMY,YAK,Howz Khoshk,1003,Yakawlang,???????,Bamyan,??????,10
30886,30887,Yale POP_MASTER,YAK-159,,0,BMY-YAK-159,80,Dari,1,2963.250977,34.7139,66.7447,BMY,YAK,Howz Lakhak,1003,Yakawlang,???????,Bamyan,??????,10
30887,30888,Yale POP_MASTER,YAK-160,,0,BMY-YAK-160,111,Dari,1,2981.8120120000003,34.7638,67.1283,BMY,YAK,Howz Shah,1003,Yakawlang,???????,Bamyan,??????,10
30888,30889,Yale POP_MASTER,YAK-162,,0,BMY-YAK-162,165,Dari,1,2661.894043,34.7041,67.0215,BMY,YAK,Jamhak,1003,Yakawlang,???????,Bamyan,??????,10
30889,30890,Yale POP_MASTER,YAK-164,,0,BMY-YAK-164,52,Dari,1,2909.5271,34.8212,67.1919,BMY,YAK,Jarokashan Hulya,1003,Yakawlang,???????,Bamyan,??????,10
30890,30891,Yale POP_MASTER,YAK-165,,0,BMY-YAK-165,95,Dari,1,2875.269043,34.82,67.1826,BMY,YAK,Jarokashan Sufla,1003,Yakawlang,???????,Bamyan,??????,10
30891,30892,Yale POP_MASTER,YAK-166,,0,BMY-YAK-166,126,Dari,1,2364.070068,34.8673,66.6906,BMY,YAK,Jeydan,1003,Yakawlang,???????,Bamyan,??????,10
30892,30893,Yale POP_MASTER,YAK-167,,0,BMY-YAK-167,271,Dari,1,3042.180908,34.6441,67.1828,BMY,YAK,Joshang,1003,Yakawlang,???????,Bamyan,??????,10
30893,30894,Yale POP_MASTER,YAK-168,,0,BMY-YAK-168,127,Dari,1,2923.478027,34.6818,67.2154,BMY,YAK,Jowi Now,1003,Yakawlang,???????,Bamyan,??????,10
30894,30895,Yale POP_MASTER,YAK-169,,0,BMY-YAK-169,46,Dari,1,2893.354004,34.6143,66.969,BMY,YAK,Kadlak,1003,Yakawlang,???????,Bamyan,??????,10
30895,30896,Yale POP_MASTER,YAK-170,,0,BMY-YAK-170,93,Dari,1,2790.5419920000004,34.7454,66.7404,BMY,YAK,Kaji,1003,Yakawlang,???????,Bamyan,??????,10
30896,30897,Yale POP_MASTER,YAK-172,,0,BMY-YAK-172,176,Dari,1,2619.239014,34.6619,66.8886,BMY,YAK,Kal Khak,1003,Yakawlang,???????,Bamyan,??????,10
30897,30898,Yale POP_MASTER,YAK-173,,0,BMY-YAK-173,133,Dari,1,2988.634033,34.6082,66.9973,BMY,YAK,Kalan Dahi,1003,Yakawlang,???????,Bamyan,??????,10
30898,30899,Yale POP_MASTER,YAK-174,,0,BMY-YAK-174,444,Dari,1,3274.5471190000003,34.711,67.3188,BMY,YAK,Kalta Toop,1003,Yakawlang,???????,Bamyan,??????,10
30899,30900,Yale POP_MASTER,YAK-175,,0,BMY-YAK-175,114,Dari,1,2878.87793,34.5894,66.8796,BMY,YAK,Kamar,1003,Yakawlang,???????,Bamyan,??????,10
30900,30901,Yale POP_MASTER,YAK-176,,0,BMY-YAK-176,115,Dari,1,3095.804932,34.5927,66.7749,BMY,YAK,Kan Sorb,1003,Yakawlang,???????,Bamyan,??????,10
30901,30902,Yale POP_MASTER,YAK-177,,0,BMY-YAK-177,24,Dari,1,3018.459961,34.6609,67.033,BMY,YAK,Kandaha,1003,Yakawlang,???????,Bamyan,??????,10
30902,30903,Yale POP_MASTER,YAK-178,,0,BMY-YAK-178,544,Dari,1,2985.541016,34.8539,67.2648,BMY,YAK,Kaparak,1003,Yakawlang,???????,Bamyan,??????,10
30903,30904,Yale POP_MASTER,YAK-179,,0,BMY-YAK-179,96,Dari,1,3048.271973,34.6626,67.1538,BMY,YAK,Kar Gah,1003,Yakawlang,???????,Bamyan,??????,10
30904,30905,Yale POP_MASTER,YAK-180,,0,BMY-YAK-180,676,Dari,1,2549.73999,34.7418,66.9546,BMY,YAK,Kata Khana,1003,Yakawlang,???????,Bamyan,??????,10
30905,30906,Yale POP_MASTER,YAK-181,,0,BMY-YAK-181,211,Dari,1,2789.818115,34.7085,67.1433,BMY,YAK,Kata Qala,1003,Yakawlang,???????,Bamyan,??????,10
30906,30907,Yale POP_MASTER,YAK-184,,0,BMY-YAK-184,387,Dari,1,3337.0310059999997,34.5958,67.1796,BMY,YAK,Khak Cheghel,1003,Yakawlang,???????,Bamyan,??????,10
30907,30908,Yale POP_MASTER,YAK-185,,0,BMY-YAK-185,304,Dari,1,3241.787109,34.9375,67.2669,BMY,YAK,Khak Doo,1003,Yakawlang,???????,Bamyan,??????,10
30908,30909,Yale POP_MASTER,YAK-186,,0,BMY-YAK-186,630,Dari,1,2475.094971,34.7693,66.779,BMY,YAK,Khak Matak,1003,Yakawlang,???????,Bamyan,??????,10
30909,30910,Yale POP_MASTER,YAK-188,,0,BMY-YAK-188,39,Dari,1,2304.3588870000003,34.9102,66.63600000000001,BMY,YAK,Kham Bazargan,1003,Yakawlang,???????,Bamyan,??????,10
30910,30911,Yale POP_MASTER,YAK-189,,0,BMY-YAK-189,166,Dari,1,2486.957031,34.7784,66.7711,BMY,YAK,Kham Garmak,1003,Yakawlang,???????,Bamyan,??????,10
30911,30912,Yale POP_MASTER,YAK-190,,0,BMY-YAK-190,248,Dari,1,2523.850098,34.7323,66.9073,BMY,YAK,Kham Mastana,1003,Yakawlang,???????,Bamyan,??????,10
30912,30913,Yale POP_MASTER,YAK-192,,0,BMY-YAK-192,92,Dari,1,2568.7739260000003,34.7536,66.7265,BMY,YAK,Khar Qolba,1003,Yakawlang,???????,Bamyan,??????,10
30913,30914,Yale POP_MASTER,YAK-193,,0,BMY-YAK-193,133,Dari,1,2783.854004,34.729,67.1278,BMY,YAK,Kharistan,1003,Yakawlang,???????,Bamyan,??????,10
30914,30915,Yale POP_MASTER,YAK-194,,0,BMY-YAK-194,177,Dari,1,3343.63208,34.9244,67.0633,BMY,YAK,Khorjen Balaq Hulya,1003,Yakawlang,???????,Bamyan,??????,10
30915,30916,Yale POP_MASTER,YAK-195,,0,BMY-YAK-195,177,Dari,1,3238.309082,34.9075,67.0748,BMY,YAK,Khorjen Balaq Sufla,1003,Yakawlang,???????,Bamyan,??????,10
30916,30917,Yale POP_MASTER,YAK-196,,0,BMY-YAK-196,384,Dari,1,2794.001953,34.8552,66.6156,BMY,YAK,Khowja Baidak,1003,Yakawlang,???????,Bamyan,??????,10
30917,30918,Yale POP_MASTER,YAK-199,,0,BMY-YAK-199,206,Dari,1,2675.99707,34.7783,66.6891,BMY,YAK,Khushk Darah,1003,Yakawlang,???????,Bamyan,??????,10
30918,30919,Yale POP_MASTER,YAK-200,,0,BMY-YAK-200,327,Dari,1,3252.037109,34.9456,67.0595,BMY,YAK,Kochakak Nakhshi Zamin Rajab,1003,Yakawlang,???????,Bamyan,??????,10
30919,30920,Yale POP_MASTER,YAK-201,,0,BMY-YAK-201,141,Dari,1,2961.9379879999997,34.7693,67.2322,BMY,YAK,Koh Kinik,1003,Yakawlang,???????,Bamyan,??????,10
30920,30921,Yale POP_MASTER,YAK-202,,0,BMY-YAK-202,270,Dari,1,2609.303955,34.6687,66.8321,BMY,YAK,Kot Bala Sar Kanak,1003,Yakawlang,???????,Bamyan,??????,10
30921,30922,Yale POP_MASTER,YAK-203,,0,BMY-YAK-203,134,Dari,1,2617.184082,34.6738,66.8353,BMY,YAK,Kot Som,1003,Yakawlang,???????,Bamyan,??????,10
30922,30923,Yale POP_MASTER,YAK-204,,0,BMY-YAK-204,31,Dari,1,3426.259033,34.595,66.7216,BMY,YAK,Kotah Sokhtah,1003,Yakawlang,???????,Bamyan,??????,10
30923,30924,Yale POP_MASTER,YAK-205,,0,BMY-YAK-205,119,Dari,1,2836.426025,34.814,67.1054,BMY,YAK,Kotak,1003,Yakawlang,???????,Bamyan,??????,10
30924,30925,Yale POP_MASTER,YAK-206,,0,BMY-YAK-206,328,Dari,1,2564.677979,34.7405,66.9822,BMY,YAK,Kushkak,1003,Yakawlang,???????,Bamyan,??????,10
30925,30926,Yale POP_MASTER,YAK-207,,0,BMY-YAK-207,188,Dari,1,2567.237061,34.7003,66.9143,BMY,YAK,Lailwar,1003,Yakawlang,???????,Bamyan,??????,10
30926,30927,Yale POP_MASTER,YAK-208,,0,BMY-YAK-208,291,Dari,1,3039.3479,34.6539,67.1301,BMY,YAK,Larbaizan,1003,Yakawlang,???????,Bamyan,??????,10
30927,30928,Yale POP_MASTER,YAK-209,,0,BMY-YAK-209,375,Dari,1,2611.626953,34.8117,66.6633,BMY,YAK,Ligan,1003,Yakawlang,???????,Bamyan,??????,10
30928,30929,Yale POP_MASTER,YAK-210,,0,BMY-YAK-210,236,Dari,1,2595.3278809999997,34.6796,66.8983,BMY,YAK,Lorcha,1003,Yakawlang,???????,Bamyan,??????,10
30929,30930,Yale POP_MASTER,YAK-211,,0,BMY-YAK-211,180,Dari,1,2507.413086,34.7238,66.8156,BMY,YAK,Lowr,1003,Yakawlang,???????,Bamyan,??????,10
30930,30931,Yale POP_MASTER,YAK-212,,0,BMY-YAK-212,127,Dari,1,2523.464111,34.746,66.7217,BMY,YAK,Lowr Zard,1003,Yakawlang,???????,Bamyan,??????,10
30931,30932,Yale POP_MASTER,YAK-213,,0,BMY-YAK-213,112,Dari,1,2477.520996,34.7764,66.747,BMY,YAK,Maidanak,1003,Yakawlang,???????,Bamyan,??????,10
30932,30933,Yale POP_MASTER,YAK-214,,0,BMY-YAK-214,122,Dari,1,2909.143066,34.5513,66.7976,BMY,YAK,Mandik,1003,Yakawlang,???????,Bamyan,??????,10
30933,30934,Yale POP_MASTER,YAK-215,,0,BMY-YAK-215,329,Dari,1,2636.3911129999997,34.8052,66.6646,BMY,YAK,Manteq,1003,Yakawlang,???????,Bamyan,??????,10
30934,30935,Yale POP_MASTER,YAK-216,,0,BMY-YAK-216,125,Dari,1,2619.39502,34.8065,66.6571,BMY,YAK,Marg Shawa Dahi Kok,1003,Yakawlang,???????,Bamyan,??????,10
30935,30936,Yale POP_MASTER,YAK-217,,0,BMY-YAK-217,491,Dari,1,2470.082031,34.7658,66.7875,BMY,YAK,Marof,1003,Yakawlang,???????,Bamyan,??????,10
30936,30937,Yale POP_MASTER,YAK-218,,0,BMY-YAK-218,257,Dari,1,2501.76001,34.7312,66.8764,BMY,YAK,Marsi,1003,Yakawlang,???????,Bamyan,??????,10
30937,30938,Yale POP_MASTER,YAK-219,,0,BMY-YAK-219,185,Dari,1,2926.012939,34.6106,66.9769,BMY,YAK,Meyan Qoul,1003,Yakawlang,???????,Bamyan,??????,10
30938,30939,Yale POP_MASTER,YAK-220,,0,BMY-YAK-220,104,Dari,1,2821.974121,34.7007,67.1467,BMY,YAK,Minar,1003,Yakawlang,???????,Bamyan,??????,10
30939,30940,Yale POP_MASTER,YAK-221,,0,BMY-YAK-221,405,Dari,1,2707.871094,34.652,66.9095,BMY,YAK,Mohammad Sharaf,1003,Yakawlang,???????,Bamyan,??????,10
30940,30941,Yale POP_MASTER,YAK-222,,0,BMY-YAK-222,149,Dari,1,2587.884033,34.7304,66.998,BMY,YAK,Monir Yak,1003,Yakawlang,???????,Bamyan,??????,10
30941,30942,Yale POP_MASTER,YAK-223,,0,BMY-YAK-223,52,Dari,1,3116.00708,34.5895,66.8971,BMY,YAK,Mosh Khank,1003,Yakawlang,???????,Bamyan,??????,10
30942,30943,Yale POP_MASTER,YAK-224,,0,BMY-YAK-224,556,Dari,1,2584.875,34.7334,66.9518,BMY,YAK,Na Yak,1003,Yakawlang,???????,Bamyan,??????,10
30943,30944,Yale POP_MASTER,YAK-226,,0,BMY-YAK-226,59,Dari,1,3076.552979,34.6396,66.8698,BMY,YAK,Naik Zary,1003,Yakawlang,???????,Bamyan,??????,10
30944,30945,Yale POP_MASTER,YAK-227,,0,BMY-YAK-227,109,Dari,1,2776.957031,34.714,67.1362,BMY,YAK,Namadak Hulya,1003,Yakawlang,???????,Bamyan,??????,10
30945,30946,Yale POP_MASTER,YAK-228,,0,BMY-YAK-228,160,Dari,1,2755.998047,34.7227,67.1319,BMY,YAK,Namadak Sufla,1003,Yakawlang,???????,Bamyan,??????,10
30946,30947,Yale POP_MASTER,YAK-229,,0,BMY-YAK-229,81,Dari,1,3062.138916,34.5955,66.8948,BMY,YAK,Naqoum,1003,Yakawlang,???????,Bamyan,??????,10
30947,30948,Yale POP_MASTER,YAK-230,,0,BMY-YAK-230,174,Dari,1,2721.920898,34.6909,67.04,BMY,YAK,Nashir,1003,Yakawlang,???????,Bamyan,??????,10
30948,30949,Yale POP_MASTER,YAK-231,,0,BMY-YAK-231,22,Dari,1,3115.25,34.6339,67.1097,BMY,YAK,Nawa Qurban,1003,Yakawlang,???????,Bamyan,??????,10
30949,30950,Yale POP_MASTER,YAK-232,,0,BMY-YAK-232,116,Dari,1,2790.930908,34.7852,66.6802,BMY,YAK,Naway Sayyidan,1003,Yakawlang,???????,Bamyan,??????,10
30950,30951,Yale POP_MASTER,YAK-233,,0,BMY-YAK-233,79,Dari,1,2730.403076,34.6882,67.0498,BMY,YAK,Nazar Shah,1003,Yakawlang,???????,Bamyan,??????,10
30951,30952,Yale POP_MASTER,YAK-234,,0,BMY-YAK-234,201,Dari,1,2474.075928,34.7402,66.8218,BMY,YAK,Now Abad,1003,Yakawlang,???????,Bamyan,??????,10
30952,30953,Yale POP_MASTER,YAK-235,,0,BMY-YAK-235,117,Dari,1,2984.2028809999997,34.6581,67.1829,BMY,YAK,Now Dost,1003,Yakawlang,???????,Bamyan,??????,10
30956,30957,Yale POP_MASTER,YAK-236,,0,BMY-YAK-236,72,Dari,1,2884.498047,34.5669,66.8125,BMY,YAK,Now Gala,1003,Yakawlang,???????,Bamyan,??????,10
30957,30958,Yale POP_MASTER,YAK-237,,0,BMY-YAK-237,93,Dari,1,2587.207031,34.8077,66.6651,BMY,YAK,Now Ghazi,1003,Yakawlang,???????,Bamyan,??????,10
30958,30959,Yale POP_MASTER,YAK-238,,0,BMY-YAK-238,155,Dari,1,2778.4221190000003,34.679,67.0817,BMY,YAK,Now Jowi,1003,Yakawlang,???????,Bamyan,??????,10
30959,30960,Yale POP_MASTER,YAK-239,,0,BMY-YAK-239,73,Dari,1,3082.375,34.6007,66.7962,BMY,YAK,Nowi Khom,1003,Yakawlang,???????,Bamyan,??????,10
30960,30961,Yale POP_MASTER,YAK-240,,0,BMY-YAK-240,138,Dari,1,2779.7661129999997,34.5956,66.8625,BMY,YAK,Obaha,1003,Yakawlang,???????,Bamyan,??????,10
30961,30962,Yale POP_MASTER,YAK-241,,0,BMY-YAK-241,71,Dari,1,3183.787109,34.6369,67.0644,BMY,YAK,Olang,1003,Yakawlang,???????,Bamyan,??????,10
30962,30963,Yale POP_MASTER,YAK-242,,0,BMY-YAK-242,395,Dari,1,3368.908936,34.7133,67.2958,BMY,YAK,Olangag,1003,Yakawlang,???????,Bamyan,??????,10
30963,30964,Yale POP_MASTER,YAK-243,,0,BMY-YAK-243,614,Dari,1,2540.125,34.9571,66.6115,BMY,YAK,Pai Chafa,1003,Yakawlang,???????,Bamyan,??????,10
30964,30965,Yale POP_MASTER,YAK-245,,0,BMY-YAK-245,137,Dari,1,2681.784912,34.7524,66.7447,BMY,YAK,Paitow,1003,Yakawlang,???????,Bamyan,??????,10
30965,30966,Yale POP_MASTER,YAK-246,,0,BMY-YAK-246,145,Dari,1,2710.466064,34.7927,66.661,BMY,YAK,Paitow Ghulamak,1003,Yakawlang,???????,Bamyan,??????,10
30966,30967,Yale POP_MASTER,YAK-247,,0,BMY-YAK-247,56,Dari,1,2543.63501,34.8146,66.6745,BMY,YAK,Paitow Qala,1003,Yakawlang,???????,Bamyan,??????,10
30967,30968,Yale POP_MASTER,YAK-248,,0,BMY-YAK-248,447,Dari,1,2624.665039,34.6794,66.8932,BMY,YAK,Paitow Zaren,1003,Yakawlang,???????,Bamyan,??????,10
30968,30969,Yale POP_MASTER,YAK-249,,0,BMY-YAK-249,45,Dari,1,2622.014893,34.7458,67.0052,BMY,YAK,Par Jowi Yak,1003,Yakawlang,???????,Bamyan,??????,10
30969,30970,Yale POP_MASTER,YAK-250,,0,BMY-YAK-250,221,Dari,1,2733.760986,34.991,66.5662,BMY,YAK,Pasheda Balena,1003,Yakawlang,???????,Bamyan,??????,10
30970,30971,Yale POP_MASTER,YAK-251,,0,BMY-YAK-251,198,Dari,1,2258.429932,34.9768,66.5602,BMY,YAK,Pasheda Tayena,1003,Yakawlang,???????,Bamyan,??????,10
30971,30972,Yale POP_MASTER,YAK-252,,0,BMY-YAK-252,21,Dari,1,2483.791016,34.7729,66.7562,BMY,YAK,Pass Kharani,1003,Yakawlang,???????,Bamyan,??????,10
30972,30973,Yale POP_MASTER,YAK-253,,0,BMY-YAK-253,126,Dari,1,2472.8278809999997,34.7595,66.7411,BMY,YAK,Pass Now,1003,Yakawlang,???????,Bamyan,??????,10
30973,30974,Yale POP_MASTER,YAK-254,,0,BMY-YAK-254,109,Dari,1,3098.001953,34.5851,66.9047,BMY,YAK,Pass Talak,1003,Yakawlang,???????,Bamyan,??????,10
30974,30975,Yale POP_MASTER,YAK-255,,0,BMY-YAK-255,47,Dari,1,2295.741943,34.9854,66.5978,BMY,YAK,Passi Nai,1003,Yakawlang,???????,Bamyan,??????,10
30975,30976,Yale POP_MASTER,YAK-256,,0,BMY-YAK-256,181,Dari,1,2466.433105,34.7519,66.7816,BMY,YAK,Peash Pozah,1003,Yakawlang,???????,Bamyan,??????,10
30976,30977,Yale POP_MASTER,YAK-257,,0,BMY-YAK-257,100,Dari,1,2868.072021,34.677,67.0426,BMY,YAK,Poshta,1003,Yakawlang,???????,Bamyan,??????,10
30977,30978,Yale POP_MASTER,YAK-259,,0,BMY-YAK-259,161,Dari,1,2499.14502,34.7687,66.7309,BMY,YAK,Poza Jee,1003,Yakawlang,???????,Bamyan,??????,10
30978,30979,Yale POP_MASTER,YAK-260,,0,BMY-YAK-260,77,Dari,1,2572.955078,34.8178,66.6722,BMY,YAK,Qad Qouq,1003,Yakawlang,???????,Bamyan,??????,10
30979,30980,Yale POP_MASTER,YAK-261,,0,BMY-YAK-261,41,Dari,1,2963.626953,34.5395,66.7801,BMY,YAK,Qafqoul Dahi Boghondi,1003,Yakawlang,???????,Bamyan,??????,10
30980,30981,Yale POP_MASTER,YAK-262,,0,BMY-YAK-262,304,Dari,1,2969.9169920000004,34.5413,66.7707,BMY,YAK,Qafqoul Tangak,1003,Yakawlang,???????,Bamyan,??????,10
30981,30982,Yale POP_MASTER,YAK-264,,0,BMY-YAK-264,174,Dari,1,2958.9951170000004,34.6105,66.9915,BMY,YAK,Qala Giro Sar Asiab,1003,Yakawlang,???????,Bamyan,??????,10
30982,30983,Yale POP_MASTER,YAK-265,,0,BMY-YAK-265,198,Dari,1,2994.691895,34.8121,67.1613,BMY,YAK,Qala Jafar,1003,Yakawlang,???????,Bamyan,??????,10
30983,30984,Yale POP_MASTER,YAK-266,,0,BMY-YAK-266,212,Dari,1,2373.868896,34.8572,66.688,BMY,YAK,Qala Kalekan,1003,Yakawlang,???????,Bamyan,??????,10
30984,30985,Yale POP_MASTER,YAK-267,,0,BMY-YAK-267,106,Dari,1,2471.86792,34.8487,66.6549,BMY,YAK,Qala Shagsar,1003,Yakawlang,???????,Bamyan,??????,10
30985,30986,Yale POP_MASTER,YAK-268,,0,BMY-YAK-268,264,Dari,1,2526.860107,34.8514,66.6411,BMY,YAK,Qala Sorkh,1003,Yakawlang,???????,Bamyan,??????,10
30986,30987,Yale POP_MASTER,YAK-269,,0,BMY-YAK-269,240,Dari,1,2584.7810059999997,34.6959,66.90100000000001,BMY,YAK,Qalandaran,1003,Yakawlang,???????,Bamyan,??????,10
30987,30988,Yale POP_MASTER,YAK-270,,0,BMY-YAK-270,77,Dari,1,2880.595947,34.6688,67.0572,BMY,YAK,Qash Gholah,1003,Yakawlang,???????,Bamyan,??????,10
30988,30989,Yale POP_MASTER,YAK-271,,0,BMY-YAK-271,145,Dari,1,3038.4140629999997,34.6094,67.0065,BMY,YAK,Qoji,1003,Yakawlang,???????,Bamyan,??????,10
30989,30990,Yale POP_MASTER,YAK-272,,0,BMY-YAK-272,210,Dari,1,2851.139893,34.6897,67.1784,BMY,YAK,Ra Qoul,1003,Yakawlang,???????,Bamyan,??????,10
30990,30991,Yale POP_MASTER,YAK-273,,0,BMY-YAK-273,79,Dari,1,2837.929932,34.6695,67.0933,BMY,YAK,Sabz Jowi,1003,Yakawlang,???????,Bamyan,??????,10
30991,30992,Yale POP_MASTER,YAK-274,,0,BMY-YAK-274,171,Dari,1,2879.170898,34.6204,66.9608,BMY,YAK,Sabz Now,1003,Yakawlang,???????,Bamyan,??????,10
30992,30993,Yale POP_MASTER,YAK-275,,0,BMY-YAK-275,101,Dari,1,2704.389893,34.6508,66.8874,BMY,YAK,Sabzak Samuch,1003,Yakawlang,???????,Bamyan,??????,10
30993,30994,Yale POP_MASTER,YAK-276,,0,BMY-YAK-276,90,Dari,1,2981.303955,34.5696,66.8542,BMY,YAK,Sabzak Toop,1003,Yakawlang,???????,Bamyan,??????,10
30994,30995,Yale POP_MASTER,YAK-277,,0,BMY-YAK-277,138,Dari,1,2921.731934,34.805,67.2168,BMY,YAK,Sabzal,1003,Yakawlang,???????,Bamyan,??????,10
30995,30996,Yale POP_MASTER,YAK-278,,0,BMY-YAK-278,536,Dari,1,2586.439941,34.847,66.6332,BMY,YAK,Sachak,1003,Yakawlang,???????,Bamyan,??????,10
30996,30997,Yale POP_MASTER,YAK-280,,0,BMY-YAK-280,121,Dari,1,2939.780029,34.6192,66.9147,BMY,YAK,Safid Sang,1003,Yakawlang,???????,Bamyan,??????,10
30997,30998,Yale POP_MASTER,YAK-281,,0,BMY-YAK-281,131,Dari,1,2802.8278809999997,34.8791,66.5592,BMY,YAK,Safid Sang Balena,1003,Yakawlang,???????,Bamyan,??????,10
30998,30999,Yale POP_MASTER,YAK-283,,0,BMY-YAK-283,60,Dari,1,2633.0229489999997,34.7327,66.7398,BMY,YAK,Samak,1003,Yakawlang,???????,Bamyan,??????,10
30999,31000,Yale POP_MASTER,YAK-284,,0,BMY-YAK-284,7,Dari,1,2758.64502,34.6123,66.8939,BMY,YAK,Sapidak,1003,Yakawlang,???????,Bamyan,??????,10
31000,31001,Yale POP_MASTER,YAK-285,,0,BMY-YAK-285,675,Other,9,2521.548096,34.8467,66.7054,BMY,YAK,Sar Asiab,1003,Yakawlang,???????,Bamyan,??????,10
31001,31002,Yale POP_MASTER,YAK-286,,0,BMY-YAK-286,208,Dari,1,2753.849121,34.6881,66.9898,BMY,YAK,Sar Balaq Hulya,1003,Yakawlang,???????,Bamyan,??????,10
31002,31003,Yale POP_MASTER,YAK-287,,0,BMY-YAK-287,229,Dari,1,2745.552002,34.6941,66.9921,BMY,YAK,Sar Balaq Sufla,1003,Yakawlang,???????,Bamyan,??????,10
31003,31004,Yale POP_MASTER,YAK-288,,0,BMY-YAK-288,319,Dari,1,2479.168945,34.8261,66.6833,BMY,YAK,Sar Bom Sabz Darah,1003,Yakawlang,???????,Bamyan,??????,10
31004,31005,Yale POP_MASTER,YAK-289,,0,BMY-YAK-289,32,Dari,1,2571.826904,34.7378,66.753,BMY,YAK,Sar Dasht,1003,Yakawlang,???????,Bamyan,??????,10
31005,31006,Yale POP_MASTER,YAK-291,,0,BMY-YAK-291,281,Dari,1,2958.155029,34.5769,66.8853,BMY,YAK,Sar Kech,1003,Yakawlang,???????,Bamyan,??????,10
31006,31007,Yale POP_MASTER,YAK-292,,0,BMY-YAK-292,203,Dari,1,2581.14502,34.7432,66.7102,BMY,YAK,Sar Lar,1003,Yakawlang,???????,Bamyan,??????,10
31007,31008,Yale POP_MASTER,YAK-294,,0,BMY-YAK-294,39,Dari,1,3207.918945,34.5748,66.9133,BMY,YAK,Sar Pass Talak,1003,Yakawlang,???????,Bamyan,??????,10
31008,31009,Yale POP_MASTER,YAK-295,,0,BMY-YAK-295,530,Dari,1,2696.819092,34.7058,66.8125,BMY,YAK,Sar Poza Band Bala Wa Mullahyan,1003,Yakawlang,???????,Bamyan,??????,10
31009,31010,Yale POP_MASTER,YAK-296,,0,BMY-YAK-296,265,Dari,1,2589.576904,34.841,66.6255,BMY,YAK,Sar Sachak,1003,Yakawlang,???????,Bamyan,??????,10
31010,31011,Yale POP_MASTER,YAK-298,,0,BMY-YAK-298,175,Dari,1,3062.605957,34.6028,66.916,BMY,YAK,Sar Sayer Dagh,1003,Yakawlang,???????,Bamyan,??????,10
31011,31012,Yale POP_MASTER,YAK-299,,0,BMY-YAK-299,42,Dari,1,3391.818115,34.5835,66.7629,BMY,YAK,Sar Shar Sharah,1003,Yakawlang,???????,Bamyan,??????,10
31012,31013,Yale POP_MASTER,YAK-300,,0,BMY-YAK-300,106,Dari,1,2781.961914,34.7325,66.7178,BMY,YAK,Sar Sorkh Baid,1003,Yakawlang,???????,Bamyan,??????,10
31013,31014,Yale POP_MASTER,YAK-301,,0,BMY-YAK-301,235,Dari,1,2847.737061,34.7163,66.7278,BMY,YAK,Sar Tar Towk,1003,Yakawlang,???????,Bamyan,??????,10
31014,31015,Yale POP_MASTER,YAK-302,,0,BMY-YAK-302,118,Dari,1,3038.179932,34.5607,66.8403,BMY,YAK,Sar Toop,1003,Yakawlang,???????,Bamyan,??????,10
31015,31016,Yale POP_MASTER,YAK-303,,0,BMY-YAK-303,392,Dari,1,2662.303955,34.8859,66.6018,BMY,YAK,Sar Yawom,1003,Yakawlang,???????,Bamyan,??????,10
31016,31017,Yale POP_MASTER,YAK-304,,0,BMY-YAK-304,57,Dari,1,2603.613037,34.7436,67.0226,BMY,YAK,Sar Yawom Fairoz Bahar,1003,Yakawlang,???????,Bamyan,??????,10
31017,31018,Yale POP_MASTER,YAK-305,,0,BMY-YAK-305,270,Dari,1,2743.6879879999997,34.9197,66.5673,BMY,YAK,Sar Zowlech Jowkari Jowshzako Sheena,1003,Yakawlang,???????,Bamyan,??????,10
31018,31019,Yale POP_MASTER,YAK-306,,0,BMY-YAK-306,596,Dari,1,3120.271973,34.7312,67.2685,BMY,YAK,Sarayag,1003,Yakawlang,???????,Bamyan,??????,10
31019,31020,Yale POP_MASTER,YAK-307,,0,BMY-YAK-307,177,Dari,1,2499.715088,34.7382,66.8743,BMY,YAK,Sarghastan,1003,Yakawlang,???????,Bamyan,??????,10
31020,31021,Yale POP_MASTER,YAK-308,,0,BMY-YAK-308,269,Dari,1,3101.4580079999996,34.6051,66.8707,BMY,YAK,Serak,1003,Yakawlang,???????,Bamyan,??????,10
31021,31022,Yale POP_MASTER,YAK-311,,0,BMY-YAK-311,52,Dari,1,3068.876953,35.0205,67.0922,BMY,YAK,Seya Khaki,1003,Yakawlang,???????,Bamyan,??????,10
31022,31023,Yale POP_MASTER,YAK-312,,0,BMY-YAK-312,46,Dari,1,3024.490967,34.779,67.1853,BMY,YAK,Seya Layak,1003,Yakawlang,???????,Bamyan,??????,10
31023,31024,Yale POP_MASTER,YAK-314,,0,BMY-YAK-314,84,Dari,1,2714.599121,34.7916,66.6887,BMY,YAK,Shah Baidak,1003,Yakawlang,???????,Bamyan,??????,10
31024,31025,Yale POP_MASTER,YAK-315,,0,BMY-YAK-315,115,Dari,1,2689.545898,34.6949,67.0342,BMY,YAK,Shah Nahak,1003,Yakawlang,???????,Bamyan,??????,10
31025,31026,Yale POP_MASTER,YAK-316,,0,BMY-YAK-316,344,Dari,1,2519.7729489999997,34.7729,66.7769,BMY,YAK,Shahri Now,1003,Yakawlang,???????,Bamyan,??????,10
31026,31027,Yale POP_MASTER,YAK-317,,0,BMY-YAK-317,434,Dari,1,3026.621094,34.6689,67.2368,BMY,YAK,Shair Dosh,1003,Yakawlang,???????,Bamyan,??????,10
31027,31028,Yale POP_MASTER,YAK-318,,0,BMY-YAK-318,123,Dari,1,2696.128906,34.73,66.743,BMY,YAK,Shamsudin,1003,Yakawlang,???????,Bamyan,??????,10
31028,31029,Yale POP_MASTER,YAK-319,,0,BMY-YAK-319,466,Dari,1,2598.368896,34.7352,66.7406,BMY,YAK,Sharfak,1003,Yakawlang,???????,Bamyan,??????,10
31029,31030,Yale POP_MASTER,YAK-320,,0,BMY-YAK-320,413,Dari,1,3013.88501,34.5873,66.9603,BMY,YAK,Shato,1003,Yakawlang,???????,Bamyan,??????,10
31030,31031,Yale POP_MASTER,YAK-321,,0,BMY-YAK-321,121,Dari,1,2943.5390629999997,34.5498,66.7908,BMY,YAK,Shebar,1003,Yakawlang,???????,Bamyan,??????,10
31031,31032,Yale POP_MASTER,YAK-322,,0,BMY-YAK-322,59,Dari,1,2859.373047,34.5843,66.8236,BMY,YAK,Sheenya,1003,Yakawlang,???????,Bamyan,??????,10
31032,31033,Yale POP_MASTER,YAK-323,,0,BMY-YAK-323,183,Dari,1,2583.177002,34.9501,66.6096,BMY,YAK,Sokhtagi,1003,Yakawlang,???????,Bamyan,??????,10
31033,31034,Yale POP_MASTER,YAK-324,,0,BMY-YAK-324,298,Dari,1,2283.739014,34.9461,66.5883,BMY,YAK,Sokhtagi Dam Dasht,1003,Yakawlang,???????,Bamyan,??????,10
31034,31035,Yale POP_MASTER,YAK-325,,0,BMY-YAK-325,63,Dari,1,3390.9270020000004,35.0171,66.6536,BMY,YAK,Solan,1003,Yakawlang,???????,Bamyan,??????,10
31035,31036,Yale POP_MASTER,YAK-326,,0,BMY-YAK-326,77,Dari,1,2759.801025,34.6832,67.07300000000001,BMY,YAK,Som,1003,Yakawlang,???????,Bamyan,??????,10
31036,31037,Yale POP_MASTER,YAK-327,,0,BMY-YAK-327,141,Dari,1,2859.321045,34.6309,66.9486,BMY,YAK,Som Manzil,1003,Yakawlang,???????,Bamyan,??????,10
31037,31038,Yale POP_MASTER,YAK-328,,0,BMY-YAK-328,260,Dari,1,2450.525879,34.8437,66.6677,BMY,YAK,Som Safid,1003,Yakawlang,???????,Bamyan,??????,10
31038,31039,Yale POP_MASTER,YAK-329,,0,BMY-YAK-329,116,Dari,1,2473.8701170000004,34.7681,66.7626,BMY,YAK,Som Seya Dahi,1003,Yakawlang,???????,Bamyan,??????,10
31039,31040,Yale POP_MASTER,YAK-330,,0,BMY-YAK-330,28,Dari,1,2536.518066,34.7307,66.7952,BMY,YAK,Som Takhak,1003,Yakawlang,???????,Bamyan,??????,10
31040,31041,Yale POP_MASTER,YAK-331,,0,BMY-YAK-331,156,Dari,1,2814.0859379999997,34.7027,67.1408,BMY,YAK,Soobak,1003,Yakawlang,???????,Bamyan,??????,10
31041,31042,Yale POP_MASTER,YAK-332,,0,BMY-YAK-332,140,Dari,1,2567.928955,34.6746,66.8414,BMY,YAK,Sorakhak,1003,Yakawlang,???????,Bamyan,??????,10
31042,31043,Yale POP_MASTER,YAK-333,,0,BMY-YAK-333,245,Dari,1,2725.587891,34.7945,66.6693,BMY,YAK,Sorkh Baidak,1003,Yakawlang,???????,Bamyan,??????,10
31043,31044,Yale POP_MASTER,YAK-334,,0,BMY-YAK-334,62,Dari,1,3414.0280759999996,34.602,67.0549,BMY,YAK,Sorkh Kocha,1003,Yakawlang,???????,Bamyan,??????,10
31044,31045,Yale POP_MASTER,YAK-335,,0,BMY-YAK-335,104,Dari,1,3171.564941,34.7296,67.3267,BMY,YAK,Sorkh Lar,1003,Yakawlang,???????,Bamyan,??????,10
31045,31046,Yale POP_MASTER,YAK-336,,0,BMY-YAK-336,154,Dari,1,2832.321045,34.5916,66.8345,BMY,YAK,Sorkh Macha,1003,Yakawlang,???????,Bamyan,??????,10
31046,31047,Yale POP_MASTER,YAK-337,,0,BMY-YAK-337,118,Dari,1,3077.36499,34.5982,66.9035,BMY,YAK,Sorkh Qala,1003,Yakawlang,???????,Bamyan,??????,10
31047,31048,Yale POP_MASTER,YAK-339,,0,BMY-YAK-339,73,Dari,1,3267.219971,34.5992,66.741,BMY,YAK,Sorkhak Bala,1003,Yakawlang,???????,Bamyan,??????,10
31048,31049,Yale POP_MASTER,YAK-340,,0,BMY-YAK-340,407,Dari,1,3230.7189940000003,34.6167,66.7466,BMY,YAK,Sorkhak Shayona,1003,Yakawlang,???????,Bamyan,??????,10
31049,31050,Yale POP_MASTER,YAK-341,,0,BMY-YAK-341,79,Dari,1,3210.209961,34.5967,66.7801,BMY,YAK,Sorkhi,1003,Yakawlang,???????,Bamyan,??????,10
31050,31051,Yale POP_MASTER,YAK-342,,0,BMY-YAK-342,94,Dari,1,3210.381104,34.6275,67.0594,BMY,YAK,Sulimany,1003,Yakawlang,???????,Bamyan,??????,10
31051,31052,Yale POP_MASTER,YAK-343,,0,BMY-YAK-343,252,Dari,1,2487.193115,34.7267,66.8642,BMY,YAK,Tajekan,1003,Yakawlang,???????,Bamyan,??????,10
31052,31053,Yale POP_MASTER,YAK-344,,0,BMY-YAK-344,168,Dari,1,2789.920898,34.7151,66.7784,BMY,YAK,Takhak,1003,Yakawlang,???????,Bamyan,??????,10
31053,31054,Yale POP_MASTER,YAK-345,,0,BMY-YAK-345,264,Dari,1,2492.8911129999997,34.7392,66.7869,BMY,YAK,Tam Malik,1003,Yakawlang,???????,Bamyan,??????,10
31054,31055,Yale POP_MASTER,YAK-346,,0,BMY-YAK-346,580,Dari,1,2477.552979,34.7459,66.7808,BMY,YAK,Tangi Safidak Hulya,1003,Yakawlang,???????,Bamyan,??????,10
31055,31056,Yale POP_MASTER,YAK-347,,0,BMY-YAK-347,114,Dari,1,2479.634033,34.7452,66.7717,BMY,YAK,Tangi Safidak Sufla,1003,Yakawlang,???????,Bamyan,??????,10
31056,31057,Yale POP_MASTER,YAK-348,,0,BMY-YAK-348,163,Dari,1,2910.354004,34.8013,66.6173,BMY,YAK,Tangi Seya,1003,Yakawlang,???????,Bamyan,??????,10
31057,31058,Yale POP_MASTER,YAK-349,,0,BMY-YAK-349,77,Dari,1,2767.818115,34.6385,66.9349,BMY,YAK,Taqchigah,1003,Yakawlang,???????,Bamyan,??????,10
31058,31059,Yale POP_MASTER,YAK-350,,0,BMY-YAK-350,237,Dari,1,2536.248047,34.7212,66.9186,BMY,YAK,Targhan,1003,Yakawlang,???????,Bamyan,??????,10
31059,31060,Yale POP_MASTER,YAK-351,,0,BMY-YAK-351,75,Dari,1,2560.153076,34.7129,66.91199999999999,BMY,YAK,Tawa Khana,1003,Yakawlang,???????,Bamyan,??????,10
31060,31061,Yale POP_MASTER,YAK-352,,0,BMY-YAK-352,65,Dari,1,2679.512939,34.799,66.6641,BMY,YAK,Tay Do Ab,1003,Yakawlang,???????,Bamyan,??????,10
31061,31062,Yale POP_MASTER,YAK-353,,0,BMY-YAK-353,92,Dari,1,2379.595947,34.8587,66.7121,BMY,YAK,Tay Khowal,1003,Yakawlang,???????,Bamyan,??????,10
31062,31063,Yale POP_MASTER,YAK-354,,0,BMY-YAK-354,163,Dari,1,2321.800049,34.9401,66.604,BMY,YAK,Tay Sam,1003,Yakawlang,???????,Bamyan,??????,10
31063,31064,Yale POP_MASTER,YAK-355,,0,BMY-YAK-355,158,Dari,1,2534.094971,34.7649,66.7246,BMY,YAK,Tay Zaw Hulya,1003,Yakawlang,???????,Bamyan,??????,10
31064,31065,Yale POP_MASTER,YAK-356,,0,BMY-YAK-356,112,Dari,1,2583.97998,34.7733,66.7161,BMY,YAK,Tay Zaw Sufla,1003,Yakawlang,???????,Bamyan,??????,10
31065,31066,Yale POP_MASTER,YAK-358,,0,BMY-YAK-358,85,Dari,1,2773.961914,34.6808,67.0352,BMY,YAK,Te Now,1003,Yakawlang,???????,Bamyan,??????,10
31066,31067,Yale POP_MASTER,YAK-359,,0,BMY-YAK-359,99,Dari,1,2319.334961,34.9406,66.594,BMY,YAK,Tena Qala,1003,Yakawlang,???????,Bamyan,??????,10
31067,31068,Yale POP_MASTER,YAK-360,,0,BMY-YAK-360,134,Dari,1,2479.259033,34.7338,66.846,BMY,YAK,Toop Khailak,1003,Yakawlang,???????,Bamyan,??????,10
31068,31069,Yale POP_MASTER,YAK-363,,0,BMY-YAK-363,202,Dari,1,2525.250977,34.7253,66.8076,BMY,YAK,Uota Poor,1003,Yakawlang,???????,Bamyan,??????,10
31069,31070,Yale POP_MASTER,YAK-364,,0,BMY-YAK-364,135,Dari,1,2671.361084,34.7068,66.9755,BMY,YAK,Warzaq,1003,Yakawlang,???????,Bamyan,??????,10
31070,31071,Yale POP_MASTER,YAK-365,,0,BMY-YAK-365,192,Dari,1,3103.461914,34.6452,67.1256,BMY,YAK,Wer Bargad,1003,Yakawlang,???????,Bamyan,??????,10
31071,31072,Yale POP_MASTER,YAK-366,,0,BMY-YAK-366,99,Dari,1,2752.63501,34.7228,66.73,BMY,YAK,Yakak,1003,Yakawlang,???????,Bamyan,??????,10
31072,31073,Yale POP_MASTER,YAK-367,,0,BMY-YAK-367,193,Dari,1,2763.438965,34.6806,67.0678,BMY,YAK,Zahrab,1003,Yakawlang,???????,Bamyan,??????,10
31073,31074,Yale POP_MASTER,YAK-368,,0,BMY-YAK-368,174,Dari,1,3012.304932,34.5336,66.7598,BMY,YAK,Zamoch,1003,Yakawlang,???????,Bamyan,??????,10
31074,31075,Yale POP_MASTER,YAK-369,,0,BMY-YAK-369,113,Dari,1,3029.4609379999997,34.6446,67.0172,BMY,YAK,Zar Sang,1003,Yakawlang,???????,Bamyan,??????,10
31075,31076,Yale POP_MASTER,YAK-370,,0,BMY-YAK-370,347,Dari,1,3131.510986,34.9973,67.1598,BMY,YAK,Zardi Gow,1003,Yakawlang,???????,Bamyan,??????,10
31076,31077,Yale POP_MASTER,YAK-371,,0,BMY-YAK-371,127,Dari,1,2323.0229489999997,34.99,66.609,BMY,YAK,Zear Ghar,1003,Yakawlang,???????,Bamyan,??????,10
31077,31078,Yale POP_MASTER,YAK-372,,0,BMY-YAK-372,79,Dari,1,2281.73999,34.9241,66.6074,BMY,YAK,Zeararg,1003,Yakawlang,???????,Bamyan,??????,10
31078,31079,Yale POP_MASTER,YAK-373,,0,BMY-YAK-373,83,Dari,1,3001.27002,34.6421,67.0966,BMY,YAK,Zeyarat,1003,Yakawlang,???????,Bamyan,??????,10
31079,31080,Yale POP_MASTER,YAK-374,District,1,BMY-YAK-374,1341,Dari,1,2545.793945,34.7384,66.9723,BMY,YAK,Yakawlang,1003,Yakawlang,???????,Bamyan,??????,10
31080,31081,Yale POP_MASTER,BMY-043,,0,BMY-BMY-043,354,Dari,1,3287.205078,34.7505,67.3937,BMY,BMY,Char Chashma,1001,Bamyan,??????,Bamyan,??????,10
31081,31082,Yale POP_MASTER,BMY-047,,0,BMY-BMY-047,140,Dari,1,3289.8278809999997,34.7497,67.3863,BMY,BMY,Dahi Ghullam,1001,Bamyan,??????,Bamyan,??????,10
31082,31083,Yale POP_MASTER,BMY-125,,0,BMY-BMY-125,267,Dari,1,3257.301025,34.7674,67.4008,BMY,BMY,Qala Gadai,1001,Bamyan,??????,Bamyan,??????,10
31083,31084,Yale POP_MASTER,BMY-126,,0,BMY-BMY-126,260,Pashto,2,3294.855957,34.7541,67.3896,BMY,BMY,Qala Habas,1001,Bamyan,??????,Bamyan,??????,10
31096,31097,USAID AIDVillageView,PJB-001,,0,BMY-PJB-001,0,Dari,1,3064.204102,34.4321,67.1564,BMY,PJB,Bado,1004,Panjab,?????,Bamyan,??????,10
31097,31098,USAID AIDVillageView,PJB-002,,0,BMY-PJB-002,0,Dari,1,3288.715088,34.5146,67.2561,BMY,PJB,Baladeh,1004,Panjab,?????,Bamyan,??????,10
31098,31099,USAID AIDVillageView,PJB-003,,0,BMY-PJB-003,0,Dari,1,3255.758057,34.4028,66.8834,BMY,PJB,Baldarghangak,1004,Panjab,?????,Bamyan,??????,10
31099,31100,USAID AIDVillageView,PJB-004,,0,BMY-PJB-004,0,Dari,1,3258.301025,34.4991,66.8114,BMY,PJB,Bande Sang,1004,Panjab,?????,Bamyan,??????,10
31100,31101,USAID AIDVillageView,PJB-005,,0,BMY-PJB-005,0,Dari,1,3213.621094,34.3214,67.0549,BMY,PJB,Bedak,1004,Panjab,?????,Bamyan,??????,10
31101,31102,USAID AIDVillageView,PJB-007,,0,BMY-PJB-007,0,Dari,1,2932.700928,34.3246,67.0658,BMY,PJB,Dahane Bedak,1004,Panjab,?????,Bamyan,??????,10
31102,31103,USAID AIDVillageView,PJB-010,,0,BMY-PJB-010,0,Dari,1,2828.450928,34.3818,67.3792,BMY,PJB,Dahane Taktaka,1004,Panjab,?????,Bamyan,??????,10
31103,31104,USAID AIDVillageView,PJB-011,,0,BMY-PJB-011,0,Dari,1,3056.200928,34.5336,66.9469,BMY,PJB,Dara-i-ghurghori,1004,Panjab,?????,Bamyan,??????,10
31104,31105,USAID AIDVillageView,PJB-012,,0,BMY-PJB-012,0,Dari,1,3118.302002,34.3798,66.8634,BMY,PJB,Dehe Naw,1004,Panjab,?????,Bamyan,??????,10
31105,31106,USAID AIDVillageView,PJB-015,,0,BMY-PJB-015,0,Dari,1,3035.4370120000003,34.3821,66.8583,BMY,PJB,Narges,1004,Panjab,?????,Bamyan,??????,10
31106,31107,USAID AIDVillageView,PJB-016,,0,BMY-PJB-016,0,Dari,1,3107.050049,34.4419,67.0995,BMY,PJB,Nawe Gholamshah,1004,Panjab,?????,Bamyan,??????,10
31107,31108,USAID AIDVillageView,PJB-019,,0,BMY-PJB-019,0,Dari,1,3056.853027,34.319,67.0297,BMY,PJB,Qala (1),1004,Panjab,?????,Bamyan,??????,10
31108,31109,USAID AIDVillageView,PJB-020,,0,BMY-PJB-020,0,Dari,1,3002.14502,34.3872,67.1808,BMY,PJB,Qal'a Baghalak,1004,Panjab,?????,Bamyan,??????,10
31109,31110,USAID AIDVillageView,PJB-024,,0,BMY-PJB-024,0,Dari,1,3096.23999,34.3918,67.1678,BMY,PJB,Qoreghak,1004,Panjab,?????,Bamyan,??????,10
31110,31111,USAID AIDVillageView,PJB-026,,0,BMY-PJB-026,0,Dari,1,3190.935059,34.3052,67.082,BMY,PJB,Sare Suru,1004,Panjab,?????,Bamyan,??????,10
31111,31112,USAID AIDVillageView,PJB-029,,0,BMY-PJB-029,0,Dari,1,2939.933105,34.3222,67.0322,BMY,PJB,Shewna Dih,1004,Panjab,?????,Bamyan,??????,10
31112,31113,USAID AIDVillageView,PJB-030,,0,BMY-PJB-030,0,Dari,1,2982.940918,34.3333,67.059,BMY,PJB,Soroso,1004,Panjab,?????,Bamyan,??????,10
31113,31114,USAID AIDVillageView,PJB-033,,0,BMY-PJB-033,0,Dari,1,3017.791016,34.3153,67.0372,BMY,PJB,Syakhar,1004,Panjab,?????,Bamyan,??????,10
31114,31115,USAID AIDVillageView,PJB-034,,0,BMY-PJB-034,0,Dari,1,3144.4370120000003,34.5252,66.8983,BMY,PJB,Topake Ulya,1004,Panjab,?????,Bamyan,??????,10
31115,31116,CSO AIMS Villages (ACSOR),WAR-121,,0,BMY-WAR-121,51,Dari,1,3015.940918,34.30251,67.32254,BMY,WAR,Safid Bom (1),1007,Waras,???,Bamyan,??????,10
31116,31117,CSO AIMS Villages (ACSOR),WAR-124,,0,BMY-WAR-124,57,Dari,1,2549.7661129999997,34.27064,67.25519,BMY,WAR,Sar Bom (4),1007,Waras,???,Bamyan,??????,10
31117,31118,CSO AIMS Villages (ACSOR),WAR-136,,0,BMY-WAR-136,25,Dari,1,2806.904053,34.236059999999995,67.21273000000001,BMY,WAR,Saybak (1),1007,Waras,???,Bamyan,??????,10
31118,31119,CSO AIMS Villages (ACSOR),WAR-138,,0,BMY-WAR-138,71,Dari,1,2740.251953,34.207370000000004,67.25809,BMY,WAR,Sayel Borda (2),1007,Waras,???,Bamyan,??????,10
31119,31120,CSO AIMS Villages (ACSOR),WAR-142,,0,BMY-WAR-142,151,Dari,1,2721.639893,34.119890000000005,67.2636,BMY,WAR,Saywak (1),1007,Waras,???,Bamyan,??????,10
31120,31121,CSO AIMS Villages (ACSOR),WAR-143,,0,BMY-WAR-143,26,Dari,1,2772.8588870000003,34.21436,67.20568,BMY,WAR,Senjetak (1),1007,Waras,???,Bamyan,??????,10
31121,31122,CSO AIMS Villages (ACSOR),WAR-144,,0,BMY-WAR-144,71,Dari,1,2608.02002,34.138870000000004,67.22208,BMY,WAR,Senjetak (2),1007,Waras,???,Bamyan,??????,10
31122,31123,CSO AIMS Villages (ACSOR),WAR-145,,0,BMY-WAR-145,12,Dari,1,3079.236084,34.14767,67.34206,BMY,WAR,Seya Bomak (1),1007,Waras,???,Bamyan,??????,10
31123,31124,CSO AIMS Villages (ACSOR),WAR-146,,0,BMY-WAR-146,35,Dari,1,3023.1088870000003,34.273959999999995,67.05485,BMY,WAR,Seya Bomak (2),1007,Waras,???,Bamyan,??????,10
31124,31125,CSO AIMS Villages (ACSOR),WAR-148,,0,BMY-WAR-148,28,Dari,1,2856.875,34.26298,67.39225,BMY,WAR,Seya Kharak (1),1007,Waras,???,Bamyan,??????,10
31125,31126,CSO AIMS Villages (ACSOR),WAR-152,,0,BMY-WAR-152,115,Dari,1,2595.253906,34.1244,67.28586,BMY,WAR,Seya Qoul (1),1007,Waras,???,Bamyan,??????,10
31126,31127,CSO AIMS Villages (ACSOR),WAR-159,,0,BMY-WAR-159,54,Dari,1,3285.571045,34.18503,67.14723000000001,BMY,WAR,Shahristan (2),1007,Waras,???,Bamyan,??????,10
31127,31128,CSO AIMS Villages (ACSOR),WAR-165,,0,BMY-WAR-165,13,Dari,1,2727.75293,34.23021,67.24088,BMY,WAR,Sokhta Qoul (1),1007,Waras,???,Bamyan,??????,10
31128,31129,CSO AIMS Villages (ACSOR),WAR-166,,0,BMY-WAR-166,102,Dari,1,3070.633057,34.10416,67.32729,BMY,WAR,Sokhta Qoul (2),1007,Waras,???,Bamyan,??????,10
31129,31130,CSO AIMS Villages (ACSOR),WAR-172,,0,BMY-WAR-172,85,Dari,1,2709.689941,34.219190000000005,67.16911999999999,BMY,WAR,Toop (1),1007,Waras,???,Bamyan,??????,10
31130,31131,CSO AIMS Villages (ACSOR),WAR-173,,0,BMY-WAR-173,90,Dari,1,2928.136963,34.27812,67.40368000000001,BMY,WAR,Toop (2),1007,Waras,???,Bamyan,??????,10
31131,31132,CSO AIMS Villages (ACSOR),WAR-175,,0,BMY-WAR-175,42,Dari,1,2610.52002,34.24436,67.22596999999999,BMY,WAR,Toorak (1),1007,Waras,???,Bamyan,??????,10
31132,31133,USAID AIDVillageView,WAR-007,,0,BMY-WAR-007,0,Dari,1,3058.287109,34.1984,67.1892,BMY,WAR,Charakhu,1007,Waras,???,Bamyan,??????,10
31133,31134,USAID AIDVillageView,WAR-009,,0,BMY-WAR-009,0,Dari,1,2383.318115,34.2212,67.2677,BMY,WAR,Choytaman,1007,Waras,???,Bamyan,??????,10
31134,31135,USAID AIDVillageView,WAR-013,,0,BMY-WAR-013,0,Dari,1,3046.8129879999997,34.316,67.4225,BMY,WAR,Elaka,1007,Waras,???,Bamyan,??????,10
31135,31136,USAID AIDVillageView,WAR-014,,0,BMY-WAR-014,0,Dari,1,3466.355957,34.3254,67.3734,BMY,WAR,Gardana-i-gultala,1007,Waras,???,Bamyan,??????,10
31136,31137,USAID AIDVillageView,WAR-030,,0,BMY-WAR-030,0,Dari,1,3198.570068,34.2429,67.1219,BMY,WAR,Obamani,1007,Waras,???,Bamyan,??????,10
31137,31138,CSO AIMS Villages (ACSOR),WAR-056,,0,BMY-WAR-056,51,Dari,1,2643.4838870000003,34.124359999999996,67.29439,BMY,WAR,Baidak (1),1007,Waras,???,Bamyan,??????,10
31138,31139,CSO AIMS Villages (ACSOR),WAR-064,,0,BMY-WAR-064,87,Dari,1,3240.466064,34.14584,67.37634,BMY,WAR,Barghosoang,1007,Waras,???,Bamyan,??????,10
31139,31140,CSO AIMS Villages (ACSOR),WAR-072,,0,BMY-WAR-072,34,Dari,1,2941.662109,34.32124,67.31454000000001,BMY,WAR,Ghar (1),1007,Waras,???,Bamyan,??????,10
31140,31141,CSO AIMS Villages (ACSOR),WAR-074,,0,BMY-WAR-074,30,Dari,1,3148.798096,34.18975,67.21693,BMY,WAR,Ghar Ghara (1),1007,Waras,???,Bamyan,??????,10
31141,31142,CSO AIMS Villages (ACSOR),WAR-077,,0,BMY-WAR-077,33,Dari,1,2993.883057,34.27899,67.2062,BMY,WAR,Ghochak,1007,Waras,???,Bamyan,??????,10
31142,31143,CSO AIMS Villages (ACSOR),WAR-079,,0,BMY-WAR-079,22,Dari,1,2684.696045,34.27386,67.42621,BMY,WAR,Gow Khana Gak (1),1007,Waras,???,Bamyan,??????,10
31143,31144,CSO AIMS Villages (ACSOR),WAR-080,,0,BMY-WAR-080,25,Dari,1,3095.302002,34.303090000000005,67.40341,BMY,WAR,Gow Khana Gak (2),1007,Waras,???,Bamyan,??????,10
31144,31145,CSO AIMS Villages (ACSOR),WAR-082,,0,BMY-WAR-082,57,Dari,1,3164.038086,34.15507,67.37019000000001,BMY,WAR,Ispidak,1007,Waras,???,Bamyan,??????,10
31145,31146,CSO AIMS Villages (ACSOR),WAR-086,,0,BMY-WAR-086,257,Dari,1,2869.511963,34.21027,67.14654,BMY,WAR,Jow Qoul (2),1007,Waras,???,Bamyan,??????,10
31146,31147,CSO AIMS Villages (ACSOR),WAR-090,,0,BMY-WAR-090,81,Dari,1,3340.490967,34.13863,67.38588,BMY,WAR,Khar Zar (1),1007,Waras,???,Bamyan,??????,10
31147,31148,CSO AIMS Villages (ACSOR),WAR-092,,0,BMY-WAR-092,24,Dari,1,3144.593018,34.26025,67.06695,BMY,WAR,Meyan Dahi (1),1007,Waras,???,Bamyan,??????,10
31148,31149,CSO AIMS Villages (ACSOR),WAR-094,,0,BMY-WAR-094,77,Dari,1,2885.253906,34.21065,67.14296999999999,BMY,WAR,Meyan Dahi (2),1007,Waras,???,Bamyan,??????,10
31149,31150,CSO AIMS Villages (ACSOR),WAR-095,,0,BMY-WAR-095,95,Dari,1,3074.998047,34.32437,67.3299,BMY,WAR,Meyan Dahi (3),1007,Waras,???,Bamyan,??????,10
31150,31151,CSO AIMS Villages (ACSOR),WAR-096,,0,BMY-WAR-096,241,Dari,1,2434.614014,34.21368,67.27644000000001,BMY,WAR,Meyana Dahi,1007,Waras,???,Bamyan,??????,10
31151,31152,CSO AIMS Villages (ACSOR),WAR-100,,0,BMY-WAR-100,53,Dari,1,2712.5161129999997,34.2977,67.29015,BMY,WAR,Noorak (3),1007,Waras,???,Bamyan,??????,10
31152,31153,CSO AIMS Villages (ACSOR),WAR-176,,0,BMY-WAR-176,51,Dari,1,2915.481934,34.26682,67.20255999999999,BMY,WAR,Toorak (2),1007,Waras,???,Bamyan,??????,10
31153,31154,CSO AIMS Villages (ACSOR),WAR-181,,0,BMY-WAR-181,127,Dari,1,2838.48999,34.29067,67.43021999999999,BMY,WAR,Walyatak (2),1007,Waras,???,Bamyan,??????,10
31221,31222,Yale POP_MASTER,PJB-050,,0,BMY-PJB-050,125,Dari,1,2825.0620120000003,34.3456,67.053,BMY,PJB,Baraiki Seya Dara,1004,Panjab,?????,Bamyan,??????,10
31222,31223,Yale POP_MASTER,PJB-052,,0,BMY-PJB-052,230,Dari,1,3135.49292,34.4637,66.8215,BMY,PJB,Barghasonak,1004,Panjab,?????,Bamyan,??????,10
31252,31253,Yale POP_MASTER,PJB-055,,0,BMY-PJB-055,73,Dari,1,2999.2451170000004,34.4454,66.9194,BMY,PJB,Bobak,1004,Panjab,?????,Bamyan,??????,10
31253,31254,Yale POP_MASTER,PJB-056,,0,BMY-PJB-056,31,Dari,1,3101.170898,34.3941,66.8707,BMY,PJB,Bogh Sang,1004,Panjab,?????,Bamyan,??????,10
31254,31255,Yale POP_MASTER,PJB-057,,0,BMY-PJB-057,32,Dari,1,2975.035889,34.4613,67.0363,BMY,PJB,Boghond Chashma,1004,Panjab,?????,Bamyan,??????,10
31255,31256,Yale POP_MASTER,PJB-058,,0,BMY-PJB-058,133,Dari,1,3041.724121,34.3868,67.0845,BMY,PJB,Bola Qala,1004,Panjab,?????,Bamyan,??????,10
31256,31257,Yale POP_MASTER,PJB-059,,0,BMY-PJB-059,80,Dari,1,3003.061035,34.4593,66.9019,BMY,PJB,Boland Qala,1004,Panjab,?????,Bamyan,??????,10
31257,31258,Yale POP_MASTER,PJB-060,,0,BMY-PJB-060,234,Dari,1,3150.290039,34.3022,67.0431,BMY,PJB,Boldar Ghatoo,1004,Panjab,?????,Bamyan,??????,10
31258,31259,Yale POP_MASTER,PJB-061,,0,BMY-PJB-061,41,Dari,1,3003.799072,34.4178,67.0053,BMY,PJB,Bom Afshar,1004,Panjab,?????,Bamyan,??????,10
31259,31260,Yale POP_MASTER,PJB-063,,0,BMY-PJB-063,74,Dari,1,3056.185059,34.4701,67.1758,BMY,PJB,Bom Gow Mourda,1004,Panjab,?????,Bamyan,??????,10
31260,31261,Yale POP_MASTER,PJB-064,,0,BMY-PJB-064,33,Dari,1,3280.160889,34.4919,66.9979,BMY,PJB,Bomak,1004,Panjab,?????,Bamyan,??????,10
31261,31262,Yale POP_MASTER,PJB-065,,0,BMY-PJB-065,16,Dari,1,3050.991943,34.4707,67.1505,BMY,PJB,Bor Mourda,1004,Panjab,?????,Bamyan,??????,10
31262,31263,Yale POP_MASTER,PJB-066,,0,BMY-PJB-066,61,Dari,1,3169.258057,34.5345,66.9872,BMY,PJB,Brogak,1004,Panjab,?????,Bamyan,??????,10
31263,31264,Yale POP_MASTER,PJB-067,,0,BMY-PJB-067,61,Dari,1,2875.521973,34.3834,66.935,BMY,PJB,Chahar Borja,1004,Panjab,?????,Bamyan,??????,10
31264,31265,Yale POP_MASTER,PJB-068,,0,BMY-PJB-068,154,Dari,1,2992.8798829999996,34.3816,67.1777,BMY,PJB,Chahar Dahi,1004,Panjab,?????,Bamyan,??????,10
31265,31266,Yale POP_MASTER,PJB-069,,0,BMY-PJB-069,66,Dari,1,3310.6560059999997,34.5503,67.1942,BMY,PJB,Chakaritoo,1004,Panjab,?????,Bamyan,??????,10
31266,31267,Yale POP_MASTER,PJB-070,,0,BMY-PJB-070,84,Dari,1,3148.555908,34.4592,66.8058,BMY,PJB,Chal,1004,Panjab,?????,Bamyan,??????,10
31267,31268,Yale POP_MASTER,PJB-071,,0,BMY-PJB-071,199,Dari,1,3136.73999,34.503,67.2021,BMY,PJB,Chapar Qoul,1004,Panjab,?????,Bamyan,??????,10
31268,31269,Yale POP_MASTER,PJB-072,,0,BMY-PJB-072,87,Dari,1,3145.6521,34.5403,66.9655,BMY,PJB,Char Qash,1004,Panjab,?????,Bamyan,??????,10
31269,31270,Yale POP_MASTER,PJB-073,,0,BMY-PJB-073,20,Dari,1,2784.395996,34.3446,67.0359,BMY,PJB,Chashma Habidy,1004,Panjab,?????,Bamyan,??????,10
31270,31271,Yale POP_MASTER,PJB-074,,0,BMY-PJB-074,41,Dari,1,3104.934082,34.4785,67.0905,BMY,PJB,Chee Jee,1004,Panjab,?????,Bamyan,??????,10
31271,31272,Yale POP_MASTER,PJB-076,,0,BMY-PJB-076,209,Dari,1,2767.363037,34.3893,66.9931,BMY,PJB,Dahan Abdara,1004,Panjab,?????,Bamyan,??????,10
31272,31273,Yale POP_MASTER,PJB-078,,0,BMY-PJB-078,117,Dari,1,2664.39209,34.3371,66.9968,BMY,PJB,Dahan Baldar Ghatoo,1004,Panjab,?????,Bamyan,??????,10
31273,31274,Yale POP_MASTER,PJB-079,,0,BMY-PJB-079,55,Dari,1,2768.899902,34.3877,66.9811,BMY,PJB,Dahan Bargho Sang,1004,Panjab,?????,Bamyan,??????,10
31274,31275,Yale POP_MASTER,PJB-080,,0,BMY-PJB-080,243,Dari,1,2694.2810059999997,34.3405,66.9934,BMY,PJB,Dahan Dar Darakhtan,1004,Panjab,?????,Bamyan,??????,10
31275,31276,Yale POP_MASTER,PJB-081,,0,BMY-PJB-081,22,Dari,1,2928.033936,34.4153,67.1094,BMY,PJB,Dahan Dona,1004,Panjab,?????,Bamyan,??????,10
31276,31277,Yale POP_MASTER,PJB-082,,0,BMY-PJB-082,46,Dari,1,2987.811035,34.4624,67.1399,BMY,PJB,Dahan Ghar,1004,Panjab,?????,Bamyan,??????,10
31277,31278,Yale POP_MASTER,PJB-085,,0,BMY-PJB-085,194,Dari,1,2735.815918,34.3831,67.0357,BMY,PJB,Dahan Mor,1004,Panjab,?????,Bamyan,??????,10
31278,31279,Yale POP_MASTER,PJB-086,,0,BMY-PJB-086,283,Dari,1,2731.948975,34.3866,67.0221,BMY,PJB,Dahan Nargis,1004,Panjab,?????,Bamyan,??????,10
31279,31280,Yale POP_MASTER,PJB-087,,0,BMY-PJB-087,55,Dari,1,2717.63208,34.3648,67.0314,BMY,PJB,Dahan Now,1004,Panjab,?????,Bamyan,??????,10
31280,31281,Yale POP_MASTER,PJB-088,,0,BMY-PJB-088,46,Dari,1,2693.121094,34.3722,67.0276,BMY,PJB,Dahan Now Baz Ali,1004,Panjab,?????,Bamyan,??????,10
31281,31282,Yale POP_MASTER,PJB-089,,0,BMY-PJB-089,88,Dari,1,2961.6669920000004,34.3719,67.132,BMY,PJB,Dahan Now Borda,1004,Panjab,?????,Bamyan,??????,10
31282,31283,Yale POP_MASTER,PJB-090,,0,BMY-PJB-090,8,Dari,1,3028.8278809999997,34.4399,66.8362,BMY,PJB,Dahan Now Khok,1004,Panjab,?????,Bamyan,??????,10
31283,31284,Yale POP_MASTER,PJB-091,,0,BMY-PJB-091,35,Dari,1,2835.074951,34.3521,67.0765,BMY,PJB,Dahan Peer Zad,1004,Panjab,?????,Bamyan,??????,10
31284,31285,Yale POP_MASTER,PJB-093,,0,BMY-PJB-093,26,Dari,1,2831.943115,34.4415,67.0574,BMY,PJB,Dahan Qayaghak,1004,Panjab,?????,Bamyan,??????,10
31285,31286,Yale POP_MASTER,PJB-095,,0,BMY-PJB-095,96,Dari,1,2963.936035,34.3766,67.1504,BMY,PJB,Dahan Sayyid Bacha,1004,Panjab,?????,Bamyan,??????,10
31297,31298,Yale POP_MASTER,PJB-096,,0,BMY-PJB-096,37,Dari,1,2703.021973,34.3435,67.01100000000001,BMY,PJB,Dahan Seya Dara,1004,Panjab,?????,Bamyan,??????,10
31298,31299,Yale POP_MASTER,PJB-099,,0,BMY-PJB-099,124,Dari,1,2927.573975,34.4879,67.0557,BMY,PJB,Dahan Zard Paitow,1004,Panjab,?????,Bamyan,??????,10
31299,31300,Yale POP_MASTER,PJB-100,,0,BMY-PJB-100,167,Dari,1,2880.415039,34.4634,66.9527,BMY,PJB,Dahi Barat,1004,Panjab,?????,Bamyan,??????,10
31300,31301,Yale POP_MASTER,PJB-101,,0,BMY-PJB-101,42,Dari,1,3007.446045,34.4946,66.9343,BMY,PJB,Dahi Bo Ghondak,1004,Panjab,?????,Bamyan,??????,10
31301,31302,Yale POP_MASTER,PJB-103,,0,BMY-PJB-103,39,Dari,1,2765.256104,34.4014,67.0345,BMY,PJB,Dahi Moshkali,1004,Panjab,?????,Bamyan,??????,10
31302,31303,Yale POP_MASTER,PJB-106,,0,BMY-PJB-106,46,Dari,1,2975.169922,34.465,67.1327,BMY,PJB,Dam Jowi,1004,Panjab,?????,Bamyan,??????,10
31303,31304,Yale POP_MASTER,PJB-107,,0,BMY-PJB-107,34,Dari,1,2965.2729489999997,34.4623,67.0786,BMY,PJB,Dam Jowi Qash,1004,Panjab,?????,Bamyan,??????,10
31304,31305,Yale POP_MASTER,PJB-108,,0,BMY-PJB-108,57,Dari,1,2886.363037,34.467,66.9418,BMY,PJB,Dana Dahana,1004,Panjab,?????,Bamyan,??????,10
31305,31306,Yale POP_MASTER,PJB-109,,0,BMY-PJB-109,212,Dari,1,2921.457031,34.3495,66.9848,BMY,PJB,Dara Darakhtan,1004,Panjab,?????,Bamyan,??????,10
31306,31307,Yale POP_MASTER,PJB-112,,0,BMY-PJB-112,90,Dari,1,2966.5271,34.4744,66.9346,BMY,PJB,Dew Khana,1004,Panjab,?????,Bamyan,??????,10
31307,31308,Yale POP_MASTER,PJB-114,,0,BMY-PJB-114,40,Dari,1,3146.9379879999997,34.5064,66.8664,BMY,PJB,Dewana Balaq,1004,Panjab,?????,Bamyan,??????,10
31308,31309,Yale POP_MASTER,PJB-115,,0,BMY-PJB-115,176,Dari,1,3347.461914,34.516999999999996,67.2794,BMY,PJB,Dewanak,1004,Panjab,?????,Bamyan,??????,10
31309,31310,Yale POP_MASTER,PJB-116,,0,BMY-PJB-116,54,Dari,1,2964.4689940000003,34.3854,67.0762,BMY,PJB,Deyar Paitoo,1004,Panjab,?????,Bamyan,??????,10
31310,31311,Yale POP_MASTER,PJB-117,,0,BMY-PJB-117,50,Dari,1,2779.343018,34.3796,67.4255,BMY,PJB,Diktoor,1004,Panjab,?????,Bamyan,??????,10
31311,31312,Yale POP_MASTER,PJB-119,,0,BMY-PJB-119,91,Dari,1,3222.660889,34.5445,67.1025,BMY,PJB,Do Qad,1004,Panjab,?????,Bamyan,??????,10
31312,31313,Yale POP_MASTER,PJB-120,,0,BMY-PJB-120,37,Dari,1,2968.654053,34.4497,67.1759,BMY,PJB,Dowm Jowi,1004,Panjab,?????,Bamyan,??????,10
31313,31314,Yale POP_MASTER,PJB-121,,0,BMY-PJB-121,84,Dari,1,2919.697021,34.4806,67.0571,BMY,PJB,Dowom Abak,1004,Panjab,?????,Bamyan,??????,10
31314,31315,Yale POP_MASTER,PJB-122,,0,BMY-PJB-122,33,Dari,1,3017.488037,34.4904,66.9378,BMY,PJB,Dowom Chal Ghar Ghary,1004,Panjab,?????,Bamyan,??????,10
31315,31316,Yale POP_MASTER,PJB-123,,0,BMY-PJB-123,31,Dari,1,2961.260986,34.3707,67.4232,BMY,PJB,Dowry,1004,Panjab,?????,Bamyan,??????,10
31316,31317,Yale POP_MASTER,PJB-124,,0,BMY-PJB-124,148,Dari,1,3222.806885,34.5469,67.2475,BMY,PJB,Ga Mourda,1004,Panjab,?????,Bamyan,??????,10
31317,31318,Yale POP_MASTER,PJB-125,,0,BMY-PJB-125,187,Dari,1,3128.717041,34.3953,67.1373,BMY,PJB,Gandogag,1004,Panjab,?????,Bamyan,??????,10
31318,31319,Yale POP_MASTER,PJB-128,,0,BMY-PJB-128,204,Dari,1,2841.385986,34.4467,67.0548,BMY,PJB,Gardan Borida,1004,Panjab,?????,Bamyan,??????,10
31319,31320,Yale POP_MASTER,PJB-130,,0,BMY-PJB-130,310,Dari,1,2859.813965,34.3842,67.3481,BMY,PJB,Ghar Ghara,1004,Panjab,?????,Bamyan,??????,10
31320,31321,Yale POP_MASTER,PJB-131,,0,BMY-PJB-131,77,Dari,1,3349.11792,34.5498,67.0522,BMY,PJB,Ghar Ghara Faqiro,1004,Panjab,?????,Bamyan,??????,10
31321,31322,Yale POP_MASTER,PJB-132,,0,BMY-PJB-132,55,Dari,1,3271.888916,34.5457,67.0705,BMY,PJB,Ghar Ghara Salih,1004,Panjab,?????,Bamyan,??????,10
31322,31323,Yale POP_MASTER,PJB-133,,0,BMY-PJB-133,100,Dari,1,3082.029053,34.3999,67.1875,BMY,PJB,Gho Jolak,1004,Panjab,?????,Bamyan,??????,10
31323,31324,Yale POP_MASTER,PJB-134,,0,BMY-PJB-134,68,Pashto,2,2976.051025,34.4589,67.0704,BMY,PJB,Ghoch Naw,1004,Panjab,?????,Bamyan,??????,10
31324,31325,Yale POP_MASTER,PJB-135,,0,BMY-PJB-135,68,Pashto,2,3152.88208,34.5469,66.9427,BMY,PJB,Ghoch Naw,1004,Panjab,?????,Bamyan,??????,10
31325,31326,Yale POP_MASTER,PJB-136,,0,BMY-PJB-136,116,Dari,1,3245.6640629999997,34.3639,67.1823,BMY,PJB,Ghorak Hulya,1004,Panjab,?????,Bamyan,??????,10
31326,31327,Yale POP_MASTER,PJB-137,,0,BMY-PJB-137,56,Dari,1,3079.873047,34.3755,67.1775,BMY,PJB,Ghorak Sufla,1004,Panjab,?????,Bamyan,??????,10
31327,31328,Yale POP_MASTER,PJB-138,,0,BMY-PJB-138,47,Dari,1,2964.940918,34.4645,67.0361,BMY,PJB,Goly,1004,Panjab,?????,Bamyan,??????,10
31328,31329,Yale POP_MASTER,PJB-140,,0,BMY-PJB-140,19,Pashto,2,2785.14209,34.4176,67.0501,BMY,PJB,Gombandi,1004,Panjab,?????,Bamyan,??????,10
31329,31330,Yale POP_MASTER,PJB-141,,0,BMY-PJB-141,56,Dari,1,2826.677002,34.3583,67.0849,BMY,PJB,Gor Kushta,1004,Panjab,?????,Bamyan,??????,10
31330,31331,Yale POP_MASTER,PJB-142,,0,BMY-PJB-142,165,Dari,1,2942.64502,34.4566,66.92699999999999,BMY,PJB,Gow Band,1004,Panjab,?????,Bamyan,??????,10
31340,31341,Yale POP_MASTER,PJB-143,,0,BMY-PJB-143,159,Dari,1,3251.87793,34.538000000000004,67.204,BMY,PJB,Gul Sai,1004,Panjab,?????,Bamyan,??????,10
31341,31342,Yale POP_MASTER,PJB-145,,0,BMY-PJB-145,33,Dari,1,2938.146973,34.4695,67.0436,BMY,PJB,Howz Khan,1004,Panjab,?????,Bamyan,??????,10
31342,31343,Yale POP_MASTER,PJB-146,,0,BMY-PJB-146,254,Dari,1,3095.238037,34.5257,66.9427,BMY,PJB,Howz Mahmod,1004,Panjab,?????,Bamyan,??????,10
31343,31344,Yale POP_MASTER,PJB-147,,0,BMY-PJB-147,48,Dari,1,3293.551025,34.5434,67.3029,BMY,PJB,Ispen Koh,1004,Panjab,?????,Bamyan,??????,10
31344,31345,Yale POP_MASTER,PJB-150,,0,BMY-PJB-150,429,Dari,1,3156.715088,34.5273,67.2679,BMY,PJB,Jang Jay,1004,Panjab,?????,Bamyan,??????,10
31345,31346,Yale POP_MASTER,PJB-152,,0,BMY-PJB-152,56,Dari,1,3355.801025,34.4291,67.2185,BMY,PJB,Jow Dedany,1004,Panjab,?????,Bamyan,??????,10
31346,31347,Yale POP_MASTER,PJB-153,,0,BMY-PJB-153,34,Dari,1,2987.649902,34.4224,67.1297,BMY,PJB,Jowi Lak,1004,Panjab,?????,Bamyan,??????,10
31347,31348,Yale POP_MASTER,PJB-155,,0,BMY-PJB-155,54,Dari,1,2707.711914,34.3434,67.0297,BMY,PJB,Kach Now,1004,Panjab,?????,Bamyan,??????,10
31348,31349,Yale POP_MASTER,PJB-156,,0,BMY-PJB-156,145,Dari,1,3069.706055,34.503,67.1118,BMY,PJB,Kach Qoul,1004,Panjab,?????,Bamyan,??????,10
31349,31350,Yale POP_MASTER,PJB-157,,0,BMY-PJB-157,73,Dari,1,3200.6201170000004,34.5017,66.9103,BMY,PJB,Kafar Sang,1004,Panjab,?????,Bamyan,??????,10
31350,31351,Yale POP_MASTER,PJB-158,,0,BMY-PJB-158,7,Dari,1,3061.314941,34.4772,67.0337,BMY,PJB,Kaj Howz,1004,Panjab,?????,Bamyan,??????,10
31351,31352,Yale POP_MASTER,PJB-159,,0,BMY-PJB-159,141,Dari,1,3039.447021,34.3849,67.1782,BMY,PJB,Kaj Jowi Sar Ab,1004,Panjab,?????,Bamyan,??????,10
31352,31353,Yale POP_MASTER,PJB-160,,0,BMY-PJB-160,46,Dari,1,2695.6489260000003,34.3742,67.0262,BMY,PJB,Kaj Mazar,1004,Panjab,?????,Bamyan,??????,10
31353,31354,Yale POP_MASTER,PJB-161,,0,BMY-PJB-161,56,Dari,1,2922.344971,34.3827,67.3647,BMY,PJB,Kakrak,1004,Panjab,?????,Bamyan,??????,10
31354,31355,Yale POP_MASTER,PJB-163,,0,BMY-PJB-163,47,Dari,1,3085.803955,34.3689,67.4104,BMY,PJB,Kara,1004,Panjab,?????,Bamyan,??????,10
31355,31356,Yale POP_MASTER,PJB-164,,0,BMY-PJB-164,90,Dari,1,3068.36499,34.53,67.2964,BMY,PJB,Karaiz,1004,Panjab,?????,Bamyan,??????,10
31356,31357,Yale POP_MASTER,PJB-165,,0,BMY-PJB-165,92,Dari,1,3061.188965,34.4729,67.0888,BMY,PJB,Karaiz Bala Wa Payen,1004,Panjab,?????,Bamyan,??????,10
31357,31358,Yale POP_MASTER,PJB-166,,0,BMY-PJB-166,74,Dari,1,3193.5,34.4655,66.8029,BMY,PJB,Kata Koh,1004,Panjab,?????,Bamyan,??????,10
31358,31359,Yale POP_MASTER,PJB-167,,0,BMY-PJB-167,177,Dari,1,2830.0310059999997,34.4407,67.0542,BMY,PJB,Kata Qala,1004,Panjab,?????,Bamyan,??????,10
31359,31360,Yale POP_MASTER,PJB-169,,0,BMY-PJB-169,32,Dari,1,3186.334961,34.4427,67.0189,BMY,PJB,Khairak,1004,Panjab,?????,Bamyan,??????,10
31360,31361,Yale POP_MASTER,PJB-171,,0,BMY-PJB-171,111,Dari,1,3097.3129879999997,34.4825,67.0146,BMY,PJB,Khak Baidak,1004,Panjab,?????,Bamyan,??????,10
31361,31362,Yale POP_MASTER,PJB-174,,0,BMY-PJB-174,90,Dari,1,2924.336914,34.3814,66.906,BMY,PJB,Khar Zari,1004,Panjab,?????,Bamyan,??????,10
31362,31363,Yale POP_MASTER,PJB-176,,0,BMY-PJB-176,105,Dari,1,2699.179932,34.3781,67.0189,BMY,PJB,Khom,1004,Panjab,?????,Bamyan,??????,10
31363,31364,Yale POP_MASTER,PJB-180,,0,BMY-PJB-180,46,Dari,1,3225.01709,34.4037,67.2216,BMY,PJB,Khoshk Ab Hulya,1004,Panjab,?????,Bamyan,??????,10
31364,31365,Yale POP_MASTER,PJB-181,,0,BMY-PJB-181,101,Dari,1,3143.470947,34.4013,67.2072,BMY,PJB,Khoshk Ab Sufla,1004,Panjab,?????,Bamyan,??????,10
31365,31366,Yale POP_MASTER,PJB-183,,0,BMY-PJB-183,76,Dari,1,2903.394043,34.4579,67.0442,BMY,PJB,Khoshkecha Sufla,1004,Panjab,?????,Bamyan,??????,10
31366,31367,Yale POP_MASTER,PJB-184,,0,BMY-PJB-184,62,Dari,1,3176.4370120000003,34.5252,66.9733,BMY,PJB,Khowati,1004,Panjab,?????,Bamyan,??????,10
31367,31368,Yale POP_MASTER,PJB-185,,0,BMY-PJB-185,45,Dari,1,3000.468018,34.4573,67.0259,BMY,PJB,Khushkecha Hulya,1004,Panjab,?????,Bamyan,??????,10
31368,31369,Yale POP_MASTER,PJB-187,,0,BMY-PJB-187,82,Dari,1,2692.389893,34.3859,67.3995,BMY,PJB,Kodi Laka,1004,Panjab,?????,Bamyan,??????,10
31369,31370,Yale POP_MASTER,PJB-188,,0,BMY-PJB-188,197,Dari,1,2734.5161129999997,34.3504,67.014,BMY,PJB,Kodlak,1004,Panjab,?????,Bamyan,??????,10
31370,31371,Yale POP_MASTER,PJB-189,,0,BMY-PJB-189,41,Dari,1,3147.059082,34.5263,66.9604,BMY,PJB,Kohiy,1004,Panjab,?????,Bamyan,??????,10
31371,31372,Yale POP_MASTER,PJB-191,,0,BMY-PJB-191,66,Dari,1,2919.304932,34.4113,67.1033,BMY,PJB,Kosha,1004,Panjab,?????,Bamyan,??????,10
31372,31373,Yale POP_MASTER,PJB-192,,0,BMY-PJB-192,32,Dari,1,2874.769043,34.4614,66.9584,BMY,PJB,Kotaki,1004,Panjab,?????,Bamyan,??????,10
31373,31374,Yale POP_MASTER,PJB-193,,0,BMY-PJB-193,104,Dari,1,2943.094971,34.3854,67.0711,BMY,PJB,Koun Bom,1004,Panjab,?????,Bamyan,??????,10
31374,31375,Yale POP_MASTER,PJB-196,,0,BMY-PJB-196,38,Dari,1,2902.635986,34.4117,67.0854,BMY,PJB,Mandi Boghak,1004,Panjab,?????,Bamyan,??????,10
31375,31376,Yale POP_MASTER,PJB-197,,0,BMY-PJB-197,78,Dari,1,2941.444092,34.4039,67.0712,BMY,PJB,Mandi Ghulam Shah,1004,Panjab,?????,Bamyan,??????,10
31376,31377,Yale POP_MASTER,PJB-198,,0,BMY-PJB-198,16,Dari,1,2878.185059,34.4211,67.11399999999999,BMY,PJB,Mandi Taqi,1004,Panjab,?????,Bamyan,??????,10
31377,31378,Yale POP_MASTER,PJB-199,,0,BMY-PJB-199,224,Dari,1,2768.673096,34.3876,67.0253,BMY,PJB,Markazi Panjab,1004,Panjab,?????,Bamyan,??????,10
31378,31379,Yale POP_MASTER,PJB-200,,0,BMY-PJB-200,97,Dari,1,3128.866943,34.5106,67.1179,BMY,PJB,Meyan Qoul,1004,Panjab,?????,Bamyan,??????,10
31379,31380,Yale POP_MASTER,PJB-202,,0,BMY-PJB-202,39,Dari,1,2830.985107,34.4337,67.0527,BMY,PJB,Meyan Zaiy,1004,Panjab,?????,Bamyan,??????,10
31380,31381,Yale POP_MASTER,PJB-203,,0,BMY-PJB-203,154,Dari,1,3181.574951,34.5455,67.2702,BMY,PJB,Nahod,1004,Panjab,?????,Bamyan,??????,10
31381,31382,Yale POP_MASTER,PJB-204,,0,BMY-PJB-204,103,Dari,1,3071.8520510000003,34.5012,66.9241,BMY,PJB,Nai Moqam,1004,Panjab,?????,Bamyan,??????,10
31382,31383,Yale POP_MASTER,PJB-206,,0,BMY-PJB-206,61,Dari,1,3230.479004,34.5485,66.9555,BMY,PJB,Naw Gadi,1004,Panjab,?????,Bamyan,??????,10
31383,31384,Yale POP_MASTER,PJB-207,,0,BMY-PJB-207,54,Dari,1,3203.028076,34.4897,66.8635,BMY,PJB,Naw Qeyagh,1004,Panjab,?????,Bamyan,??????,10
31384,31385,Yale POP_MASTER,PJB-208,,0,BMY-PJB-208,70,Dari,1,2972.590088,34.3836,67.3354,BMY,PJB,Nawa,1004,Panjab,?????,Bamyan,??????,10
31385,31386,Yale POP_MASTER,PJB-211,,0,BMY-PJB-211,56,Dari,1,3053.818115,34.434,67.0777,BMY,PJB,Nawa Fatah Ali,1004,Panjab,?????,Bamyan,??????,10
31386,31387,Yale POP_MASTER,PJB-212,,0,BMY-PJB-212,54,Dari,1,3147.594971,34.4412,67.0295,BMY,PJB,Nawa Khoshi,1004,Panjab,?????,Bamyan,??????,10
31387,31388,Yale POP_MASTER,PJB-213,,0,BMY-PJB-213,61,Dari,1,3100.636963,34.4521,67.1904,BMY,PJB,Nawi Barik,1004,Panjab,?????,Bamyan,??????,10
31388,31389,Yale POP_MASTER,PJB-214,,0,BMY-PJB-214,8,Dari,1,3168.1201170000004,34.4686,67.1573,BMY,PJB,Nawi Dahqan,1004,Panjab,?????,Bamyan,??????,10
31389,31390,Yale POP_MASTER,PJB-216,,0,BMY-PJB-216,43,Dari,1,3037.36499,34.4835,67.0786,BMY,PJB,Nawi Lar,1004,Panjab,?????,Bamyan,??????,10
31390,31391,Yale POP_MASTER,PJB-218,,0,BMY-PJB-218,158,Dari,1,2926.758057,34.3234,67.0193,BMY,PJB,Nazar Bai,1004,Panjab,?????,Bamyan,??????,10
31391,31392,Yale POP_MASTER,PJB-219,,0,BMY-PJB-219,40,Dari,1,3010.99707,34.4826,67.0392,BMY,PJB,Noora Hulya,1004,Panjab,?????,Bamyan,??????,10
31392,31393,Yale POP_MASTER,PJB-220,,0,BMY-PJB-220,92,Dari,1,3067.506104,34.4755,67.0323,BMY,PJB,Noora Sufla,1004,Panjab,?????,Bamyan,??????,10
31393,31394,Yale POP_MASTER,PJB-221,,0,BMY-PJB-221,231,Other,9,2900.2109379999997,34.391,66.9557,BMY,PJB,Noorak,1004,Panjab,?????,Bamyan,??????,10
31394,31395,Yale POP_MASTER,PJB-222,,0,BMY-PJB-222,88,Dari,1,2646.434082,34.319,66.9754,BMY,PJB,Noori,1004,Panjab,?????,Bamyan,??????,10
31395,31396,Yale POP_MASTER,PJB-224,,0,BMY-PJB-224,89,Dari,1,3371.896973,34.5111,66.6936,BMY,PJB,Now Baldar Gho,1004,Panjab,?????,Bamyan,??????,10
31396,31397,Yale POP_MASTER,PJB-226,,0,BMY-PJB-226,19,Dari,1,2993.006104,34.4692,67.0698,BMY,PJB,Now Barghaso,1004,Panjab,?????,Bamyan,??????,10
31397,31398,Yale POP_MASTER,PJB-227,,0,BMY-PJB-227,125,Dari,1,3220.271973,34.3493,67.1258,BMY,PJB,Now Borda,1004,Panjab,?????,Bamyan,??????,10
31398,31399,Yale POP_MASTER,PJB-228,,0,BMY-PJB-228,28,Dari,1,3091.0419920000004,34.4876,67.032,BMY,PJB,Now Dada,1004,Panjab,?????,Bamyan,??????,10
31399,31400,Yale POP_MASTER,PJB-230,,0,BMY-PJB-230,203,Dari,1,2994.396973,34.4542,67.1848,BMY,PJB,Now Gandom,1004,Panjab,?????,Bamyan,??????,10
31400,31401,Yale POP_MASTER,PJB-231,,0,BMY-PJB-231,53,Dari,1,3240.028076,34.5426,67.2492,BMY,PJB,Now Haikal,1004,Panjab,?????,Bamyan,??????,10
31401,31402,Yale POP_MASTER,PJB-233,,0,BMY-PJB-233,51,Dari,1,3258.493896,34.4914,66.8828,BMY,PJB,Now Paiwanda,1004,Panjab,?????,Bamyan,??????,10
31402,31403,Yale POP_MASTER,PJB-234,,0,BMY-PJB-234,164,Dari,1,3039.073975,34.4215,66.8306,BMY,PJB,Now Payenda,1004,Panjab,?????,Bamyan,??????,10
31403,31404,Yale POP_MASTER,PJB-235,,0,BMY-PJB-235,36,Dari,1,3150.924072,34.4616,66.869,BMY,PJB,Now Ra,1004,Panjab,?????,Bamyan,??????,10
31404,31405,Yale POP_MASTER,PJB-236,,0,BMY-PJB-236,51,Dari,1,3035.89209,34.4597,67.0875,BMY,PJB,Now Shakha,1004,Panjab,?????,Bamyan,??????,10
31405,31406,Yale POP_MASTER,PJB-237,,0,BMY-PJB-237,83,Dari,1,3089.644043,34.4544,67.1559,BMY,PJB,Nowi Char Balaq,1004,Panjab,?????,Bamyan,??????,10
31406,31407,Yale POP_MASTER,PJB-238,,0,BMY-PJB-238,76,Dari,1,3193.74292,34.457,67.2063,BMY,PJB,Nowi Qoubad,1004,Panjab,?????,Bamyan,??????,10
31407,31408,Yale POP_MASTER,PJB-239,,0,BMY-PJB-239,43,Dari,1,3033.875977,34.466,67.1453,BMY,PJB,Nowtany,1004,Panjab,?????,Bamyan,??????,10
31475,31476,Yale POP_MASTER,PJB-240,,0,BMY-PJB-240,124,Dari,1,2642.801025,34.3278,66.9917,BMY,PJB,Pai Bom,1004,Panjab,?????,Bamyan,??????,10
31476,31477,Yale POP_MASTER,PJB-242,,0,BMY-PJB-242,109,Dari,1,3279.9951170000004,34.5276,66.888,BMY,PJB,Pai Sang,1004,Panjab,?????,Bamyan,??????,10
31477,31478,Yale POP_MASTER,PJB-243,,0,BMY-PJB-243,159,Dari,1,3042.841064,34.3846,67.3227,BMY,PJB,Paira,1004,Panjab,?????,Bamyan,??????,10
31478,31479,Yale POP_MASTER,PJB-244,,0,BMY-PJB-244,20,Dari,1,3260.4770510000003,34.5444,67.23100000000001,BMY,PJB,Pami,1004,Panjab,?????,Bamyan,??????,10
31479,31480,Yale POP_MASTER,PJB-245,,0,BMY-PJB-245,20,Dari,1,2911.605957,34.4673,67.0642,BMY,PJB,Pami,1004,Panjab,?????,Bamyan,??????,10
31480,31481,Yale POP_MASTER,PJB-246,,0,BMY-PJB-246,119,Dari,1,2918.660889,34.436,66.8097,BMY,PJB,Panjshanba,1004,Panjab,?????,Bamyan,??????,10
31481,31482,Yale POP_MASTER,PJB-247,,0,BMY-PJB-247,64,Dari,1,3013.542969,34.3868,67.1861,BMY,PJB,Pasta Lak,1004,Panjab,?????,Bamyan,??????,10
31482,31483,Yale POP_MASTER,PJB-248,,0,BMY-PJB-248,180,Dari,1,3106.116943,34.5386,67.2664,BMY,PJB,Payan Qash,1004,Panjab,?????,Bamyan,??????,10
31483,31484,Yale POP_MASTER,PJB-250,,0,BMY-PJB-250,195,Dari,1,3097.913086,34.3426,67.1048,BMY,PJB,Peer Zad Hulya,1004,Panjab,?????,Bamyan,??????,10
31484,31485,Yale POP_MASTER,PJB-251,,0,BMY-PJB-251,117,Dari,1,2982.903076,34.3319,67.0845,BMY,PJB,Peer Zad Sufla,1004,Panjab,?????,Bamyan,??????,10
31485,31486,Yale POP_MASTER,PJB-252,,0,BMY-PJB-252,50,Dari,1,2916.555908,34.3806,67.4153,BMY,PJB,Poshta,1004,Panjab,?????,Bamyan,??????,10
31486,31487,Yale POP_MASTER,PJB-253,,0,BMY-PJB-253,109,Dari,1,2911.4528809999997,34.4407,67.1345,BMY,PJB,Poudina,1004,Panjab,?????,Bamyan,??????,10
31487,31488,Yale POP_MASTER,PJB-254,,0,BMY-PJB-254,25,Dari,1,3008.409912,34.4528,67.0296,BMY,PJB,Poudina Too,1004,Panjab,?????,Bamyan,??????,10
31488,31489,Yale POP_MASTER,PJB-255,,0,BMY-PJB-255,30,Dari,1,3142.305908,34.4977,66.9743,BMY,PJB,Qachrak,1004,Panjab,?????,Bamyan,??????,10
31489,31490,Yale POP_MASTER,PJB-256,,0,BMY-PJB-256,57,Dari,1,2979.258057,34.4864,66.9347,BMY,PJB,Qad Sang,1004,Panjab,?????,Bamyan,??????,10
31490,31491,Yale POP_MASTER,PJB-257,,0,BMY-PJB-257,139,Dari,1,3070.896973,34.4803,67.2146,BMY,PJB,Qaf Qoul,1004,Panjab,?????,Bamyan,??????,10
31491,31492,Yale POP_MASTER,PJB-258,,0,BMY-PJB-258,106,Pashto,2,3054.700928,34.5372,67.2912,BMY,PJB,Qala (2),1004,Panjab,?????,Bamyan,??????,10
31492,31493,Yale POP_MASTER,PJB-259,,0,BMY-PJB-259,115,Dari,1,2988.438965,34.3827,66.8773,BMY,PJB,Qala Akhond,1004,Panjab,?????,Bamyan,??????,10
31493,31494,Yale POP_MASTER,PJB-260,,0,BMY-PJB-260,33,Dari,1,2965.875,34.4316,67.0437,BMY,PJB,Qala Akhta,1004,Panjab,?????,Bamyan,??????,10
31494,31495,Yale POP_MASTER,PJB-261,,0,BMY-PJB-261,14,Dari,1,2780.092041,34.4171,67.0466,BMY,PJB,Qala Badak,1004,Panjab,?????,Bamyan,??????,10
31495,31496,Yale POP_MASTER,PJB-262,,0,BMY-PJB-262,63,Dari,1,3022.554932,34.4938,66.9314,BMY,PJB,Qala Chal,1004,Panjab,?????,Bamyan,??????,10
31496,31497,Yale POP_MASTER,PJB-263,,0,BMY-PJB-263,92,Dari,1,3083.677002,34.3951,67.1835,BMY,PJB,Qala Dasht,1004,Panjab,?????,Bamyan,??????,10
31497,31498,Yale POP_MASTER,PJB-265,,0,BMY-PJB-265,106,Dari,1,3094.405029,34.5355,67.2849,BMY,PJB,Qala Ghola,1004,Panjab,?????,Bamyan,??????,10
31498,31499,Yale POP_MASTER,PJB-266,,0,BMY-PJB-266,64,Dari,1,2831.093018,34.4489,66.9883,BMY,PJB,Qala Ghulam Baig,1004,Panjab,?????,Bamyan,??????,10
31499,31500,Yale POP_MASTER,PJB-267,,0,BMY-PJB-267,94,Dari,1,3131.378906,34.4808,67.1769,BMY,PJB,Qala Gow Mourda,1004,Panjab,?????,Bamyan,??????,10
31500,31501,Yale POP_MASTER,PJB-268,,0,BMY-PJB-268,57,Dari,1,3175.9528809999997,34.5369,66.9973,BMY,PJB,Qala Haji Gulbat,1004,Panjab,?????,Bamyan,??????,10
