,OBJECTID,SOURCE,VIL_UID,CENTER,CNTR_CODE,AFG_UID,POPULATION,LANGUAGE_,LANG_CODE,ELEVATION,LAT_Y,LON_X,MISTI_PROV,MISTI_DIST,VILLAGE_NA,DIST_CODE,DIST_NA_EN,DIST_NA_DA,PROV_NA_EN,PROV_NA_DA,PROV_CODE
20,21,USAID AIDVillageView,CHR-003,,0,PWN-CHR-003,0,Dari,1,1632.02002,35.0226,69.1623,PWN,CHR,Chaharikar (2),301,Charikar,???????,Parwan,?????,3
21,22,USAID AIDVillageView,CHR-004,,0,PWN-CHR-004,0,Dari,1,1506.8480220000001,34.9938,69.1886,PWN,CHR,Dashte Opyan,301,Charikar,???????,Parwan,?????,3
24,25,USAID AIDVillageView,SAL-071,,0,PWN-SAL-071,0,Dari,1,2621.909912,35.2946,69.1488,PWN,SAL,Mohammad Shah (1),306,Salang,?????,Parwan,?????,3
32534,32535,USAID AIDVillageView,SHA-004,,0,PWN-SHA-004,0,Dari,1,3013.675049,34.9651,68.2692,PWN,SHA,Dahane Dewalak,309,Shekhali,??? ???,Parwan,?????,3
32535,32536,USAID AIDVillageView,SHA-008,,0,PWN-SHA-008,0,Dari,1,3275.478027,34.9577,68.2378,PWN,SHA,Dewalak (1),309,Shekhali,??? ???,Parwan,?????,3
32536,32537,USAID AIDVillageView,SHA-009,,0,PWN-SHA-009,0,Dari,1,3224.082031,34.9701,68.2583,PWN,SHA,Dewalak (2),309,Shekhali,??? ???,Parwan,?????,3
32537,32538,USAID AIDVillageView,SHA-012,,0,PWN-SHA-012,0,Dari,1,3314.739014,35.0018,68.3011,PWN,SHA,Nawre Bubak,309,Shekhali,??? ???,Parwan,?????,3
32538,32539,USAID AIDVillageView,SHA-021,,0,PWN-SHA-021,0,Dari,1,3067.875977,34.9731,68.308,PWN,SHA,Wurdagoli,309,Shekhali,??? ???,Parwan,?????,3
32539,32540,CSO AIMS Villages (ACSOR),SHA-030,,0,PWN-SHA-030,415,Dari,1,2765.100098,34.89594,68.29205999999999,PWN,SHA,Tangi (1),309,Shekhali,??? ???,Parwan,?????,3
32540,32541,CSO AIMS Villages (ACSOR),SRP-024,,0,PWN-SRP-024,57,Dari,1,2870.287109,34.73782,68.32889,PWN,SRP,Sheena (1),310,Surkh-e- Parsa,??? ?????,Parwan,?????,3
32628,32629,Yale POP_MASTER,SHA-032,,0,PWN-SHA-032,55,Dari,1,2657.375977,34.9068,68.2979,PWN,SHA,Aril,309,Shekhali,??? ???,Parwan,?????,3
32629,32630,Yale POP_MASTER,SHA-038,,0,PWN-SHA-038,136,Dari,1,2752.072021,34.8905,68.2908,PWN,SHA,Baid Qoul,309,Shekhali,??? ???,Parwan,?????,3
32630,32631,Yale POP_MASTER,SHA-040,,0,PWN-SHA-040,149,Dari,1,2546.646973,34.9204,68.3231,PWN,SHA,Bail Bainak,309,Shekhali,??? ???,Parwan,?????,3
32631,32632,Yale POP_MASTER,SHA-042,,0,PWN-SHA-042,75,Dari,1,3028.7548829999996,34.9422,68.2694,PWN,SHA,Balaq Baba,309,Shekhali,??? ???,Parwan,?????,3
32632,32633,Yale POP_MASTER,SHA-052,,0,PWN-SHA-052,114,Dari,1,3129.3911129999997,34.9727,68.268,PWN,SHA,Dahan Bar Khana,309,Shekhali,??? ???,Parwan,?????,3
32633,32634,Yale POP_MASTER,SHA-058,,0,PWN-SHA-058,209,Dari,1,2578.2971190000003,34.9128,68.3275,PWN,SHA,Dahan Pangar,309,Shekhali,??? ???,Parwan,?????,3
32634,32635,Yale POP_MASTER,SHA-062,,0,PWN-SHA-062,84,Dari,1,2613.3278809999997,34.9113,68.3015,PWN,SHA,Dahana Baid Qoul,309,Shekhali,??? ???,Parwan,?????,3
32635,32636,Yale POP_MASTER,SHA-063,,0,PWN-SHA-063,278,Dari,1,2714.2810059999997,34.9029,68.2777,PWN,SHA,Dahana Ghorbandak,309,Shekhali,??? ???,Parwan,?????,3
32636,32637,Yale POP_MASTER,SHA-065,,0,PWN-SHA-065,60,Dari,1,2887.410889,34.9396,68.3191,PWN,SHA,Dahana Seya Kharak,309,Shekhali,??? ???,Parwan,?????,3
32637,32638,Yale POP_MASTER,SHA-066,,0,PWN-SHA-066,243,Dari,1,2586.573975,34.918,68.3141,PWN,SHA,Dahana Walangag,309,Shekhali,??? ???,Parwan,?????,3
32638,32639,Yale POP_MASTER,SHA-074,,0,PWN-SHA-074,12,Dari,1,2919.5629879999997,34.8987,68.3096,PWN,SHA,Holangak,309,Shekhali,??? ???,Parwan,?????,3
32639,32640,Yale POP_MASTER,SHA-092,,0,PWN-SHA-092,53,Dari,1,2782.298096,34.9144,68.2709,PWN,SHA,Maiyana Bam,309,Shekhali,??? ???,Parwan,?????,3
32640,32641,Yale POP_MASTER,SHA-093,,0,PWN-SHA-093,94,Dari,1,3027.041016,34.9522,68.2621,PWN,SHA,Maiyana Dahi,309,Shekhali,??? ???,Parwan,?????,3
32641,32642,Yale POP_MASTER,SHA-104,,0,PWN-SHA-104,143,Dari,1,2890.428955,34.9424,68.2623,PWN,SHA,Sang Andab,309,Shekhali,??? ???,Parwan,?????,3
32642,32643,Yale POP_MASTER,SHA-106,,0,PWN-SHA-106,98,Dari,1,2906.191895,34.8806,68.2643,PWN,SHA,Sar Ghor Bandak,309,Shekhali,??? ???,Parwan,?????,3
32643,32644,Yale POP_MASTER,SHA-108,,0,PWN-SHA-108,40,Dari,1,3140.314941,34.9569,68.2966,PWN,SHA,Sar Seya Kharak,309,Shekhali,??? ???,Parwan,?????,3
32644,32645,Yale POP_MASTER,SHA-119,,0,PWN-SHA-119,155,Turkmen,4,2617.574951,34.8954,68.3258,PWN,SHA,Tangi Bala,309,Shekhali,??? ???,Parwan,?????,3
32645,32646,Yale POP_MASTER,SHA-123,,0,PWN-SHA-123,79,Dari,1,2739.219971,34.9304,68.3276,PWN,SHA,Walangag,309,Shekhali,??? ???,Parwan,?????,3
32646,32647,Yale POP_MASTER,SHA-124,,0,PWN-SHA-124,263,Dari,1,2763.743896,34.9491,68.3271,PWN,SHA,Wali Tak Mazar,309,Shekhali,??? ???,Parwan,?????,3
32647,32648,Yale POP_MASTER,SHA-126,,0,PWN-SHA-126,44,Dari,1,2738.274902,34.9112,68.281,PWN,SHA,Zair Shebar,309,Shekhali,??? ???,Parwan,?????,3
32648,32649,Yale POP_MASTER,SRP-028,,0,PWN-SRP-028,66,Dari,1,3130.845947,34.7725,68.3448,PWN,SRP,Ab Pash,310,Surkh-e- Parsa,??? ?????,Parwan,?????,3
32649,32650,Yale POP_MASTER,SRP-107,,0,PWN-SRP-107,127,Dari,1,2906.396973,34.7561,68.36399999999999,PWN,SRP,Kholi,310,Surkh-e- Parsa,??? ?????,Parwan,?????,3
32650,32651,Yale POP_MASTER,SRP-108,,0,PWN-SRP-108,84,Dari,1,2914.543945,34.7462,68.3633,PWN,SRP,Khordak Zai,310,Surkh-e- Parsa,??? ?????,Parwan,?????,3
32651,32652,Yale POP_MASTER,SRP-118,,0,PWN-SRP-118,88,Dari,1,2901.319092,34.7509,68.3658,PWN,SRP,Nader Shah,310,Surkh-e- Parsa,??? ?????,Parwan,?????,3
32652,32653,Yale POP_MASTER,SRP-130,,0,PWN-SRP-130,124,Dari,1,3086.466064,34.7464,68.3095,PWN,SRP,Qala Kochak,310,Surkh-e- Parsa,??? ?????,Parwan,?????,3
32653,32654,Yale POP_MASTER,SRP-139,,0,PWN-SRP-139,87,Dari,1,2812.4370120000003,34.7364,68.3362,PWN,SRP,Sad Morda,310,Surkh-e- Parsa,??? ?????,Parwan,?????,3
32654,32655,Yale POP_MASTER,SRP-146,,0,PWN-SRP-146,141,Dari,1,2922.356934,34.7473,68.3251,PWN,SRP,Sari Ghajor,310,Surkh-e- Parsa,??? ?????,Parwan,?????,3
33952,33953,CSO AIMS Villages (ACSOR),SRP-025,,0,PWN-SRP-025,179,Dari,1,2851.00708,34.69697,68.37845,PWN,SRP,Sheena (2),310,Surkh-e- Parsa,??? ?????,Parwan,?????,3
33999,34000,Yale POP_MASTER,SRP-052,,0,PWN-SRP-052,63,Dari,1,2607.35498,34.7155,68.3852,PWN,SRP,Dahan Aw Posh,310,Surkh-e- Parsa,??? ?????,Parwan,?????,3
34000,34001,Yale POP_MASTER,SRP-054,,0,PWN-SRP-054,19,Dari,1,2628.310059,34.7125,68.3722,PWN,SRP,Dahan Ghajor,310,Surkh-e- Parsa,??? ?????,Parwan,?????,3
34001,34002,Yale POP_MASTER,SRP-067,,0,PWN-SRP-067,285,Dari,1,2632.11499,34.7091,68.3757,PWN,SRP,Dahana Khak Raiz,310,Surkh-e- Parsa,??? ?????,Parwan,?????,3
34002,34003,Yale POP_MASTER,SRP-092,,0,PWN-SRP-092,160,Dari,1,2588.186035,34.7197,68.4012,PWN,SRP,Jowa Zak,310,Surkh-e- Parsa,??? ?????,Parwan,?????,3
34003,34004,Yale POP_MASTER,SRP-094,,0,PWN-SRP-094,83,Dari,1,2817.884033,34.7385,68.3748,PWN,SRP,Jowra,310,Surkh-e- Parsa,??? ?????,Parwan,?????,3
34004,34005,Yale POP_MASTER,SRP-097,,0,PWN-SRP-097,19,Dari,1,3016.450928,34.6786,68.4067,PWN,SRP,Khajak,310,Surkh-e- Parsa,??? ?????,Parwan,?????,3
34005,34006,Yale POP_MASTER,SRP-113,,0,PWN-SRP-113,55,Dari,1,3163.408936,34.6708,68.4182,PWN,SRP,Malakh Khorda,310,Surkh-e- Parsa,??? ?????,Parwan,?????,3
34006,34007,Yale POP_MASTER,SRP-128,,0,PWN-SRP-128,69,Dari,1,3076.968018,34.6788,68.4295,PWN,SRP,Qafzar,310,Surkh-e- Parsa,??? ?????,Parwan,?????,3
34007,34008,Yale POP_MASTER,SRP-143,,0,PWN-SRP-143,50,Dari,1,3068.706055,34.66,68.388,PWN,SRP,Sar Khak Raiz,310,Surkh-e- Parsa,??? ?????,Parwan,?????,3
34008,34009,Yale POP_MASTER,SRP-157,,0,PWN-SRP-157,75,Dari,1,2885.64502,34.6932,68.3894,PWN,SRP,Sheena Khak Raiz,310,Surkh-e- Parsa,??? ?????,Parwan,?????,3
35811,35812,USAID AIDVillageView,SYG-001,,0,PWN-SYG-001,0,Dari,1,2013.477051,34.9838,68.7017,PWN,SYG,Chahar Deh-ye Ghowr Band,307,Ghorband,??????,Parwan,?????,3
35812,35813,USAID AIDVillageView,SYG-003,,0,PWN-SYG-003,0,Dari,1,2126.967041,34.9608,68.6373,PWN,SYG,Do Abi Ghowr Band,307,Ghorband,??????,Parwan,?????,3
35813,35814,USAID AIDVillageView,SYG-004,,0,PWN-SYG-004,0,Dari,1,2699.332031,35.0696,68.6573,PWN,SYG,Haji-aslamkhan,307,Ghorband,??????,Parwan,?????,3
35814,35815,USAID AIDVillageView,SYG-009,,0,PWN-SYG-009,0,Dari,1,2087.503906,34.9774,68.6611,PWN,SYG,Qalarkhak,307,Ghorband,??????,Parwan,?????,3
35815,35816,CSO AIMS Villages (ACSOR),SYG-011,,0,PWN-SYG-011,287,Dari,1,2211.060059,34.982279999999996,68.633,PWN,SYG,Do Ab (1),307,Ghorband,??????,Parwan,?????,3
35816,35817,USAID AIDVillageView,SHA-002,,0,PWN-SHA-002,0,Dari,1,2508.355957,34.998000000000005,68.611,PWN,SHA,Babur(behuda),309,Shekhali,??? ???,Parwan,?????,3
35817,35818,USAID AIDVillageView,SRP-001,,0,PWN-SRP-001,0,Dari,1,2539.690918,34.863,68.6911,PWN,SRP,Aylaqe Gholjatu,310,Surkh-e- Parsa,??? ?????,Parwan,?????,3
35818,35819,USAID AIDVillageView,SRP-002,,0,PWN-SRP-002,0,Dari,1,2907.39209,34.7653,68.5969,PWN,SRP,Aylaqe Kalanbala,310,Surkh-e- Parsa,??? ?????,Parwan,?????,3
35819,35820,USAID AIDVillageView,SRP-005,,0,PWN-SRP-005,0,Dari,1,2475.679932,34.7517,68.7105,PWN,SRP,Dahane Balenabadam,310,Surkh-e- Parsa,??? ?????,Parwan,?????,3
35820,35821,USAID AIDVillageView,SRP-012,,0,PWN-SRP-012,0,Dari,1,2710.304932,34.7387,68.7295,PWN,SRP,Tangi (1),310,Surkh-e- Parsa,??? ?????,Parwan,?????,3
35821,35822,CSO AIMS Villages (ACSOR),SRP-013,,0,PWN-SRP-013,124,Dari,1,2692.1489260000003,34.742490000000004,68.64328,PWN,SRP,Deyar Shair Mohammad Maiyana Jai,310,Surkh-e- Parsa,??? ?????,Parwan,?????,3
35822,35823,CSO AIMS Villages (ACSOR),SRP-017,,0,PWN-SRP-017,85,Dari,1,2282.606934,34.79853,68.60287,PWN,SRP,Qarghana,310,Surkh-e- Parsa,??? ?????,Parwan,?????,3
35823,35824,CSO AIMS Villages (ACSOR),SRP-019,,0,PWN-SRP-019,137,Dari,1,2243.468018,34.85953,68.63201,PWN,SRP,Sangenak (1),310,Surkh-e- Parsa,??? ?????,Parwan,?????,3
35824,35825,CSO AIMS Villages (ACSOR),SRP-020,,0,PWN-SRP-020,108,Dari,1,2904.876953,34.7407,68.65436,PWN,SRP,Sar Sang (1),310,Surkh-e- Parsa,??? ?????,Parwan,?????,3
35825,35826,CSO AIMS Villages (ACSOR),SRP-021,,0,PWN-SRP-021,201,Dari,1,2341.4838870000003,34.85426,68.64898000000001,PWN,SRP,Sar Sang (2),310,Surkh-e- Parsa,??? ?????,Parwan,?????,3
35826,35827,CSO AIMS Villages (ACSOR),SRP-026,,0,PWN-SRP-026,109,Dari,1,2526.803955,34.749,68.7255,PWN,SRP,Tangi (3),310,Surkh-e- Parsa,??? ?????,Parwan,?????,3
35827,35828,CSO AIMS Villages (ACSOR),SRP-027,,0,PWN-SRP-027,340,Dari,1,2473.231934,34.85308,68.66991,PWN,SRP,Tangi (2),310,Surkh-e- Parsa,??? ?????,Parwan,?????,3
35828,35829,Yale POP_MASTER,SHA-035,,0,PWN-SHA-035,404,Dari,1,2504.021973,35.0067,68.6046,PWN,SHA,Babor Bala,309,Shekhali,??? ???,Parwan,?????,3
35829,35830,Yale POP_MASTER,SHA-036,,0,PWN-SHA-036,590,Dari,1,2303.5979,34.9912,68.6041,PWN,SHA,Babor Payen,309,Shekhali,??? ???,Parwan,?????,3
35830,35831,Yale POP_MASTER,SHA-051,,0,PWN-SHA-051,249,Dari,1,2081.300049,34.9683,68.6153,PWN,SHA,Dahan Babor,309,Shekhali,??? ???,Parwan,?????,3
35831,35832,Yale POP_MASTER,SHA-072,,0,PWN-SHA-072,161,Dari,1,2497.404053,34.8971,68.5989,PWN,SHA,Gandab,309,Shekhali,??? ???,Parwan,?????,3
35832,35833,Yale POP_MASTER,SHA-089,,0,PWN-SHA-089,160,Dari,1,2543.471924,34.8972,68.5813,PWN,SHA,Khowaz Bala,309,Shekhali,??? ???,Parwan,?????,3
35833,35834,Yale POP_MASTER,SHA-090,,0,PWN-SHA-090,189,Dari,1,2342.581055,34.9134,68.5946,PWN,SHA,Khowaz Payen,309,Shekhali,??? ???,Parwan,?????,3
35834,35835,Yale POP_MASTER,SHA-110,,0,PWN-SHA-110,303,Dari,1,2377.989014,34.9949,68.5991,PWN,SHA,Seya Kharak,309,Shekhali,??? ???,Parwan,?????,3
35835,35836,Yale POP_MASTER,SHA-120,,0,PWN-SHA-120,85,Dari,1,2131.10498,34.9694,68.6046,PWN,SHA,Tangi Lal,309,Shekhali,??? ???,Parwan,?????,3
35836,35837,Yale POP_MASTER,SYG-024,,0,PWN-SYG-024,228,Dari,1,1954.885986,34.9878,68.7268,PWN,SYG,Bakham,307,Ghorband,??????,Parwan,?????,3
35837,35838,Yale POP_MASTER,SYG-031,,0,PWN-SYG-031,933,Dari,1,2087.924072,34.9445,68.7406,PWN,SYG,Chailan,307,Ghorband,??????,Parwan,?????,3
35838,35839,Yale POP_MASTER,SYG-036,,0,PWN-SYG-036,265,Dari,1,1982.519043,34.9885,68.7354,PWN,SYG,Dahan Parsa,307,Ghorband,??????,Parwan,?????,3
35839,35840,Yale POP_MASTER,SYG-037,,0,PWN-SYG-037,120,Dari,1,2137.667969,34.9675,68.6548,PWN,SYG,Dahan Pasak,307,Ghorband,??????,Parwan,?????,3
35870,35871,Yale POP_MASTER,SYG-038,,0,PWN-SYG-038,1000,Dari,1,2005.989014,34.9831,68.67399999999999,PWN,SYG,Dahan Zaow,307,Ghorband,??????,Parwan,?????,3
35871,35872,Yale POP_MASTER,SYG-044,,0,PWN-SYG-044,171,Dari,1,2070.816895,34.9858,68.6677,PWN,SYG,Dasht Kowaz,307,Ghorband,??????,Parwan,?????,3
35872,35873,Yale POP_MASTER,SYG-045,,0,PWN-SYG-045,243,Dari,1,2312.3989260000003,34.9933,68.623,PWN,SYG,Dasht Mazana,307,Ghorband,??????,Parwan,?????,3
35873,35874,Yale POP_MASTER,SYG-048,,0,PWN-SYG-048,1165,Dari,1,1985.785034,34.9831,68.6923,PWN,SYG,Faranjal,307,Ghorband,??????,Parwan,?????,3
35874,35875,Yale POP_MASTER,SYG-055,,0,PWN-SYG-055,8,Dari,1,2517.6521,35.0616,68.67,PWN,SYG,Haji Afraseyab,307,Ghorband,??????,Parwan,?????,3
35875,35876,Yale POP_MASTER,SYG-056,,0,PWN-SYG-056,447,Pashto,2,2069.35791,34.9537,68.7382,PWN,SYG,Hasmat Khail,307,Ghorband,??????,Parwan,?????,3
35876,35877,Yale POP_MASTER,SYG-058,,0,PWN-SYG-058,113,Dari,1,2537.196045,35.0478,68.6717,PWN,SYG,Hota Poor,307,Ghorband,??????,Parwan,?????,3
35877,35878,Yale POP_MASTER,SYG-066,,0,PWN-SYG-066,173,Dari,1,2301.346924,35.0269,68.6748,PWN,SYG,Kalkhak,307,Ghorband,??????,Parwan,?????,3
35878,35879,Yale POP_MASTER,SYG-068,,0,PWN-SYG-068,58,Dari,1,2580.165039,35.0163,68.6167,PWN,SYG,Kar Kara,307,Ghorband,??????,Parwan,?????,3
35879,35880,Yale POP_MASTER,SYG-096,,0,PWN-SYG-096,766,Dari,1,2426.688965,35.0058,68.6207,PWN,SYG,Sahar Mazana,307,Ghorband,??????,Parwan,?????,3
35880,35881,Yale POP_MASTER,SYG-100,,0,PWN-SYG-100,252,Dari,1,2181.082031,35.0067,68.6832,PWN,SYG,Sar Gozar,307,Ghorband,??????,Parwan,?????,3
35881,35882,Yale POP_MASTER,SYG-102,,0,PWN-SYG-102,1020,Dari,1,2207.416016,34.9368,68.7399,PWN,SYG,Seya Kaka,307,Ghorband,??????,Parwan,?????,3
35882,35883,Yale POP_MASTER,SYG-103,,0,PWN-SYG-103,79,Dari,1,2626.336914,35.0625,68.6643,PWN,SYG,Seya Kharak,307,Ghorband,??????,Parwan,?????,3
35883,35884,Yale POP_MASTER,SRP-029,,0,PWN-SRP-029,454,Dari,1,2307.181885,34.8715,68.73100000000001,PWN,SRP,Abdal,310,Surkh-e- Parsa,??? ?????,Parwan,?????,3
35884,35885,Yale POP_MASTER,SRP-030,,0,PWN-SRP-030,149,Dari,1,2424.198975,34.7803,68.5678,PWN,SRP,Adail,310,Surkh-e- Parsa,??? ?????,Parwan,?????,3
35885,35886,Yale POP_MASTER,SRP-031,,0,PWN-SRP-031,250,Dari,1,2927.570068,34.7091,68.5953,PWN,SRP,Alison Ailaq,310,Surkh-e- Parsa,??? ?????,Parwan,?????,3
35886,35887,Yale POP_MASTER,SRP-032,,0,PWN-SRP-032,159,Dari,1,2349.069092,34.7839,68.5779,PWN,SRP,Amratak,310,Surkh-e- Parsa,??? ?????,Parwan,?????,3
35887,35888,Yale POP_MASTER,SRP-033,,0,PWN-SRP-033,150,Dari,1,2431.4770510000003,34.7928,68.5666,PWN,SRP,Ashiq,310,Surkh-e- Parsa,??? ?????,Parwan,?????,3
35888,35889,Yale POP_MASTER,SRP-035,,0,PWN-SRP-035,4847,Dari,1,2635.545898,34.7876,68.6689,PWN,SRP,Aw Dara,310,Surkh-e- Parsa,??? ?????,Parwan,?????,3
35889,35890,Yale POP_MASTER,SRP-036,,0,PWN-SRP-036,120,Dari,1,2287.6521,34.8171,68.6227,PWN,SRP,Azmeem,310,Surkh-e- Parsa,??? ?????,Parwan,?????,3
35890,35891,Yale POP_MASTER,SRP-037,,0,PWN-SRP-037,300,Dari,1,2556.14209,34.8119,68.5791,PWN,SRP,Baidak Ayalaq,310,Surkh-e- Parsa,??? ?????,Parwan,?????,3
35891,35892,Yale POP_MASTER,SRP-038,,0,PWN-SRP-038,250,Dari,1,2848.298096,34.7747,68.6271,PWN,SRP,Baidak Bala,310,Surkh-e- Parsa,??? ?????,Parwan,?????,3
35892,35893,Yale POP_MASTER,SRP-039,,0,PWN-SRP-039,18,Dari,1,2876.084961,34.7861,68.6218,PWN,SRP,Baidak Payen,310,Surkh-e- Parsa,??? ?????,Parwan,?????,3
35893,35894,Yale POP_MASTER,SRP-040,,0,PWN-SRP-040,538,Dari,1,2324.389893,34.8644,68.7313,PWN,SRP,Bala Qala,310,Surkh-e- Parsa,??? ?????,Parwan,?????,3
35894,35895,Yale POP_MASTER,SRP-043,,0,PWN-SRP-043,113,Dari,1,2321.934082,34.8046,68.6052,PWN,SRP,Bangi,310,Surkh-e- Parsa,??? ?????,Parwan,?????,3
35895,35896,Yale POP_MASTER,SRP-044,,0,PWN-SRP-044,165,Dari,1,2405.768066,34.8202,68.6477,PWN,SRP,Baqi,310,Surkh-e- Parsa,??? ?????,Parwan,?????,3
35896,35897,Yale POP_MASTER,SRP-049,,0,PWN-SRP-049,22,Dari,1,2300.7451170000004,34.7951,68.5923,PWN,SRP,Char Yari,310,Surkh-e- Parsa,??? ?????,Parwan,?????,3
35897,35898,Yale POP_MASTER,SRP-050,,0,PWN-SRP-050,172,Dari,1,2326.0161129999997,34.7906,68.5812,PWN,SRP,Dahan Ashiq,310,Surkh-e- Parsa,??? ?????,Parwan,?????,3
35898,35899,Yale POP_MASTER,SRP-053,,0,PWN-SRP-053,149,Dari,1,2298.1640629999997,34.7985,68.6599,PWN,SRP,Dahan Barek,310,Surkh-e- Parsa,??? ?????,Parwan,?????,3
35899,35900,Yale POP_MASTER,SRP-057,,0,PWN-SRP-057,244,Dari,1,2261.748047,34.8264,68.6579,PWN,SRP,Dahan Khoshkak,310,Surkh-e- Parsa,??? ?????,Parwan,?????,3
35900,35901,Yale POP_MASTER,SRP-059,,0,PWN-SRP-059,299,Dari,1,2407.396973,34.845,68.6227,PWN,SRP,Dahan Nook,310,Surkh-e- Parsa,??? ?????,Parwan,?????,3
35901,35902,Yale POP_MASTER,SRP-060,,0,PWN-SRP-060,208,Dari,1,2533.98999,34.7468,68.6385,PWN,SRP,Dahan Saybak,310,Surkh-e- Parsa,??? ?????,Parwan,?????,3
35902,35903,Yale POP_MASTER,SRP-061,,0,PWN-SRP-061,248,Dari,1,2099.9689940000003,34.9121,68.6507,PWN,SRP,Dahan Tayer Koh,310,Surkh-e- Parsa,??? ?????,Parwan,?????,3
35903,35904,Yale POP_MASTER,SRP-063,,0,PWN-SRP-063,148,Dari,1,2632.572021,34.7317,68.6223,PWN,SRP,Dahana Dai Ghamak,310,Surkh-e- Parsa,??? ?????,Parwan,?????,3
35904,35905,Yale POP_MASTER,SRP-066,,0,PWN-SRP-066,149,Dari,1,2410.155029,34.7738,68.554,PWN,SRP,Dahana Kamari,310,Surkh-e- Parsa,??? ?????,Parwan,?????,3
35905,35906,Yale POP_MASTER,SRP-068,,0,PWN-SRP-068,211,Dari,1,2083.756104,34.9025,68.6522,PWN,SRP,Dahana Makolla,310,Surkh-e- Parsa,??? ?????,Parwan,?????,3
35906,35907,Yale POP_MASTER,SRP-069,,0,PWN-SRP-069,83,Dari,1,2365.669922,34.8559,68.631,PWN,SRP,Dahana Nowi Mazar,310,Surkh-e- Parsa,??? ?????,Parwan,?????,3
35907,35908,Yale POP_MASTER,SRP-071,,0,PWN-SRP-071,364,Dari,1,2950.957031,34.7334,68.6457,PWN,SRP,Dahana Qoul,310,Surkh-e- Parsa,??? ?????,Parwan,?????,3
35908,35909,Yale POP_MASTER,SRP-072,,0,PWN-SRP-072,592,Dari,1,2781.86792,34.7321,68.5995,PWN,SRP,Dahana Raqoul,310,Surkh-e- Parsa,??? ?????,Parwan,?????,3
35909,35910,Yale POP_MASTER,SRP-073,,0,PWN-SRP-073,162,Dari,1,2384.499023,34.8233,68.6264,PWN,SRP,Dahana Saybak,310,Surkh-e- Parsa,??? ?????,Parwan,?????,3
35910,35911,Yale POP_MASTER,SRP-074,,0,PWN-SRP-074,50,Dari,1,2092.883057,34.8961,68.6496,PWN,SRP,Dahana Tangi,310,Surkh-e- Parsa,??? ?????,Parwan,?????,3
35911,35912,Yale POP_MASTER,SRP-075,,0,PWN-SRP-075,358,Dari,1,2338.878906,34.8455,68.6675,PWN,SRP,Dahanow,310,Surkh-e- Parsa,??? ?????,Parwan,?????,3
35912,35913,Yale POP_MASTER,SRP-076,,0,PWN-SRP-076,133,Dari,1,2924.3588870000003,34.7456,68.626,PWN,SRP,Dara Jowz,310,Surkh-e- Parsa,??? ?????,Parwan,?????,3
35913,35914,Yale POP_MASTER,SRP-078,,0,PWN-SRP-078,330,Dari,1,2379.826904,34.8063,68.6541,PWN,SRP,Deyar Paywand,310,Surkh-e- Parsa,??? ?????,Parwan,?????,3
35914,35915,Yale POP_MASTER,SRP-079,,0,PWN-SRP-079,369,Dari,1,2676.758057,34.7981,68.6793,PWN,SRP,Diktor,310,Surkh-e- Parsa,??? ?????,Parwan,?????,3
35915,35916,Yale POP_MASTER,SRP-080,,0,PWN-SRP-080,513,Dari,1,2413.653076,34.7674,68.6619,PWN,SRP,Do Ab Sheena,310,Surkh-e- Parsa,??? ?????,Parwan,?????,3
35916,35917,Yale POP_MASTER,SRP-081,,0,PWN-SRP-081,232,Dari,1,2466.365967,34.7628,68.6804,PWN,SRP,Dorak,310,Surkh-e- Parsa,??? ?????,Parwan,?????,3
35917,35918,Yale POP_MASTER,SRP-083,,0,PWN-SRP-083,385,Dari,1,2543.269043,34.7945,68.6671,PWN,SRP,Fazail,310,Surkh-e- Parsa,??? ?????,Parwan,?????,3
35918,35919,Yale POP_MASTER,SRP-084,,0,PWN-SRP-084,95,Dari,1,2785.279053,34.8192,68.7103,PWN,SRP,Gardi,310,Surkh-e- Parsa,??? ?????,Parwan,?????,3
35919,35920,Yale POP_MASTER,SRP-085,,0,PWN-SRP-085,1533,Dari,1,2222.040039,34.855,68.6596,PWN,SRP,Gonbad,310,Surkh-e- Parsa,??? ?????,Parwan,?????,3
35920,35921,Yale POP_MASTER,SRP-086,,0,PWN-SRP-086,148,Dari,1,2198.083984,34.9156,68.7432,PWN,SRP,Goparan,310,Surkh-e- Parsa,??? ?????,Parwan,?????,3
35921,35922,Yale POP_MASTER,SRP-087,,0,PWN-SRP-087,125,Dari,1,2698.3330079999996,34.7914,68.6701,PWN,SRP,Hawly,310,Surkh-e- Parsa,??? ?????,Parwan,?????,3
35922,35923,Yale POP_MASTER,SRP-088,,0,PWN-SRP-088,157,Dari,1,2354.915039,34.8145,68.6548,PWN,SRP,Jaba Sang Bala,310,Surkh-e- Parsa,??? ?????,Parwan,?????,3
35923,35924,Yale POP_MASTER,SRP-089,,0,PWN-SRP-089,104,Dari,1,2635.23291,34.8125,68.6445,PWN,SRP,Jaba Sang Payen,310,Surkh-e- Parsa,??? ?????,Parwan,?????,3
35924,35925,Yale POP_MASTER,SRP-090,,0,PWN-SRP-090,299,Dari,1,2323.061035,34.79,68.5865,PWN,SRP,Jami,310,Surkh-e- Parsa,??? ?????,Parwan,?????,3
35925,35926,Yale POP_MASTER,SRP-091,,0,PWN-SRP-091,701,Dari,1,2233.4370120000003,34.8966,68.7364,PWN,SRP,Jamil,310,Surkh-e- Parsa,??? ?????,Parwan,?????,3
35926,35927,Yale POP_MASTER,SRP-093,,0,PWN-SRP-093,406,Dari,1,2099.2810059999997,34.9212,68.6401,PWN,SRP,Jowi Shah,310,Surkh-e- Parsa,??? ?????,Parwan,?????,3
35927,35928,Yale POP_MASTER,SRP-096,,0,PWN-SRP-096,596,Dari,1,3220.416016,34.7022,68.5767,PWN,SRP,Kata Sang Ailaq,310,Surkh-e- Parsa,??? ?????,Parwan,?????,3
35928,35929,Yale POP_MASTER,SRP-099,,0,PWN-SRP-099,52,Dari,1,2380.816895,34.7818,68.572,PWN,SRP,Khar Baidak,310,Surkh-e- Parsa,??? ?????,Parwan,?????,3
35929,35930,Yale POP_MASTER,SRP-100,,0,PWN-SRP-100,69,Dari,1,2193.806885,34.8418,68.6415,PWN,SRP,Khara Kayen,310,Surkh-e- Parsa,??? ?????,Parwan,?????,3
35930,35931,Yale POP_MASTER,SRP-101,,0,PWN-SRP-101,133,Dari,1,2321.668945,34.8104,68.6208,PWN,SRP,Khatero,310,Surkh-e- Parsa,??? ?????,Parwan,?????,3
35931,35932,Yale POP_MASTER,SRP-102,,0,PWN-SRP-102,891,Dari,1,2219.361084,34.9007,68.7368,PWN,SRP,Khenjak,310,Surkh-e- Parsa,??? ?????,Parwan,?????,3
35932,35933,Yale POP_MASTER,SRP-103,,0,PWN-SRP-103,328,Dari,1,2363.9060059999997,34.7867,68.5647,PWN,SRP,Kheyata,310,Surkh-e- Parsa,??? ?????,Parwan,?????,3
35933,35934,Yale POP_MASTER,SRP-104,,0,PWN-SRP-104,1518,Dari,1,2392.23291,34.8784,68.72399999999999,PWN,SRP,Khoja,310,Surkh-e- Parsa,??? ?????,Parwan,?????,3
35934,35935,Yale POP_MASTER,SRP-106,,0,PWN-SRP-106,211,Dari,1,2547.7028809999997,34.7385,68.6315,PWN,SRP,Khoja Yaar,310,Surkh-e- Parsa,??? ?????,Parwan,?????,3
35935,35936,Yale POP_MASTER,SRP-109,,0,PWN-SRP-109,69,Dari,1,2260.610107,34.8059,68.6098,PWN,SRP,Lala,310,Surkh-e- Parsa,??? ?????,Parwan,?????,3
35936,35937,Yale POP_MASTER,SRP-110,,0,PWN-SRP-110,93,Dari,1,2445.8129879999997,34.8292,68.6484,PWN,SRP,Langar,310,Surkh-e- Parsa,??? ?????,Parwan,?????,3
35937,35938,Yale POP_MASTER,SRP-111,,0,PWN-SRP-111,344,Dari,1,2472.39502,34.8341,68.7451,PWN,SRP,Lokhak,310,Surkh-e- Parsa,??? ?????,Parwan,?????,3
35970,35971,Yale POP_MASTER,SRP-112,,0,PWN-SRP-112,39,Dari,1,2459.037109,34.8919,68.6229,PWN,SRP,Lolenj Khar Baid,310,Surkh-e- Parsa,??? ?????,Parwan,?????,3
35971,35972,Yale POP_MASTER,SRP-114,,0,PWN-SRP-114,265,Dari,1,2315.999023,34.7785,68.6601,PWN,SRP,Meyta,310,Surkh-e- Parsa,??? ?????,Parwan,?????,3
35972,35973,Yale POP_MASTER,SRP-115,,0,PWN-SRP-115,184,Dari,1,2382.658936,34.789,68.6551,PWN,SRP,Mir Maqsood,310,Surkh-e- Parsa,??? ?????,Parwan,?????,3
35973,35974,Yale POP_MASTER,SRP-116,,0,PWN-SRP-116,127,Dari,1,2275.070068,34.8158,68.6313,PWN,SRP,Mohtashem Dahana Yodali,310,Surkh-e- Parsa,??? ?????,Parwan,?????,3
35974,35975,Yale POP_MASTER,SRP-117,,0,PWN-SRP-117,181,Dari,1,2645.278076,34.7564,68.6978,PWN,SRP,Moshi,310,Surkh-e- Parsa,??? ?????,Parwan,?????,3
35975,35976,Yale POP_MASTER,SRP-119,,0,PWN-SRP-119,58,Dari,1,2271.501953,34.8517,68.6361,PWN,SRP,Nehmat Khail,310,Surkh-e- Parsa,??? ?????,Parwan,?????,3
35976,35977,Yale POP_MASTER,SRP-122,,0,PWN-SRP-122,569,Dari,1,2322.6020510000003,34.8926,68.7287,PWN,SRP,Pachahai,310,Surkh-e- Parsa,??? ?????,Parwan,?????,3
35977,35978,Yale POP_MASTER,SRP-123,,0,PWN-SRP-123,597,Dari,1,2304.878906,34.8344,68.665,PWN,SRP,Pai Rokai,310,Surkh-e- Parsa,??? ?????,Parwan,?????,3
35978,35979,Yale POP_MASTER,SRP-124,,0,PWN-SRP-124,406,Dari,1,2287.568115,34.8073,68.6607,PWN,SRP,Pair Sultan Qala,310,Surkh-e- Parsa,??? ?????,Parwan,?????,3
35979,35980,Yale POP_MASTER,SRP-126,,0,PWN-SRP-126,983,Dari,1,2338.841064,34.8583,68.733,PWN,SRP,Peash Dahi,310,Surkh-e- Parsa,??? ?????,Parwan,?????,3
35980,35981,Yale POP_MASTER,SRP-127,,0,PWN-SRP-127,256,Dari,1,2430.743896,34.8278,68.6158,PWN,SRP,Poshta Saybak,310,Surkh-e- Parsa,??? ?????,Parwan,?????,3
35981,35982,Yale POP_MASTER,SRP-129,,0,PWN-SRP-129,234,Dari,1,2078.49707,34.9058,68.6502,PWN,SRP,Qala Kham,310,Surkh-e- Parsa,??? ?????,Parwan,?????,3
35982,35983,Yale POP_MASTER,SRP-131,,0,PWN-SRP-131,273,Dari,1,2652.450928,34.7239,68.7406,PWN,SRP,Qeshlaq,310,Surkh-e- Parsa,??? ?????,Parwan,?????,3
35983,35984,Yale POP_MASTER,SRP-133,,0,PWN-SRP-133,31,Dari,1,2846.781982,34.7102,68.7213,PWN,SRP,Qoul Barek (1),310,Surkh-e- Parsa,??? ?????,Parwan,?????,3
35984,35985,Yale POP_MASTER,SRP-134,,0,PWN-SRP-134,31,Dari,1,2441.303955,34.8046,68.6798,PWN,SRP,Qoul Barek (2),310,Surkh-e- Parsa,??? ?????,Parwan,?????,3
35985,35986,Yale POP_MASTER,SRP-136,,0,PWN-SRP-136,97,Dari,1,2575.24292,34.7668,68.5604,PWN,SRP,Qoul Qamari,310,Surkh-e- Parsa,??? ?????,Parwan,?????,3
35986,35987,Yale POP_MASTER,SRP-137,,0,PWN-SRP-137,115,Dari,1,2248.743896,34.8116,68.6165,PWN,SRP,Qounagh,310,Surkh-e- Parsa,??? ?????,Parwan,?????,3
35987,35988,Yale POP_MASTER,SRP-138,,0,PWN-SRP-138,126,Dari,1,2624.540039,34.8145,68.6732,PWN,SRP,Raig Mazar,310,Surkh-e- Parsa,??? ?????,Parwan,?????,3
35988,35989,Yale POP_MASTER,SRP-140,,0,PWN-SRP-140,218,Dari,1,2497.950928,34.849000000000004,68.7319,PWN,SRP,Samochak,310,Surkh-e- Parsa,??? ?????,Parwan,?????,3
35989,35990,Yale POP_MASTER,SRP-147,,0,PWN-SRP-147,286,Dari,1,2778.4169920000004,34.8137,68.6793,PWN,SRP,Sarobah,310,Surkh-e- Parsa,??? ?????,Parwan,?????,3
35990,35991,Yale POP_MASTER,SRP-148,,0,PWN-SRP-148,240,Dari,1,2825.4951170000004,34.7248,68.5967,PWN,SRP,Saroke Dahana Abli,310,Surkh-e- Parsa,??? ?????,Parwan,?????,3
35991,35992,Yale POP_MASTER,SRP-149,,0,PWN-SRP-149,196,Dari,1,2142.856934,34.9143,68.6368,PWN,SRP,Sayel Zada,310,Surkh-e- Parsa,??? ?????,Parwan,?????,3
35992,35993,Yale POP_MASTER,SRP-150,,0,PWN-SRP-150,34,Dari,1,2268.9528809999997,34.8315,68.6359,PWN,SRP,Sayid Hassan,310,Surkh-e- Parsa,??? ?????,Parwan,?????,3
35993,35994,Yale POP_MASTER,SRP-151,,0,PWN-SRP-151,227,Dari,1,2462.447998,34.7575,68.6492,PWN,SRP,Seya Sangak,310,Surkh-e- Parsa,??? ?????,Parwan,?????,3
35994,35995,Yale POP_MASTER,SRP-152,,0,PWN-SRP-152,353,Dari,1,2685.179932,34.7352,68.6061,PWN,SRP,Shabirak,310,Surkh-e- Parsa,??? ?????,Parwan,?????,3
35995,35996,Yale POP_MASTER,SRP-153,,0,PWN-SRP-153,420,Dari,1,2534.271973,34.7668,68.5541,PWN,SRP,Shahdman Kochak,310,Surkh-e- Parsa,??? ?????,Parwan,?????,3
35996,35997,Yale POP_MASTER,SRP-154,,0,PWN-SRP-154,176,Dari,1,2172.409912,34.8632,68.6391,PWN,SRP,Shairazai,310,Surkh-e- Parsa,??? ?????,Parwan,?????,3
35997,35998,Yale POP_MASTER,SRP-155,,0,PWN-SRP-155,583,Dari,1,2658.325928,34.7932,68.7879,PWN,SRP,Shebarak,310,Surkh-e- Parsa,??? ?????,Parwan,?????,3
35998,35999,Yale POP_MASTER,SRP-156,,0,PWN-SRP-156,250,Pashto,2,2638.131104,34.8215,68.7038,PWN,SRP,Shebarak Aylaq,310,Surkh-e- Parsa,??? ?????,Parwan,?????,3
35999,36000,Yale POP_MASTER,SRP-158,,0,PWN-SRP-158,92,Dari,1,2523.535889,34.7509,68.64699999999999,PWN,SRP,Somo Jah,310,Surkh-e- Parsa,??? ?????,Parwan,?????,3
36000,36001,Yale POP_MASTER,SRP-159,,0,PWN-SRP-159,178,Dari,1,2062.294922,34.9202,68.6457,PWN,SRP,Sorkh Parsa Jowi Now,310,Surkh-e- Parsa,??? ?????,Parwan,?????,3
36001,36002,Yale POP_MASTER,SRP-160,,0,PWN-SRP-160,257,Dari,1,2125.1560059999997,34.9099,68.6421,PWN,SRP,Sorkh Qala,310,Surkh-e- Parsa,??? ?????,Parwan,?????,3
36002,36003,Yale POP_MASTER,SRP-162,,0,PWN-SRP-162,88,Dari,1,2217.816895,34.8248,68.6419,PWN,SRP,Tajeki,310,Surkh-e- Parsa,??? ?????,Parwan,?????,3
36003,36004,Yale POP_MASTER,SRP-164,,0,PWN-SRP-164,153,Dari,1,2957.637939,34.7266,68.7624,PWN,SRP,Walang,310,Surkh-e- Parsa,??? ?????,Parwan,?????,3
36004,36005,Yale POP_MASTER,SRP-167,District,1,PWN-SRP-167,4881,Dari,1,2158.9770510000003,34.9206,68.6515,PWN,SRP,Surkhe Parsa,310,Surkh-e- Parsa,??? ?????,Parwan,?????,3
36005,36006,USAID AIDVillageView,SHA-001,,0,PWN-SHA-001,0,Dari,1,3415.7529299999997,34.8641,68.5484,PWN,SHA,Aylaqe Jangalak,309,Shekhali,??? ???,Parwan,?????,3
36006,36007,USAID AIDVillageView,SHA-003,,0,PWN-SHA-003,0,Dari,1,2451.959961,34.9243,68.3544,PWN,SHA,Dahane Botyan,309,Shekhali,??? ???,Parwan,?????,3
36007,36008,USAID AIDVillageView,SHA-005,,0,PWN-SHA-005,0,Dari,1,2885.304932,35.0325,68.456,PWN,SHA,Dahane Gerdi,309,Shekhali,??? ???,Parwan,?????,3
36008,36009,USAID AIDVillageView,SHA-007,,0,PWN-SHA-007,0,Dari,1,3366.9970700000003,34.8608,68.3729,PWN,SHA,Dahane Shoraso,309,Shekhali,??? ???,Parwan,?????,3
36009,36010,USAID AIDVillageView,SHA-010,,0,PWN-SHA-010,0,Dari,1,3296.3911129999997,34.8565,68.5111,PWN,SHA,Gardana-i-sang,309,Shekhali,??? ???,Parwan,?????,3
36010,36011,USAID AIDVillageView,SHA-015,,0,PWN-SHA-015,0,Dari,1,2306.163086,34.922,68.4812,PWN,SHA,Qazaq,309,Shekhali,??? ???,Parwan,?????,3
36011,36012,USAID AIDVillageView,SHA-016,,0,PWN-SHA-016,0,Dari,1,3293.64209,34.8662,68.3766,PWN,SHA,Sarjaw,309,Shekhali,??? ???,Parwan,?????,3
36012,36013,USAID AIDVillageView,SHA-018,,0,PWN-SHA-018,0,Dari,1,2680.600098,35.0113,68.5407,PWN,SHA,Taykhawal,309,Shekhali,??? ???,Parwan,?????,3
36013,36014,USAID AIDVillageView,SHA-022,,0,PWN-SHA-022,0,Dari,1,2199.583984,34.9479,68.5276,PWN,SHA,Zere Khawal,309,Shekhali,??? ???,Parwan,?????,3
36014,36015,CSO AIMS Villages (ACSOR),SHA-023,,0,PWN-SHA-023,266,Dari,1,2426.100098,34.914390000000004,68.44041999999999,PWN,SHA,Kata Sang (1),309,Shekhali,??? ???,Parwan,?????,3
36015,36016,CSO AIMS Villages (ACSOR),SHA-024,,0,PWN-SHA-024,263,Dari,1,2866.521973,35.004709999999996,68.53537,PWN,SHA,Kata Sang (2),309,Shekhali,??? ???,Parwan,?????,3
36016,36017,CSO AIMS Villages (ACSOR),SHA-025,,0,PWN-SHA-025,153,Dari,1,2899.917969,35.01344,68.53323,PWN,SHA,Khowal (1),309,Shekhali,??? ???,Parwan,?????,3
36017,36018,CSO AIMS Villages (ACSOR),SHA-026,,0,PWN-SHA-026,231,Dari,1,2246.5778809999997,34.943979999999996,68.53168000000001,PWN,SHA,Khowal (2),309,Shekhali,??? ???,Parwan,?????,3
36018,36019,CSO AIMS Villages (ACSOR),SHA-027,,0,PWN-SHA-027,99,Dari,1,3008.860107,34.88943,68.39031999999999,PWN,SHA,Sorkh Sang (1),309,Shekhali,??? ???,Parwan,?????,3
36019,36020,CSO AIMS Villages (ACSOR),SHA-028,,0,PWN-SHA-028,98,Dari,1,2377.816895,34.90906,68.47825999999999,PWN,SHA,Sorkh Sang (2),309,Shekhali,??? ???,Parwan,?????,3
36020,36021,CSO AIMS Villages (ACSOR),SHA-029,,0,PWN-SHA-029,222,Dari,1,2699.135986,35.01079,68.54051,PWN,SHA,Tangi (2),309,Shekhali,??? ???,Parwan,?????,3
36021,36022,USAID AIDVillageView,SRP-006,,0,PWN-SRP-006,0,Dari,1,2591.116943,34.7653,68.4871,PWN,SRP,Dahane Naw,310,Surkh-e- Parsa,??? ?????,Parwan,?????,3
36022,36023,USAID AIDVillageView,SRP-008,,0,PWN-SRP-008,0,Dari,1,2587.449951,34.7603,68.4806,PWN,SRP,Gule Bam,310,Surkh-e- Parsa,??? ?????,Parwan,?????,3
36023,36024,USAID AIDVillageView,SRP-009,,0,PWN-SRP-009,0,Dari,1,2638.581055,34.77,68.4901,PWN,SRP,Khwaja'ali,310,Surkh-e- Parsa,??? ?????,Parwan,?????,3
36024,36025,USAID AIDVillageView,SRP-011,,0,PWN-SRP-011,0,Dari,1,2418.736084,34.7635,68.4938,PWN,SRP,Qal'a-i-ata,310,Surkh-e- Parsa,??? ?????,Parwan,?????,3
36025,36026,CSO AIMS Villages (ACSOR),SRP-015,,0,PWN-SRP-015,229,Dari,1,2382.410889,34.77415,68.54701999999999,PWN,SRP,Kalan Tala (1),310,Surkh-e- Parsa,??? ?????,Parwan,?????,3
36026,36027,CSO AIMS Villages (ACSOR),SRP-018,,0,PWN-SRP-018,84,Dari,1,3048.565918,34.78018,68.39896,PWN,SRP,Sangenak (2),310,Surkh-e- Parsa,??? ?????,Parwan,?????,3
36027,36028,CSO AIMS Villages (ACSOR),SRP-022,,0,PWN-SRP-022,64,Dari,1,3095.199951,34.6932,68.47801,PWN,SRP,Sar Tala (1),310,Surkh-e- Parsa,??? ?????,Parwan,?????,3
36029,36030,Yale POP_MASTER,SHA-031,,0,PWN-SHA-031,256,Dari,1,2863.48999,34.9955,68.3284,PWN,SHA,Anbar Khana,309,Shekhali,??? ???,Parwan,?????,3
36030,36031,Yale POP_MASTER,SHA-033,,0,PWN-SHA-033,337,Dari,1,2493.7771,34.8979,68.422,PWN,SHA,Ayam Baik,309,Shekhali,??? ???,Parwan,?????,3
36031,36032,Yale POP_MASTER,SHA-034,,0,PWN-SHA-034,206,Dari,1,2924.249023,34.997,68.5057,PWN,SHA,Ayasi,309,Shekhali,??? ???,Parwan,?????,3
36032,36033,Yale POP_MASTER,SHA-037,,0,PWN-SHA-037,146,Dari,1,2535.444092,34.9136,68.4631,PWN,SHA,Badail,309,Shekhali,??? ???,Parwan,?????,3
36033,36034,Yale POP_MASTER,SHA-039,,0,PWN-SHA-039,304,Dari,1,2408.076904,34.9226,68.4419,PWN,SHA,Baid Shaikh Ali,309,Shekhali,??? ???,Parwan,?????,3
36034,36035,Yale POP_MASTER,SHA-041,,0,PWN-SHA-041,177,Dari,1,2937.331055,35.0068,68.4516,PWN,SHA,Balaq,309,Shekhali,??? ???,Parwan,?????,3
36035,36036,Yale POP_MASTER,SHA-043,,0,PWN-SHA-043,220,Dari,1,2671.833984,34.8652,68.47399999999999,PWN,SHA,Baldar Ghanak,309,Shekhali,??? ???,Parwan,?????,3
36036,36037,Yale POP_MASTER,SHA-044,,0,PWN-SHA-044,238,Dari,1,2299.6088870000003,34.9333,68.4911,PWN,SHA,Bani Saywak,309,Shekhali,??? ???,Parwan,?????,3
36037,36038,Yale POP_MASTER,SHA-045,,0,PWN-SHA-045,114,Dari,1,2398.14209,34.9883,68.5607,PWN,SHA,Baraki,309,Shekhali,??? ???,Parwan,?????,3
36038,36039,Yale POP_MASTER,SHA-046,,0,PWN-SHA-046,211,Dari,1,2366.464111,34.9797,68.5686,PWN,SHA,Bolghak,309,Shekhali,??? ???,Parwan,?????,3
36039,36040,Yale POP_MASTER,SHA-047,,0,PWN-SHA-047,151,Pashto,2,2666.061035,34.9791,68.4772,PWN,SHA,Bolghak Abadi,309,Shekhali,??? ???,Parwan,?????,3
36040,36041,Yale POP_MASTER,SHA-048,,0,PWN-SHA-048,628,Dari,1,2451.427979,34.922,68.3616,PWN,SHA,Boteyan,309,Shekhali,??? ???,Parwan,?????,3
36041,36042,Yale POP_MASTER,SHA-049,,0,PWN-SHA-049,145,Dari,1,2352.3510739999997,34.974000000000004,68.5715,PWN,SHA,Chakor Mak,309,Shekhali,??? ???,Parwan,?????,3
36042,36043,Yale POP_MASTER,SHA-050,,0,PWN-SHA-050,238,Dari,1,2499.440918,34.9006,68.4736,PWN,SHA,Dahan Aroq,309,Shekhali,??? ???,Parwan,?????,3
36043,36044,Yale POP_MASTER,SHA-053,,0,PWN-SHA-053,339,Dari,1,2280.802002,34.9364,68.5208,PWN,SHA,Dahan Darwaza Ya Shor Khana,309,Shekhali,??? ???,Parwan,?????,3
36044,36045,Yale POP_MASTER,SHA-054,,0,PWN-SHA-054,279,Dari,1,2211.63501,34.9416,68.5547,PWN,SHA,Dahan Jangalak,309,Shekhali,??? ???,Parwan,?????,3
36045,36046,Yale POP_MASTER,SHA-055,,0,PWN-SHA-055,243,Dari,1,2308.423096,34.9274,68.4627,PWN,SHA,Dahan Jarf Wa Qamar,309,Shekhali,??? ???,Parwan,?????,3
36046,36047,Yale POP_MASTER,SHA-056,,0,PWN-SHA-056,624,Dari,1,2350.806885,34.9248,68.4239,PWN,SHA,Dahan Kotak,309,Shekhali,??? ???,Parwan,?????,3
36047,36048,Yale POP_MASTER,SHA-057,,0,PWN-SHA-057,296,Dari,1,2263.941895,34.9318,68.4799,PWN,SHA,Dahan Nerkh,309,Shekhali,??? ???,Parwan,?????,3
36048,36049,Yale POP_MASTER,SHA-059,,0,PWN-SHA-059,448,Dari,1,2192.51709,34.9466,68.5419,PWN,SHA,Dahan Rabat,309,Shekhali,??? ???,Parwan,?????,3
36049,36050,Yale POP_MASTER,SHA-060,,0,PWN-SHA-060,419,Dari,1,2436.464111,34.9052,68.4314,PWN,SHA,Dahan Sai,309,Shekhali,??? ???,Parwan,?????,3
36050,36051,Yale POP_MASTER,SHA-061,,0,PWN-SHA-061,114,Dari,1,2450.948975,34.955999999999996,68.5102,PWN,SHA,Dahan Shakaryan,309,Shekhali,??? ???,Parwan,?????,3
36051,36052,Yale POP_MASTER,SHA-064,,0,PWN-SHA-064,197,Dari,1,2431.36792,34.922,68.3794,PWN,SHA,Dahana Jowi Qoul,309,Shekhali,??? ???,Parwan,?????,3
36052,36053,Yale POP_MASTER,SHA-067,,0,PWN-SHA-067,198,Dari,1,2511.3120120000003,34.9185,68.3665,PWN,SHA,Dahi Kajak,309,Shekhali,??? ???,Parwan,?????,3
36053,36054,Yale POP_MASTER,SHA-068,,0,PWN-SHA-068,194,Dari,1,2612.469971,35.0007,68.4728,PWN,SHA,Dictor,309,Shekhali,??? ???,Parwan,?????,3
36054,36055,Yale POP_MASTER,SHA-069,,0,PWN-SHA-069,137,Dari,1,2418.302979,34.9251,68.4,PWN,SHA,Diktor,309,Shekhali,??? ???,Parwan,?????,3
36055,36056,Yale POP_MASTER,SHA-070,,0,PWN-SHA-070,186,Dari,1,2390.681885,34.9607,68.4891,PWN,SHA,Diktor Kenderak,309,Shekhali,??? ???,Parwan,?????,3
36056,36057,Yale POP_MASTER,SHA-071,,0,PWN-SHA-071,202,Dari,1,2487.512939,34.9323,68.3457,PWN,SHA,Gadal,309,Shekhali,??? ???,Parwan,?????,3
36057,36058,Yale POP_MASTER,SHA-073,,0,PWN-SHA-073,430,Dari,1,2603.2189940000003,34.9891,68.4775,PWN,SHA,Gombadak,309,Shekhali,??? ???,Parwan,?????,3
36058,36059,Yale POP_MASTER,SHA-075,,0,PWN-SHA-075,213,Dari,1,2169.7109379999997,34.9447,68.5567,PWN,SHA,Howle,309,Shekhali,??? ???,Parwan,?????,3
36059,36060,Yale POP_MASTER,SHA-076,,0,PWN-SHA-076,599,Dari,1,2603.805908,34.8969,68.5463,PWN,SHA,Jangalak,309,Shekhali,??? ???,Parwan,?????,3
36060,36061,Yale POP_MASTER,SHA-077,,0,PWN-SHA-077,470,Dari,1,2174.563965,34.9496,68.5699,PWN,SHA,Jarga Qara Laq,309,Shekhali,??? ???,Parwan,?????,3
36061,36062,Yale POP_MASTER,SHA-078,,0,PWN-SHA-078,242,Dari,1,2796.1020510000003,34.9007,68.3823,PWN,SHA,Jow Qoul,309,Shekhali,??? ???,Parwan,?????,3
36062,36063,Yale POP_MASTER,SHA-079,,0,PWN-SHA-079,154,Dari,1,2674.75293,34.8944,68.3617,PWN,SHA,Kajak Bala,309,Shekhali,??? ???,Parwan,?????,3
36063,36064,Yale POP_MASTER,SHA-080,,0,PWN-SHA-080,181,Dari,1,2598.920898,34.9059,68.3566,PWN,SHA,Kajak Payen,309,Shekhali,??? ???,Parwan,?????,3
36064,36065,Yale POP_MASTER,SHA-081,,0,PWN-SHA-081,224,Dari,1,2302.427002,34.9531,68.5443,PWN,SHA,Kaje,309,Shekhali,??? ???,Parwan,?????,3
36065,36066,Yale POP_MASTER,SHA-082,,0,PWN-SHA-082,133,Dari,1,2503.589111,34.9052,68.4457,PWN,SHA,Kandorak Dictor,309,Shekhali,??? ???,Parwan,?????,3
36066,36067,Yale POP_MASTER,SHA-083,,0,PWN-SHA-083,243,Dari,1,2640.051025,34.9531,68.4897,PWN,SHA,Kenderak,309,Shekhali,??? ???,Parwan,?????,3
36067,36068,Yale POP_MASTER,SHA-084,,0,PWN-SHA-084,420,Dari,1,2220.771973,34.9699,68.5818,PWN,SHA,Kham Saraj Ya Dasht Kham,309,Shekhali,??? ???,Parwan,?????,3
36068,36069,Yale POP_MASTER,SHA-085,,0,PWN-SHA-085,66,Dari,1,2973.935059,35.0217,68.4403,PWN,SHA,Khar Zar,309,Shekhali,??? ???,Parwan,?????,3
36069,36070,Yale POP_MASTER,SHA-086,,0,PWN-SHA-086,66,Dari,1,2330.5048829999996,34.9581,68.5409,PWN,SHA,Kharaba,309,Shekhali,??? ???,Parwan,?????,3
36070,36071,Yale POP_MASTER,SHA-087,,0,PWN-SHA-087,313,Dari,1,2468.462891,34.9245,68.3447,PWN,SHA,Khoja Yaka Boteyan,309,Shekhali,??? ???,Parwan,?????,3
36071,36072,Yale POP_MASTER,SHA-088,,0,PWN-SHA-088,640,Dari,1,2305.538086,34.9288,68.5192,PWN,SHA,Khoshkak,309,Shekhali,??? ???,Parwan,?????,3
36072,36073,Yale POP_MASTER,SHA-091,,0,PWN-SHA-091,159,Dari,1,2413.207031,34.9084,68.5151,PWN,SHA,Koi Gardak,309,Shekhali,??? ???,Parwan,?????,3
36073,36074,Yale POP_MASTER,SHA-094,,0,PWN-SHA-094,527,Dari,1,2341.596924,34.9151,68.4785,PWN,SHA,Mirka,309,Shekhali,??? ???,Parwan,?????,3
36074,36075,Yale POP_MASTER,SHA-095,,0,PWN-SHA-095,317,Dari,1,2274.467041,34.9288,68.4712,PWN,SHA,Mohammad Yar,309,Shekhali,??? ???,Parwan,?????,3
36075,36076,Yale POP_MASTER,SHA-096,,0,PWN-SHA-096,96,Dari,1,2478.090088,34.9675,68.5245,PWN,SHA,Mosken,309,Shekhali,??? ???,Parwan,?????,3
36076,36077,Yale POP_MASTER,SHA-097,,0,PWN-SHA-097,158,Dari,1,2253.143066,34.9412,68.5087,PWN,SHA,Nawi,309,Shekhali,??? ???,Parwan,?????,3
36077,36078,Yale POP_MASTER,SHA-098,,0,PWN-SHA-098,39,Dari,1,2250.949951,34.9383,68.4941,PWN,SHA,Nawi Sayidan,309,Shekhali,??? ???,Parwan,?????,3
36078,36079,Yale POP_MASTER,SHA-099,,0,PWN-SHA-099,202,Dari,1,2641.555908,34.9973,68.548,PWN,SHA,Nawur,309,Shekhali,??? ???,Parwan,?????,3
36079,36080,Yale POP_MASTER,SHA-100,,0,PWN-SHA-100,331,Dari,1,2370.427979,34.9254,68.4083,PWN,SHA,Qarghana,309,Shekhali,??? ???,Parwan,?????,3
36080,36081,Yale POP_MASTER,SHA-101,,0,PWN-SHA-101,50,Dari,1,2398.668945,34.917,68.4506,PWN,SHA,Qoul Shaday,309,Shekhali,??? ???,Parwan,?????,3
36081,36082,Yale POP_MASTER,SHA-102,,0,PWN-SHA-102,177,Dari,1,2602.413086,34.9443,68.3464,PWN,SHA,Samochak,309,Shekhali,??? ???,Parwan,?????,3
36082,36083,Yale POP_MASTER,SHA-103,,0,PWN-SHA-103,305,Dari,1,2166.717041,34.9509,68.5637,PWN,SHA,Samuch Hai Bala,309,Shekhali,??? ???,Parwan,?????,3
36083,36084,Yale POP_MASTER,SHA-105,,0,PWN-SHA-105,70,Dari,1,2350.3330079999996,34.952,68.5208,PWN,SHA,Saqa,309,Shekhali,??? ???,Parwan,?????,3
36084,36085,Yale POP_MASTER,SHA-107,,0,PWN-SHA-107,238,Dari,1,2922.480957,34.9675,68.4346,PWN,SHA,Sar Kotak,309,Shekhali,??? ???,Parwan,?????,3
36085,36086,Yale POP_MASTER,SHA-109,,0,PWN-SHA-109,93,Dari,1,3082.143066,34.8482,68.4437,PWN,SHA,Sari Nerkh Mohammad Dada,309,Shekhali,??? ???,Parwan,?????,3
36086,36087,Yale POP_MASTER,SHA-111,,0,PWN-SHA-111,120,Dari,1,2570.666016,34.8982,68.4479,PWN,SHA,Seya Kharak Pate,309,Shekhali,??? ???,Parwan,?????,3
36087,36088,Yale POP_MASTER,SHA-112,,0,PWN-SHA-112,383,Dari,1,2634.279053,35.0051,68.5463,PWN,SHA,Seya Sang,309,Shekhali,??? ???,Parwan,?????,3
36088,36089,Yale POP_MASTER,SHA-113,,0,PWN-SHA-113,37,Dari,1,3085.10498,34.9884,68.3772,PWN,SHA,Shair Parida,309,Shekhali,??? ???,Parwan,?????,3
36089,36090,Yale POP_MASTER,SHA-114,,0,PWN-SHA-114,251,Dari,1,2749.427979,35.01,68.54899999999999,PWN,SHA,Shena,309,Shekhali,??? ???,Parwan,?????,3
36090,36091,Yale POP_MASTER,SHA-115,,0,PWN-SHA-115,394,Dari,1,2607.376953,34.8872,68.5093,PWN,SHA,Shena Ya Dahan Now,309,Shekhali,??? ???,Parwan,?????,3
36091,36092,Yale POP_MASTER,SHA-116,,0,PWN-SHA-116,338,Dari,1,2171.663086,34.9584,68.5709,PWN,SHA,Somuch Hai Payen,309,Shekhali,??? ???,Parwan,?????,3
36092,36093,Yale POP_MASTER,SHA-117,,0,PWN-SHA-117,58,Dari,1,2950.340088,35.0362,68.449,PWN,SHA,Sorkh Ab,309,Shekhali,??? ???,Parwan,?????,3
36093,36094,Yale POP_MASTER,SHA-118,,0,PWN-SHA-118,234,Dari,1,2412.729004,34.9231,68.3894,PWN,SHA,Tana Baid,309,Shekhali,??? ???,Parwan,?????,3
36094,36095,Yale POP_MASTER,SHA-121,,0,PWN-SHA-121,134,Dari,1,2707.737061,34.9722,68.3425,PWN,SHA,Tara,309,Shekhali,??? ???,Parwan,?????,3
36095,36096,Yale POP_MASTER,SHA-122,,0,PWN-SHA-122,63,Dari,1,2675.013916,35.0085,68.4621,PWN,SHA,Taysar,309,Shekhali,??? ???,Parwan,?????,3
36096,36097,Yale POP_MASTER,SHA-125,,0,PWN-SHA-125,242,Dari,1,2688.374023,34.8863,68.4085,PWN,SHA,War Kass,309,Shekhali,??? ???,Parwan,?????,3
36097,36098,Yale POP_MASTER,SHA-127,District,1,PWN-SHA-127,3129,Dari,1,2221.4770510000003,34.9493,68.5155,PWN,SHA,Shekh Ali,309,Shekhali,??? ???,Parwan,?????,3
36098,36099,Yale POP_MASTER,SRP-034,,0,PWN-SRP-034,57,Dari,1,2919.0830079999996,34.708,68.4888,PWN,SRP,Ason,310,Surkh-e- Parsa,??? ?????,Parwan,?????,3
36099,36100,Yale POP_MASTER,SRP-041,,0,PWN-SRP-041,15,Dari,1,3110.618896,34.7498,68.3964,PWN,SRP,Ban Karam,310,Surkh-e- Parsa,??? ?????,Parwan,?????,3
36100,36101,Yale POP_MASTER,SRP-042,,0,PWN-SRP-042,36,Dari,1,3014.553955,34.7747,68.3783,PWN,SRP,Band Maiyangi,310,Surkh-e- Parsa,??? ?????,Parwan,?????,3
36101,36102,Yale POP_MASTER,SRP-045,,0,PWN-SRP-045,154,Dari,1,3003.927979,34.7765,68.4125,PWN,SRP,Barek Jowi,310,Surkh-e- Parsa,??? ?????,Parwan,?????,3
36135,36136,Yale POP_MASTER,SRP-046,,0,PWN-SRP-046,42,Dari,1,2788.2548829999996,34.7472,68.3833,PWN,SRP,Bom Dastar Zan,310,Surkh-e- Parsa,??? ?????,Parwan,?????,3
36136,36137,Yale POP_MASTER,SRP-047,,0,PWN-SRP-047,27,Dari,1,2735.471924,34.7408,68.428,PWN,SRP,Bom Qoulak,310,Surkh-e- Parsa,??? ?????,Parwan,?????,3
36137,36138,Yale POP_MASTER,SRP-051,,0,PWN-SRP-051,94,Dari,1,2488.345947,34.7472,68.4613,PWN,SRP,Dahan Aulya,310,Surkh-e- Parsa,??? ?????,Parwan,?????,3
36138,36139,Yale POP_MASTER,SRP-055,,0,PWN-SRP-055,210,Dari,1,2595.513916,34.7279,68.4317,PWN,SRP,Dahan Gulak,310,Surkh-e- Parsa,??? ?????,Parwan,?????,3
36139,36140,Yale POP_MASTER,SRP-056,,0,PWN-SRP-056,337,Dari,1,2365.5629879999997,34.7773,68.5404,PWN,SRP,Dahan Karaizak,310,Surkh-e- Parsa,??? ?????,Parwan,?????,3
36140,36141,Yale POP_MASTER,SRP-058,,0,PWN-SRP-058,362,Dari,1,2484.224121,34.749,68.4773,PWN,SRP,Dahan Nal,310,Surkh-e- Parsa,??? ?????,Parwan,?????,3
36141,36142,Yale POP_MASTER,SRP-062,,0,PWN-SRP-062,133,Dari,1,2676.040039,34.7672,68.5274,PWN,SRP,Dahana Ali Ahmad,310,Surkh-e- Parsa,??? ?????,Parwan,?????,3
36142,36143,Yale POP_MASTER,SRP-064,,0,PWN-SRP-064,187,Dari,1,2567.39209,34.725,68.4185,PWN,SRP,Dahana Dastar Zan,310,Surkh-e- Parsa,??? ?????,Parwan,?????,3
36143,36144,Yale POP_MASTER,SRP-065,,0,PWN-SRP-065,267,Dari,1,2409.055908,34.7746,68.5132,PWN,SRP,Dahana Ghar,310,Surkh-e- Parsa,??? ?????,Parwan,?????,3
36144,36145,Yale POP_MASTER,SRP-070,,0,PWN-SRP-070,175,Dari,1,2508.666016,34.7492,68.4824,PWN,SRP,Dahana Par Andaz,310,Surkh-e- Parsa,??? ?????,Parwan,?????,3
36145,36146,Yale POP_MASTER,SRP-077,,0,PWN-SRP-077,148,Dari,1,3087.458984,34.695,68.4839,PWN,SRP,Deyar,310,Surkh-e- Parsa,??? ?????,Parwan,?????,3
36146,36147,Yale POP_MASTER,SRP-082,,0,PWN-SRP-082,45,Dari,1,2881.894043,34.7604,68.4133,PWN,SRP,Faqerak,310,Surkh-e- Parsa,??? ?????,Parwan,?????,3
36147,36148,Yale POP_MASTER,SRP-095,,0,PWN-SRP-095,185,Dari,1,2408.9838870000003,34.7833,68.547,PWN,SRP,Karaizak,310,Surkh-e- Parsa,??? ?????,Parwan,?????,3
36148,36149,Yale POP_MASTER,SRP-098,,0,PWN-SRP-098,57,Dari,1,2847.058105,34.7839,68.4745,PWN,SRP,Khana Qala,310,Surkh-e- Parsa,??? ?????,Parwan,?????,3
36149,36150,Yale POP_MASTER,SRP-105,,0,PWN-SRP-105,377,Pashto,2,2694.044922,34.7635,68.5129,PWN,SRP,Khoja Ali,310,Surkh-e- Parsa,??? ?????,Parwan,?????,3
36150,36151,Yale POP_MASTER,SRP-120,,0,PWN-SRP-120,27,Dari,1,2893.293945,34.7695,68.4153,PWN,SRP,Noor Jowi,310,Surkh-e- Parsa,??? ?????,Parwan,?????,3
36151,36152,Yale POP_MASTER,SRP-121,,0,PWN-SRP-121,24,Dari,1,3063.185059,34.7687,68.39699999999999,PWN,SRP,Now Warak,310,Surkh-e- Parsa,??? ?????,Parwan,?????,3
36152,36153,Yale POP_MASTER,SRP-125,,0,PWN-SRP-125,191,Dari,1,2790.451904,34.7783,68.4756,PWN,SRP,Payenda,310,Surkh-e- Parsa,??? ?????,Parwan,?????,3
36153,36154,Yale POP_MASTER,SRP-132,,0,PWN-SRP-132,317,Dari,1,2526.77002,34.7459,68.4494,PWN,SRP,Qoudi,310,Surkh-e- Parsa,??? ?????,Parwan,?????,3
36154,36155,Yale POP_MASTER,SRP-135,,0,PWN-SRP-135,234,Dari,1,2829.681885,34.7579,68.4631,PWN,SRP,Qoul Nal Ailaq,310,Surkh-e- Parsa,??? ?????,Parwan,?????,3
36155,36156,Yale POP_MASTER,SRP-141,,0,PWN-SRP-141,277,Dari,1,2391.939941,34.7752,68.5209,PWN,SRP,Samuchak,310,Surkh-e- Parsa,??? ?????,Parwan,?????,3
36156,36157,Yale POP_MASTER,SRP-142,,0,PWN-SRP-142,34,Dari,1,2953.0939940000003,34.7746,68.3853,PWN,SRP,Saqa Dahi,310,Surkh-e- Parsa,??? ?????,Parwan,?????,3
36157,36158,Yale POP_MASTER,SRP-144,,0,PWN-SRP-144,64,Dari,1,2993.717041,34.784,68.4172,PWN,SRP,Sar Qoulak Galak,310,Surkh-e- Parsa,??? ?????,Parwan,?????,3
36158,36159,Yale POP_MASTER,SRP-145,,0,PWN-SRP-145,52,Dari,1,2916.929932,34.7143,68.4891,PWN,SRP,Sar Tangi,310,Surkh-e- Parsa,??? ?????,Parwan,?????,3
36159,36160,Yale POP_MASTER,SRP-161,,0,PWN-SRP-161,14,Dari,1,2911.656982,34.760999999999996,68.3802,PWN,SRP,Sorkh Sang,310,Surkh-e- Parsa,??? ?????,Parwan,?????,3
36160,36161,Yale POP_MASTER,SRP-163,,0,PWN-SRP-163,61,Dari,1,2885.654053,34.7659,68.3864,PWN,SRP,Tay Howele,310,Surkh-e- Parsa,??? ?????,Parwan,?????,3
36161,36162,Yale POP_MASTER,SRP-166,,0,PWN-SRP-166,25,Dari,1,2828.725098,34.755,68.3838,PWN,SRP,Zanborak,310,Surkh-e- Parsa,??? ?????,Parwan,?????,3
36163,36164,USAID AIDVillageView,SYG-002,,0,PWN-SYG-002,0,Dari,1,2250.470947,35.0476,68.7658,PWN,SYG,Dahane Lor,307,Ghorband,??????,Parwan,?????,3
36164,36165,USAID AIDVillageView,SYG-005,,0,PWN-SYG-005,0,Dari,1,2063.163086,35.0145,68.7795,PWN,SYG,Joy-dukhtar,307,Ghorband,??????,Parwan,?????,3
36165,36166,CSO AIMS Villages (ACSOR),SYG-013,,0,PWN-SYG-013,1009,Dari,1,2311.470947,35.078309999999995,68.82285,PWN,SYG,Mir Khan Khail (1),307,Ghorband,??????,Parwan,?????,3
36166,36167,CSO AIMS Villages (ACSOR),SYG-015,,0,PWN-SYG-015,1125,Dari,1,1993.4090579999997,35.01842,68.80585,PWN,SYG,Mir Khan Khail (2),307,Ghorband,??????,Parwan,?????,3
36200,36201,Yale POP_MASTER,SYG-022,,0,PWN-SYG-022,589,Pashto,2,2556.454102,34.908,68.7873,PWN,SYG,Bader Khan Khail,307,Ghorband,??????,Parwan,?????,3
36201,36202,Yale POP_MASTER,SYG-028,,0,PWN-SYG-028,1031,Pashto,2,3020.829102,35.0973,68.8426,PWN,SYG,Bar Bagh,307,Ghorband,??????,Parwan,?????,3
36202,36203,Yale POP_MASTER,SYG-030,,0,PWN-SYG-030,522,Dari,1,2597.697021,35.069,68.7237,PWN,SYG,Box,307,Ghorband,??????,Parwan,?????,3
36203,36204,Yale POP_MASTER,SYG-035,,0,PWN-SYG-035,1113,Dari,1,2350.996094,35.0573,68.7582,PWN,SYG,Dahan Lor,307,Ghorband,??????,Parwan,?????,3
36204,36205,Yale POP_MASTER,SYG-039,,0,PWN-SYG-039,547,Pashto,2,1925.937988,35.0059,68.7678,PWN,SYG,Dahana Jowi Dokhtar,307,Ghorband,??????,Parwan,?????,3
36205,36206,Yale POP_MASTER,SYG-043,,0,PWN-SYG-043,1201,Dari,1,2578.805908,35.1139,68.8067,PWN,SYG,Dara Tang,307,Ghorband,??????,Parwan,?????,3
36206,36207,Yale POP_MASTER,SYG-046,,0,PWN-SYG-046,1161,Dari,1,2067.221924,35.0233,68.7979,PWN,SYG,Dashtak,307,Ghorband,??????,Parwan,?????,3
36207,36208,Yale POP_MASTER,SYG-050,,0,PWN-SYG-050,926,Pashto,2,1956.209961,34.9935,68.7515,PWN,SYG,Galyan,307,Ghorband,??????,Parwan,?????,3
36208,36209,Yale POP_MASTER,SYG-052,,0,PWN-SYG-052,866,Pashto,2,2458.060059,34.9121,68.7862,PWN,SYG,Guly Khlail,307,Ghorband,??????,Parwan,?????,3
36209,36210,Yale POP_MASTER,SYG-061,,0,PWN-SYG-061,311,Dari,1,2729.054932,35.0754,68.7883,PWN,SYG,Jaar Khoshkak,307,Ghorband,??????,Parwan,?????,3
36210,36211,Yale POP_MASTER,SYG-070,,0,PWN-SYG-070,827,Dari,1,2156.1669920000004,35.0366,68.8198,PWN,SYG,Karaize,307,Ghorband,??????,Parwan,?????,3
36211,36212,Yale POP_MASTER,SYG-071,,0,PWN-SYG-071,387,Dari,1,2455.501953,35.0577,68.7283,PWN,SYG,Karta,307,Ghorband,??????,Parwan,?????,3
36212,36213,Yale POP_MASTER,SYG-076,,0,PWN-SYG-076,875,Dari,1,2035.499023,35.0026,68.7433,PWN,SYG,Leach,307,Ghorband,??????,Parwan,?????,3
36213,36214,Yale POP_MASTER,SYG-080,,0,PWN-SYG-080,944,Pashto,2,2277.214111,35.069,68.8213,PWN,SYG,Mulah Khail,307,Ghorband,??????,Parwan,?????,3
36214,36215,Yale POP_MASTER,SYG-083,,0,PWN-SYG-083,6,Pashto,2,2943.845947,34.8527,68.7981,PWN,SYG,Pondak,307,Ghorband,??????,Parwan,?????,3
36215,36216,Yale POP_MASTER,SYG-085,,0,PWN-SYG-085,503,Dari,1,2327.549072,35.0255,68.735,PWN,SYG,Qaid Khana,307,Ghorband,??????,Parwan,?????,3
36216,36217,Yale POP_MASTER,SYG-086,,0,PWN-SYG-086,863,Pashto,2,2054.936035,35.0251,68.8047,PWN,SYG,Qala Now,307,Ghorband,??????,Parwan,?????,3
36251,36252,Yale POP_MASTER,SYG-088,,0,PWN-SYG-088,1008,Dari,1,2052.913086,35.0281,68.8151,PWN,SYG,Qalatak Bala,307,Ghorband,??????,Parwan,?????,3
36252,36253,Yale POP_MASTER,SYG-090,,0,PWN-SYG-090,1177,Dari,1,2200.533936,35.0449,68.8197,PWN,SYG,Qamchaq,307,Ghorband,??????,Parwan,?????,3
36253,36254,Yale POP_MASTER,SYG-093,,0,PWN-SYG-093,918,Pashto,2,1932.5059809999998,35.0041,68.807,PWN,SYG,Ranga,307,Ghorband,??????,Parwan,?????,3
36254,36255,Yale POP_MASTER,SYG-098,,0,PWN-SYG-098,1188,Pashto,2,2036.7590329999998,34.9975,68.7411,PWN,SYG,Saqah,307,Ghorband,??????,Parwan,?????,3
36255,36256,Yale POP_MASTER,SYG-099,,0,PWN-SYG-099,368,Pashto,2,2544.324951,34.8974,68.7875,PWN,SYG,Sar Bolaq,307,Ghorband,??????,Parwan,?????,3
36256,36257,Yale POP_MASTER,SYG-108,,0,PWN-SYG-108,1086,Dari,1,2596.6479489999997,35.0953,68.7561,PWN,SYG,Tangag Wa Jangary,307,Ghorband,??????,Parwan,?????,3
36257,36258,Yale POP_MASTER,SYG-109,,0,PWN-SYG-109,320,Dari,1,2253.6560059999997,35.0329,68.7388,PWN,SYG,Tangi,307,Ghorband,??????,Parwan,?????,3
36258,36259,Yale POP_MASTER,SYG-111,,0,PWN-SYG-111,959,Pashto,2,2389.946045,34.918,68.7879,PWN,SYG,Tay Khan,307,Ghorband,??????,Parwan,?????,3
36259,36260,Yale POP_MASTER,SYG-114,,0,PWN-SYG-114,739,Dari,1,2243.10498,35.0565,68.8217,PWN,SYG,Zakhail Ab Bala,307,Ghorband,??????,Parwan,?????,3
36260,36261,Yale POP_MASTER,SYG-115,,0,PWN-SYG-115,516,Pashto,2,2475.947021,35.1004,68.8149,PWN,SYG,Zard Alow Gak,307,Ghorband,??????,Parwan,?????,3
36261,36262,Yale POP_MASTER,SYG-116,,0,PWN-SYG-116,391,Dari,1,2393.465088,35.0499,68.733,PWN,SYG,Zenyal,307,Ghorband,??????,Parwan,?????,3
36297,36298,Yale POP_MASTER,CHR-089,,0,PWN-CHR-089,147,Pashto,2,2324.042969,34.9446,69.0696,PWN,CHR,Sokhta Zar,301,Charikar,???????,Parwan,?????,3
36298,36299,Yale POP_MASTER,CHR-025,,0,PWN-CHR-025,47,Dari,1,2393.032959,34.9567,69.0694,PWN,CHR,Dahi Chanar,301,Charikar,???????,Parwan,?????,3
36299,36300,Yale POP_MASTER,JSJ-062,,0,PWN-JSJ-062,340,Dari,1,2075.676025,35.1169,69.1002,PWN,JSJ,Khakhuram,302,Jabalussaraj,??? ??????,Parwan,?????,3
36300,36301,USAID AIDVillageView,SWI-004,,0,PWN-SWI-004,0,Dari,1,1696.06604,35.0804,69.122,PWN,SWI,Dahane Bedqol,303,Shinwari,???????,Parwan,?????,3
36301,36302,CSO AIMS Villages (ACSOR),SWI-015,,0,PWN-SWI-015,201,Dari,1,1702.116943,35.082209999999996,69.13028,PWN,SWI,Bolandi,303,Shinwari,???????,Parwan,?????,3
36302,36303,USAID AIDVillageView,CHR-013,,0,PWN-CHR-013,0,Dari,1,1534.10498,34.9931,69.1704,PWN,CHR,Qal'eh-ye Khwajaha,301,Charikar,???????,Parwan,?????,3
36303,36304,USAID AIDVillageView,CHR-002,,0,PWN-CHR-002,0,Dari,1,1529.2719730000001,35.0224,69.1837,PWN,CHR,Balaghel,301,Charikar,???????,Parwan,?????,3
36304,36305,USAID AIDVillageView,CHR-007,,0,PWN-CHR-007,0,Dari,1,1656.139038,35.0716,69.1778,PWN,CHR,Khwajasabzposhe Wali,301,Charikar,???????,Parwan,?????,3
36305,36306,USAID AIDVillageView,CHR-012,,0,PWN-CHR-012,0,Dari,1,1540.9880369999998,34.9911,69.1658,PWN,CHR,Qal'eh Lalamirakhan,301,Charikar,???????,Parwan,?????,3
36306,36307,USAID AIDVillageView,CHR-006,,0,PWN-CHR-006,0,Dari,1,1668.837036,35.0206,69.1543,PWN,CHR,Gulghundi,301,Charikar,???????,Parwan,?????,3
36307,36308,USAID AIDVillageView,CHR-008,,0,PWN-CHR-008,0,Dari,1,1905.149048,35.0379,69.1462,PWN,CHR,Kotale Darrahe Kalan,301,Charikar,???????,Parwan,?????,3
36308,36309,USAID AIDVillageView,CHR-015,,0,PWN-CHR-015,0,Dari,1,1773.45105,34.967,69.1223,PWN,CHR,Shamaq,301,Charikar,???????,Parwan,?????,3
36309,36310,USAID AIDVillageView,CHR-009,,0,PWN-CHR-009,0,Dari,1,1730.0219730000001,35.0578,69.1654,PWN,CHR,Mir'ala,301,Charikar,???????,Parwan,?????,3
36310,36311,USAID AIDVillageView,JSJ-024,,0,PWN-JSJ-024,0,Dari,1,1619.8790279999998,35.089,69.1407,PWN,JSJ,Pumbapaya,302,Jabalussaraj,??? ??????,Parwan,?????,3
36311,36312,Yale POP_MASTER,SWI-025,,0,PWN-SWI-025,100,Pashto,2,1639.18396,35.0754,69.1193,PWN,SWI,Baid Qoul,303,Shinwari,???????,Parwan,?????,3
36312,36313,Yale POP_MASTER,SWI-027,,0,PWN-SWI-027,332,Pashto,2,1912.3139649999998,35.0653,69.1054,PWN,SWI,Chanar Dara,303,Shinwari,???????,Parwan,?????,3
36313,36314,Yale POP_MASTER,SWI-034,,0,PWN-SWI-034,299,Pashto,2,1644.5310060000002,35.0743,69.1083,PWN,SWI,Dahan Shah Toot,303,Shinwari,???????,Parwan,?????,3
36314,36315,Yale POP_MASTER,SWI-048,,0,PWN-SWI-048,382,Pashto,2,2101.6298829999996,35.0575,69.1028,PWN,SWI,Kachkan Payen,303,Shinwari,???????,Parwan,?????,3
36315,36316,Yale POP_MASTER,SWI-080,,0,PWN-SWI-080,223,Pashto,2,1733.598022,35.0845,69.1238,PWN,SWI,Sayid Ali Khail,303,Shinwari,???????,Parwan,?????,3
36316,36317,Yale POP_MASTER,SWI-096,,0,PWN-SWI-096,92,Pashto,2,1623.9880369999998,35.0786,69.1233,PWN,SWI,Tay Konda,303,Shinwari,???????,Parwan,?????,3
36317,36318,Yale POP_MASTER,CHR-077,,0,PWN-CHR-077,332,Dari,1,1506.35498,34.9878,69.1869,PWN,CHR,Qalacha Shafa,301,Charikar,???????,Parwan,?????,3
36318,36319,Yale POP_MASTER,CHR-052,,0,PWN-CHR-052,1206,Dari,1,1798.662964,35.0059,69.1381,PWN,CHR,Khoja Sayyaran Hulya,301,Charikar,???????,Parwan,?????,3
36319,36320,Yale POP_MASTER,CHR-039,,0,PWN-CHR-039,162,Dari,1,1676.935059,35.015,69.1508,PWN,CHR,Gul Ghoundi Dahi Zargran,301,Charikar,???????,Parwan,?????,3
36320,36321,Yale POP_MASTER,CHR-068,,0,PWN-CHR-068,133,Dari,1,1518.003052,34.9832,69.1766,PWN,CHR,Qala Mullah,301,Charikar,???????,Parwan,?????,3
36321,36322,Yale POP_MASTER,CHR-098,Provincial,2,PWN-CHR-098,46600,Dari,1,1546.600952,35.0159,69.1741,PWN,CHR,Chaharikar (1),301,Charikar,???????,Parwan,?????,3
36322,36323,Yale POP_MASTER,CHR-051,,0,PWN-CHR-051,534,Dari,1,1542.125,34.9843,69.1643,PWN,CHR,Khoja Sayaran Sufla,301,Charikar,???????,Parwan,?????,3
36323,36324,Yale POP_MASTER,CHR-044,,0,PWN-CHR-044,300,Dari,1,1544.017944,35.0528,69.1936,PWN,CHR,Jangal Bagh,301,Charikar,???????,Parwan,?????,3
36324,36325,Yale POP_MASTER,CHR-093,,0,PWN-CHR-093,1059,Dari,1,1581.6369630000002,34.9803,69.1544,PWN,CHR,Toop Dara Ya Now Abad Toop Dara,301,Charikar,???????,Parwan,?????,3
36325,36326,Yale POP_MASTER,CHR-029,,0,PWN-CHR-029,577,Dari,1,1815.050049,34.9439,69.1089,PWN,CHR,Dahi Nahr,301,Charikar,???????,Parwan,?????,3
36326,36327,Yale POP_MASTER,CHR-027,,0,PWN-CHR-027,734,Dari,1,1745.624023,34.9525,69.1199,PWN,CHR,Dahi Ghulaman Senjed Dara,301,Charikar,???????,Parwan,?????,3
36327,36328,Yale POP_MASTER,CHR-024,,0,PWN-CHR-024,664,Dari,1,1770.7869870000002,34.9448,69.1153,PWN,CHR,Dahi Aftab Senjed Dara,301,Charikar,???????,Parwan,?????,3
36328,36329,Yale POP_MASTER,CHR-047,,0,PWN-CHR-047,1026,Dari,1,1810.996948,34.9519,69.1142,PWN,CHR,Karaizak (1),301,Charikar,???????,Parwan,?????,3
36329,36330,Yale POP_MASTER,CHR-032,,0,PWN-CHR-032,445,Dari,1,1698.537964,34.9538,69.1251,PWN,CHR,Dakeri Senjed Dara,301,Charikar,???????,Parwan,?????,3
36330,36331,Yale POP_MASTER,CHR-020,,0,PWN-CHR-020,1070,Dari,1,1509.64502,34.9808,69.1893,PWN,CHR,Baba Khail,301,Charikar,???????,Parwan,?????,3
36331,36332,Yale POP_MASTER,CHR-087,,0,PWN-CHR-087,767,Dari,1,1525.517944,34.9757,69.1731,PWN,CHR,Sofiyan Bala,301,Charikar,???????,Parwan,?????,3
36332,36333,Yale POP_MASTER,CHR-083,,0,PWN-CHR-083,121,Dari,1,2142.043945,34.9949,69.1071,PWN,CHR,Serka Cha,301,Charikar,???????,Parwan,?????,3
36333,36334,Yale POP_MASTER,CHR-086,,0,PWN-CHR-086,266,Pashto,2,1696.8929440000002,34.9673,69.1292,PWN,CHR,Shamaq Toopdara,301,Charikar,???????,Parwan,?????,3
36334,36335,Yale POP_MASTER,CHR-067,,0,PWN-CHR-067,929,Dari,1,1529.7769779999999,34.9689,69.1697,PWN,CHR,Qala Kohnna Sofiyan,301,Charikar,???????,Parwan,?????,3
36335,36336,Yale POP_MASTER,CHR-070,,0,PWN-CHR-070,409,Pashto,2,1789.1390379999998,34.9793,69.1254,PWN,CHR,Qala Safid Toop Dara,301,Charikar,???????,Parwan,?????,3
36336,36337,Yale POP_MASTER,CHR-042,,0,PWN-CHR-042,851,Dari,1,1804.203003,34.9922,69.1311,PWN,CHR,Jai Noma,301,Charikar,???????,Parwan,?????,3
36337,36338,Yale POP_MASTER,CHR-088,,0,PWN-CHR-088,887,Dari,1,1519.487061,34.9713,69.1781,PWN,CHR,Sofiyan Payen,301,Charikar,???????,Parwan,?????,3
36338,36339,Yale POP_MASTER,CHR-055,,0,PWN-CHR-055,1326,Dari,1,1536.843018,34.9758,69.1641,PWN,CHR,Laghmani,301,Charikar,???????,Parwan,?????,3
36339,36340,Yale POP_MASTER,CHR-065,,0,PWN-CHR-065,53,Dari,1,1526.899048,35.029,69.1907,PWN,CHR,Qala Faqair Shah,301,Charikar,???????,Parwan,?????,3
36340,36341,Yale POP_MASTER,CHR-097,,0,PWN-CHR-097,213,Dari,1,1509.406982,34.9989,69.1873,PWN,CHR,Zargaran,301,Charikar,???????,Parwan,?????,3
36341,36342,Yale POP_MASTER,CHR-041,,0,PWN-CHR-041,3508,Dari,1,1715.6429440000002,35.0376,69.1579,PWN,CHR,Hofiyan,301,Charikar,???????,Parwan,?????,3
36342,36343,Yale POP_MASTER,CHR-064,,0,PWN-CHR-064,677,Pashto,2,1541.6679689999999,35.037,69.1864,PWN,CHR,Qala Dah Mullah Yusof,301,Charikar,???????,Parwan,?????,3
36343,36344,Yale POP_MASTER,CHR-092,,0,PWN-CHR-092,741,Pashto,2,1798.177002,34.9838,69.1264,PWN,CHR,Toop Dara,301,Charikar,???????,Parwan,?????,3
36344,36345,Yale POP_MASTER,CHR-038,,0,PWN-CHR-038,235,Pashto,2,2090.300049,34.9547,69.0893,PWN,CHR,Ghor Band Dara,301,Charikar,???????,Parwan,?????,3
36368,36369,Yale POP_MASTER,CHR-053,,0,PWN-CHR-053,142,Dari,1,1959.619995,34.9513,69.0984,PWN,CHR,Khosh Dara,301,Charikar,???????,Parwan,?????,3
36369,36370,Yale POP_MASTER,CHR-031,,0,PWN-CHR-031,162,Dari,1,1692.0830079999998,34.941,69.1227,PWN,CHR,Dahi Rayes Senjed Dara,301,Charikar,???????,Parwan,?????,3
36370,36371,Yale POP_MASTER,CHR-049,,0,PWN-CHR-049,184,Pashto,2,2116.695068,34.9642,69.0983,PWN,CHR,Khana Dar Ab,301,Charikar,???????,Parwan,?????,3
36371,36372,Yale POP_MASTER,CHR-026,,0,PWN-CHR-026,285,Dari,1,1701.870972,34.9455,69.1248,PWN,CHR,Dahi Ghochak,301,Charikar,???????,Parwan,?????,3
36372,36373,Yale POP_MASTER,CHR-074,,0,PWN-CHR-074,407,Dari,1,1743.647949,34.9495,69.1184,PWN,CHR,Qala Saifuldain Senjed Dara,301,Charikar,???????,Parwan,?????,3
36373,36374,Yale POP_MASTER,CHR-063,,0,PWN-CHR-063,547,Dari,1,1569.241943,34.9395,69.1525,PWN,CHR,Qala Ali Khan Senjed Dara,301,Charikar,???????,Parwan,?????,3
36374,36375,Yale POP_MASTER,CHR-056,,0,PWN-CHR-056,406,Dari,1,1705.2569579999997,35.086,69.14,PWN,CHR,Maiyana Band,301,Charikar,???????,Parwan,?????,3
36375,36376,Yale POP_MASTER,BAM-027,,0,PWN-BAM-027,3141,Pashto,2,1534.3029789999998,34.94,69.165,PWN,BAM,Chaikal,304,Bagram,?????,Parwan,?????,3
36376,36377,Yale POP_MASTER,BAM-033,,0,PWN-BAM-033,959,Dari,1,1535.047974,34.9581,69.1674,PWN,BAM,Dahi Moosken,304,Bagram,?????,Parwan,?????,3
36377,36378,Yale POP_MASTER,BAM-073,,0,PWN-BAM-073,1035,Dari,1,1515.438965,34.9591,69.183,PWN,BAM,Qala Bazaid Qala Bala Raigstan,304,Bagram,?????,Parwan,?????,3
36378,36379,Yale POP_MASTER,BAM-099,,0,PWN-BAM-099,272,Dari,1,1515.9370119999999,34.9501,69.1819,PWN,BAM,Safar Khail,304,Bagram,?????,Parwan,?????,3
36379,36380,Yale POP_MASTER,JSJ-038,,0,PWN-JSJ-038,318,Dari,1,1984.600952,35.1146,69.1082,PWN,JSJ,Ashawa,302,Jabalussaraj,??? ??????,Parwan,?????,3
36380,36381,Yale POP_MASTER,JSJ-041,,0,PWN-JSJ-041,213,Dari,1,2188.25708,35.1169,69.119,PWN,JSJ,Bodla,302,Jabalussaraj,??? ??????,Parwan,?????,3
36381,36382,Yale POP_MASTER,JSJ-042,,0,PWN-JSJ-042,332,Dari,1,2021.5179440000002,35.1184,69.1101,PWN,JSJ,Bolandi,302,Jabalussaraj,??? ??????,Parwan,?????,3
36382,36383,Yale POP_MASTER,JSJ-045,,0,PWN-JSJ-045,140,Dari,1,2113.094971,35.1227,69.115,PWN,JSJ,Chashma Daraz,302,Jabalussaraj,??? ??????,Parwan,?????,3
36383,36384,Yale POP_MASTER,JSJ-089,,0,PWN-JSJ-089,272,Dari,1,1882.609985,35.1007,69.1155,PWN,JSJ,Samochak,302,Jabalussaraj,??? ??????,Parwan,?????,3
36384,36385,Yale POP_MASTER,JSJ-096,,0,PWN-JSJ-096,189,Dari,1,1825.652954,35.0952,69.1148,PWN,JSJ,Tootak,302,Jabalussaraj,??? ??????,Parwan,?????,3
36385,36386,Yale POP_MASTER,CHR-028,,0,PWN-CHR-028,1088,Dari,1,1519.262939,35.0294,69.2065,PWN,CHR,Dahi Mullah Yusof,301,Charikar,???????,Parwan,?????,3
36386,36387,Yale POP_MASTER,CHR-035,,0,PWN-CHR-035,1060,Dari,1,1507.911987,35.0135,69.2106,PWN,CHR,Dolana,301,Charikar,???????,Parwan,?????,3
36387,36388,Yale POP_MASTER,CHR-071,,0,PWN-CHR-071,774,Dari,1,1503.625,34.9877,69.1943,PWN,CHR,Qala Sahra Bazonapayshan,301,Charikar,???????,Parwan,?????,3
36388,36389,Yale POP_MASTER,CHR-061,,0,PWN-CHR-061,607,Dari,1,1503.348999,34.9828,69.2012,PWN,CHR,Pasheyan,301,Charikar,???????,Parwan,?????,3
36389,36390,Yale POP_MASTER,CHR-022,,0,PWN-CHR-022,1467,Dari,1,1500.327026,35.0053,69.2178,PWN,CHR,Bayan Payen,301,Charikar,???????,Parwan,?????,3
36390,36391,Yale POP_MASTER,CHR-084,,0,PWN-CHR-084,1107,Dari,1,1501.265991,34.9796,69.2017,PWN,CHR,Shabi Khail,301,Charikar,???????,Parwan,?????,3
36391,36392,Yale POP_MASTER,CHR-057,,0,PWN-CHR-057,1113,Dari,1,1508.0389400000001,34.9756,69.1945,PWN,CHR,Meyan Shakh,301,Charikar,???????,Parwan,?????,3
36392,36393,Yale POP_MASTER,CHR-078,,0,PWN-CHR-078,1080,Dari,1,1495.977051,34.9892,69.2132,PWN,CHR,Qalacha Sokhta,301,Charikar,???????,Parwan,?????,3
36393,36394,Yale POP_MASTER,CHR-082,,0,PWN-CHR-082,394,Pashto,2,1492.958008,34.9908,69.2198,PWN,CHR,Sayr Khail,301,Charikar,???????,Parwan,?????,3
36394,36395,Yale POP_MASTER,CHR-033,,0,PWN-CHR-033,1152,Dari,1,1501.822998,34.9906,69.1948,PWN,CHR,Dasht Hofiyan,301,Charikar,???????,Parwan,?????,3
36395,36396,Yale POP_MASTER,CHR-021,,0,PWN-CHR-021,3750,Dari,1,1526.727051,35.0398,69.2048,PWN,CHR,Bayan Balay,301,Charikar,???????,Parwan,?????,3
36396,36397,Yale POP_MASTER,BAM-016,,0,PWN-BAM-016,532,Dari,1,1501.071045,34.9748,69.2058,PWN,BAM,Ali Khail,304,Bagram,?????,Parwan,?????,3
36397,36398,Yale POP_MASTER,BAM-019,,0,PWN-BAM-019,929,Dari,1,1504.907959,34.9652,69.2002,PWN,BAM,Aziz Baig,304,Bagram,?????,Parwan,?????,3
36398,36399,Yale POP_MASTER,BAM-031,,0,PWN-BAM-031,550,Dari,1,1511.097046,34.9524,69.1893,PWN,BAM,Dahi Hazara,304,Bagram,?????,Parwan,?????,3
36399,36400,Yale POP_MASTER,BAM-054,,0,PWN-BAM-054,839,Dari,1,1508.850952,34.9653,69.1932,PWN,BAM,Khoja Hai Dowlat Shahi,304,Bagram,?????,Parwan,?????,3
36400,36401,Yale POP_MASTER,BAM-069,,0,PWN-BAM-069,1145,Dari,1,1510.4610599999999,34.968,69.1904,PWN,BAM,Panjara Dowlat Shahi,304,Bagram,?????,Parwan,?????,3
36401,36402,Yale POP_MASTER,BAM-070,,0,PWN-BAM-070,1100,Dari,1,1497.6660160000001,34.9813,69.2133,PWN,BAM,Poorchi,304,Bagram,?????,Parwan,?????,3
36402,36403,Yale POP_MASTER,BAM-086,,0,PWN-BAM-086,403,Dari,1,1503.974976,34.9702,69.2037,PWN,BAM,Qala Malik,304,Bagram,?????,Parwan,?????,3
36403,36404,Yale POP_MASTER,BAM-103,,0,PWN-BAM-103,229,Dari,1,1508.02002,34.9683,69.1936,PWN,BAM,Sallay Khail,304,Bagram,?????,Parwan,?????,3
36404,36405,USAID AIDVillageView,SAL-105,,0,PWN-SAL-105,0,Dari,1,2102.918945,35.1351,69.1718,PWN,SAL,Lalmisabzak,306,Salang,?????,Parwan,?????,3
36405,36406,USAID AIDVillageView,SAL-106,,0,PWN-SAL-106,0,Dari,1,2256.7028809999997,35.1274,69.1482,PWN,SAL,Tanakhak,306,Salang,?????,Parwan,?????,3
36406,36407,USAID AIDVillageView,SAL-108,,0,PWN-SAL-108,0,Dari,1,2438.080078,35.1283,69.1435,PWN,SAL,Darrahe Orati,306,Salang,?????,Parwan,?????,3
36407,36408,USAID AIDVillageView,JSJ-001,,0,PWN-JSJ-001,0,Dari,1,1806.1230469999998,35.1102,69.1757,PWN,JSJ,Anarak,302,Jabalussaraj,??? ??????,Parwan,?????,3
36408,36409,USAID AIDVillageView,JSJ-007,,0,PWN-JSJ-007,0,Dari,1,1802.473022,35.1146,69.2112,PWN,JSJ,Dihi Mirkhan,302,Jabalussaraj,??? ??????,Parwan,?????,3
36409,36410,USAID AIDVillageView,JSJ-010,,0,PWN-JSJ-010,0,Dari,1,1765.1590579999997,35.1052,69.2005,PWN,JSJ,Gozare Nurullahkhan,302,Jabalussaraj,??? ??????,Parwan,?????,3
36410,36411,USAID AIDVillageView,JSJ-032,,0,PWN-JSJ-032,0,Dari,1,1996.625977,35.1187,69.2016,PWN,JSJ,Shatutak,302,Jabalussaraj,??? ??????,Parwan,?????,3
36411,36412,USAID AIDVillageView,JSJ-009,,0,PWN-JSJ-009,0,Dari,1,1577.147949,35.1054,69.2562,PWN,JSJ,Ghafarkhel,302,Jabalussaraj,??? ??????,Parwan,?????,3
36412,36413,USAID AIDVillageView,JSJ-013,,0,PWN-JSJ-013,0,Dari,1,1622.717041,35.1303,69.2643,PWN,JSJ,Hajikhel,302,Jabalussaraj,??? ??????,Parwan,?????,3
36413,36414,USAID AIDVillageView,JSJ-017,,0,PWN-JSJ-017,0,Dari,1,1541.713989,35.0964,69.2595,PWN,JSJ,Khodaydadkhel,302,Jabalussaraj,??? ??????,Parwan,?????,3
36414,36415,USAID AIDVillageView,JSJ-018,,0,PWN-JSJ-018,0,Dari,1,1575.980957,35.1181,69.2619,PWN,JSJ,Khwajakhel,302,Jabalussaraj,??? ??????,Parwan,?????,3
36415,36416,USAID AIDVillageView,JSJ-020,,0,PWN-JSJ-020,0,Dari,1,1584.822998,35.1208,69.2613,PWN,JSJ,Mohammad Khankhel,302,Jabalussaraj,??? ??????,Parwan,?????,3
36416,36417,USAID AIDVillageView,JSJ-021,,0,PWN-JSJ-021,0,Dari,1,1542.338013,35.0931,69.2404,PWN,JSJ,Munara,302,Jabalussaraj,??? ??????,Parwan,?????,3
36417,36418,USAID AIDVillageView,JSJ-027,,0,PWN-JSJ-027,0,Dari,1,1577.865967,35.0974,69.2125,PWN,JSJ,Qal'a Sahra-i-myanajoy,302,Jabalussaraj,??? ??????,Parwan,?????,3
36418,36419,CSO AIMS Villages (ACSOR),JSJ-034,,0,PWN-JSJ-034,289,Dari,1,1564.758057,35.09137,69.23026,PWN,JSJ,Maidan,302,Jabalussaraj,??? ??????,Parwan,?????,3
36419,36420,CSO AIMS Villages (ACSOR),JSJ-035,,0,PWN-JSJ-035,931,Dari,1,1544.946045,35.10125,69.26811,PWN,JSJ,Qader Khail,302,Jabalussaraj,??? ??????,Parwan,?????,3
36420,36421,Yale POP_MASTER,SYY-031,,0,PWN-SYY-031,457,Dari,1,1541.76001,35.0987,69.2688,PWN,SYY,Burj Mustofi,305,Saydkhel,??????,Parwan,?????,3
36421,36422,Yale POP_MASTER,SYY-032,,0,PWN-SYY-032,1174,Dari,1,1538.706055,35.0969,69.2756,PWN,SYY,Chainke Hulya,305,Saydkhel,??????,Parwan,?????,3
36422,36423,Yale POP_MASTER,SYY-041,,0,PWN-SYY-041,1178,Pashto,2,1549.631958,35.0853,69.2351,PWN,SYY,Hamza Khail,305,Saydkhel,??????,Parwan,?????,3
36423,36424,Yale POP_MASTER,SYY-051,,0,PWN-SYY-051,585,Dari,1,1533.829956,35.0927,69.2633,PWN,SYY,Khodaydad Khail,305,Saydkhel,??????,Parwan,?????,3
36424,36425,Yale POP_MASTER,CHR-034,,0,PWN-CHR-034,1217,Dari,1,1547.125,35.0772,69.206,PWN,CHR,Dogh Abad,301,Charikar,???????,Parwan,?????,3
36506,36507,Yale POP_MASTER,CHR-073,,0,PWN-CHR-073,479,Dari,1,1555.081055,35.0713,69.1988,PWN,CHR,Qala Sahra Totom Dara,301,Charikar,???????,Parwan,?????,3
36507,36508,Yale POP_MASTER,CHR-094,,0,PWN-CHR-094,5083,Dari,1,1588.390015,35.0841,69.1906,PWN,CHR,Totom Dara Hulya,301,Charikar,???????,Parwan,?????,3
36508,36509,Yale POP_MASTER,CHR-096,,0,PWN-CHR-096,373,Dari,1,1534.63501,35.0826,69.2086,PWN,CHR,Zar Beha,301,Charikar,???????,Parwan,?????,3
36509,36510,Yale POP_MASTER,CHR-062,,0,PWN-CHR-062,1306,Dari,1,1540.255005,35.0916,69.1926,PWN,CHR,Poul Matak,301,Charikar,???????,Parwan,?????,3
36510,36511,Yale POP_MASTER,SAL-032,,0,PWN-SAL-032,133,Dari,1,1811.917969,35.1454,69.2165,PWN,SAL,Gardana,306,Salang,?????,Parwan,?????,3
36511,36512,Yale POP_MASTER,SAL-059,,0,PWN-SAL-059,56,Dari,1,1890.625,35.1498,69.2074,PWN,SAL,Lalma,306,Salang,?????,Parwan,?????,3
36512,36513,Yale POP_MASTER,SAL-015,,0,PWN-SAL-015,268,Dari,1,1735.883057,35.1501,69.2187,PWN,SAL,Bagh Lala,306,Salang,?????,Parwan,?????,3
36513,36514,Yale POP_MASTER,SAL-116,,0,PWN-SAL-116,158,Dari,1,2218.194092,35.1411,69.1628,PWN,SAL,Toghak,306,Salang,?????,Parwan,?????,3
36514,36515,Yale POP_MASTER,SAL-107,,0,PWN-SAL-107,48,Dari,1,2123.038086,35.1304,69.1671,PWN,SAL,Senjed Tak,306,Salang,?????,Parwan,?????,3
36515,36516,Yale POP_MASTER,JSJ-044,,0,PWN-JSJ-044,61,Dari,1,2013.6350100000002,35.1119,69.142,PWN,JSJ,Char Dara (2),302,Jabalussaraj,??? ??????,Parwan,?????,3
36516,36517,Yale POP_MASTER,JSJ-067,,0,PWN-JSJ-067,122,Dari,1,1813.119995,35.1057,69.1881,PWN,JSJ,Kohnna Dahi,302,Jabalussaraj,??? ??????,Parwan,?????,3
36517,36518,Yale POP_MASTER,JSJ-069,,0,PWN-JSJ-069,165,Dari,1,1793.334961,35.1129,69.1773,PWN,JSJ,Lalmay Sabzak,302,Jabalussaraj,??? ??????,Parwan,?????,3
36518,36519,Yale POP_MASTER,JSJ-083,,0,PWN-JSJ-083,150,Dari,1,1717.0989989999998,35.1039,69.164,PWN,JSJ,Qala Baqi,302,Jabalussaraj,??? ??????,Parwan,?????,3
36519,36520,Yale POP_MASTER,CHR-036,,0,PWN-CHR-036,521,Pashto,2,1508.0629880000001,35.0795,69.2269,PWN,CHR,Eazat Khail Bala,301,Charikar,???????,Parwan,?????,3
36520,36521,Yale POP_MASTER,CHR-046,,0,PWN-CHR-046,1147,Dari,1,1525.94104,35.0858,69.2233,PWN,CHR,Kala Khan Khail,301,Charikar,???????,Parwan,?????,3
36521,36522,Yale POP_MASTER,CHR-072,,0,PWN-CHR-072,221,Dari,1,1521.764038,35.0866,69.2177,PWN,CHR,Qala Sahra Maiyan Jowi,301,Charikar,???????,Parwan,?????,3
36522,36523,Yale POP_MASTER,JSJ-037,,0,PWN-JSJ-037,421,Dari,1,1555.7810060000002,35.0923,69.2191,PWN,JSJ,Ahmad Khail,302,Jabalussaraj,??? ??????,Parwan,?????,3
36523,36524,Yale POP_MASTER,JSJ-040,,0,PWN-JSJ-040,344,Dari,1,1591.996948,35.1249,69.2644,PWN,JSJ,Baqi Khail,302,Jabalussaraj,??? ??????,Parwan,?????,3
36524,36525,Yale POP_MASTER,JSJ-043,,0,PWN-JSJ-043,542,Dari,1,1540.630981,35.0937,69.2455,PWN,JSJ,Char Burj Hesa Menara,302,Jabalussaraj,??? ??????,Parwan,?????,3
36525,36526,Yale POP_MASTER,JSJ-046,,0,PWN-JSJ-046,2372,Dari,1,1759.6619870000002,35.1241,69.2184,PWN,JSJ,Dahi Bala,302,Jabalussaraj,??? ??????,Parwan,?????,3
36526,36527,Yale POP_MASTER,JSJ-048,,0,PWN-JSJ-048,1170,Dari,1,1647.416992,35.1179,69.2262,PWN,JSJ,Dahi Mir Khan,302,Jabalussaraj,??? ??????,Parwan,?????,3
36527,36528,Yale POP_MASTER,JSJ-052,,0,PWN-JSJ-052,1081,Dari,1,1610.811035,35.1217,69.2436,PWN,JSJ,Eshq Abad,302,Jabalussaraj,??? ??????,Parwan,?????,3
36528,36529,Yale POP_MASTER,JSJ-054,,0,PWN-JSJ-054,728,Dari,1,1626.8480220000001,35.1044,69.2131,PWN,JSJ,Gozar Noorullah,302,Jabalussaraj,??? ??????,Parwan,?????,3
36529,36530,Yale POP_MASTER,JSJ-055,,0,PWN-JSJ-055,1369,Dari,1,1568.249023,35.0955,69.2255,PWN,JSJ,Gozar Payen,302,Jabalussaraj,??? ??????,Parwan,?????,3
36530,36531,Yale POP_MASTER,JSJ-057,,0,PWN-JSJ-057,422,Dari,1,1598.0209960000002,35.1106,69.2432,PWN,JSJ,Habed Khail,302,Jabalussaraj,??? ??????,Parwan,?????,3
36531,36532,Yale POP_MASTER,JSJ-058,,0,PWN-JSJ-058,269,Dari,1,1584.02002,35.1125,69.258,PWN,JSJ,Haji Khail,302,Jabalussaraj,??? ??????,Parwan,?????,3
36532,36533,Yale POP_MASTER,JSJ-060,,0,PWN-JSJ-060,869,Dari,1,1593.692017,35.104,69.2299,PWN,JSJ,Hessar Menara,302,Jabalussaraj,??? ??????,Parwan,?????,3
36533,36534,Yale POP_MASTER,JSJ-061,,0,PWN-JSJ-061,643,Dari,1,1643.337036,35.1281,69.2417,PWN,JSJ,Karta-e- Mamorin,302,Jabalussaraj,??? ??????,Parwan,?????,3
36534,36535,Yale POP_MASTER,JSJ-063,,0,PWN-JSJ-063,724,Dari,1,1564.775024,35.1196,69.2714,PWN,JSJ,Khoja Khail Gulbahar,302,Jabalussaraj,??? ??????,Parwan,?????,3
36535,36536,Yale POP_MASTER,JSJ-065,,0,PWN-JSJ-065,1233,Dari,1,1582.89502,35.1077,69.2538,PWN,JSJ,Khowja Mohammad Khail,302,Jabalussaraj,??? ??????,Parwan,?????,3
36536,36537,Yale POP_MASTER,JSJ-071,,0,PWN-JSJ-071,665,Dari,1,1577.956055,35.1014,69.2446,PWN,JSJ,Madad Khail,302,Jabalussaraj,??? ??????,Parwan,?????,3
36537,36538,Yale POP_MASTER,JSJ-072,,0,PWN-JSJ-072,1217,Dari,1,1623.819946,35.1101,69.2271,PWN,JSJ,Maiyana Gozar Bala,302,Jabalussaraj,??? ??????,Parwan,?????,3
36538,36539,Yale POP_MASTER,JSJ-073,,0,PWN-JSJ-073,720,Dari,1,1675.203979,35.1111,69.2178,PWN,JSJ,Maiyana Gozar Payen,302,Jabalussaraj,??? ??????,Parwan,?????,3
36539,36540,Yale POP_MASTER,JSJ-075,,0,PWN-JSJ-075,594,Dari,1,1550.248047,35.1063,69.2747,PWN,JSJ,Malik Jan Khail,302,Jabalussaraj,??? ??????,Parwan,?????,3
36540,36541,Yale POP_MASTER,JSJ-076,,0,PWN-JSJ-076,474,Dari,1,1578.723999,35.1154,69.2346,PWN,JSJ,Markaz Shahidan,302,Jabalussaraj,??? ??????,Parwan,?????,3
36541,36542,Yale POP_MASTER,JSJ-077,,0,PWN-JSJ-077,1041,Dari,1,1567.909058,35.0995,69.2378,PWN,JSJ,Menar Payen,302,Jabalussaraj,??? ??????,Parwan,?????,3
36542,36543,Yale POP_MASTER,JSJ-078,,0,PWN-JSJ-078,1205,Dari,1,1597.530029,35.1093,69.2331,PWN,JSJ,Menara Bala,302,Jabalussaraj,??? ??????,Parwan,?????,3
36543,36544,Yale POP_MASTER,JSJ-079,,0,PWN-JSJ-079,790,Dari,1,1580.119995,35.126999999999995,69.2711,PWN,JSJ,Mir Khan Khail,302,Jabalussaraj,??? ??????,Parwan,?????,3
36544,36545,Yale POP_MASTER,JSJ-081,,0,PWN-JSJ-081,501,Dari,1,1654.302002,35.1229,69.2257,PWN,JSJ,Pushta Mazar,302,Jabalussaraj,??? ??????,Parwan,?????,3
36545,36546,Yale POP_MASTER,JSJ-086,,0,PWN-JSJ-086,892,Dari,1,1539.412964,35.0917,69.2132,PWN,JSJ,Qala Sahra,302,Jabalussaraj,??? ??????,Parwan,?????,3
36546,36547,Yale POP_MASTER,JSJ-087,,0,PWN-JSJ-087,646,Dari,1,1586.140015,35.0984,69.2177,PWN,JSJ,Qala Sorkh,302,Jabalussaraj,??? ??????,Parwan,?????,3
36547,36548,Yale POP_MASTER,JSJ-088,,0,PWN-JSJ-088,431,Dari,1,1722.968018,35.1334,69.2393,PWN,JSJ,Qoul Balol Sahib,302,Jabalussaraj,??? ??????,Parwan,?????,3
36548,36549,Yale POP_MASTER,JSJ-090,,0,PWN-JSJ-090,1047,Dari,1,1677.880005,35.1314,69.2466,PWN,JSJ,Say Koti,302,Jabalussaraj,??? ??????,Parwan,?????,3
36549,36550,Yale POP_MASTER,JSJ-092,,0,PWN-JSJ-092,765,Dari,1,1621.296021,35.1141,69.2299,PWN,JSJ,Shahidan,302,Jabalussaraj,??? ??????,Parwan,?????,3
36550,36551,Yale POP_MASTER,JSJ-095,,0,PWN-JSJ-095,1222,Dari,1,1622.137939,35.1237,69.2292,PWN,JSJ,Tajekan,302,Jabalussaraj,??? ??????,Parwan,?????,3
36551,36552,Yale POP_MASTER,JSJ-097,District,1,PWN-JSJ-097,9900,Dari,1,1603.151001,35.115,69.2407,PWN,JSJ,Jabalussaraj,302,Jabalussaraj,??? ??????,Parwan,?????,3
36554,36555,USAID AIDVillageView,SAL-102,,0,PWN-SAL-102,0,Dari,1,2279.5859379999997,35.2401,69.2251,PWN,SAL,Sartikaca,306,Salang,?????,Parwan,?????,3
36555,36556,USAID AIDVillageView,SAL-079,,0,PWN-SAL-079,0,Dari,1,2706.061035,35.2084,69.1728,PWN,SAL,Nawache Bala,306,Salang,?????,Parwan,?????,3
36556,36557,USAID AIDVillageView,SAL-007,,0,PWN-SAL-007,0,Dari,1,2429.743896,35.2627,69.2206,PWN,SAL,Wonarwi Bala,306,Salang,?????,Parwan,?????,3
36557,36558,USAID AIDVillageView,SAL-011,,0,PWN-SAL-011,0,Dari,1,2326.875977,35.2129,69.2246,PWN,SAL,Babashangul,306,Salang,?????,Parwan,?????,3
36558,36559,USAID AIDVillageView,SAL-045,,0,PWN-SAL-045,0,Dari,1,2326.427002,35.2409,69.1972,PWN,SAL,Ja'farak,306,Salang,?????,Parwan,?????,3
36559,36560,USAID AIDVillageView,SAL-016,,0,PWN-SAL-016,0,Dari,1,2186.1721190000003,35.2235,69.2217,PWN,SAL,Baghe Maydan,306,Salang,?????,Parwan,?????,3
36560,36561,USAID AIDVillageView,SAL-020,,0,PWN-SAL-020,0,Dari,1,2209.784912,35.2123,69.20100000000001,PWN,SAL,Nawache Pa'in,306,Salang,?????,Parwan,?????,3
36561,36562,USAID AIDVillageView,SAL-013,,0,PWN-SAL-013,0,Dari,1,2534.197998,35.2442,69.1823,PWN,SAL,Langarkhana,306,Salang,?????,Parwan,?????,3
36562,36563,USAID AIDVillageView,SAL-019,,0,PWN-SAL-019,0,Dari,1,2120.790039,35.2085,69.2062,PWN,SAL,Binawach,306,Salang,?????,Parwan,?????,3
36563,36564,USAID AIDVillageView,SAL-046,,0,PWN-SAL-046,0,Dari,1,2659.292969,35.2498,69.1864,PWN,SAL,Jafarake Bala,306,Salang,?????,Parwan,?????,3
36564,36565,USAID AIDVillageView,SAL-005,,0,PWN-SAL-005,0,Dari,1,2471.832031,35.2663,69.2233,PWN,SAL,Arzanan,306,Salang,?????,Parwan,?????,3
36565,36566,USAID AIDVillageView,SAL-056,,0,PWN-SAL-056,0,Dari,1,2756.415039,35.2577,69.1359,PWN,SAL,Khotangolo,306,Salang,?????,Parwan,?????,3
36566,36567,USAID AIDVillageView,SAL-055,,0,PWN-SAL-055,0,Dari,1,2881.103027,35.2643,69.1372,PWN,SAL,Kaftarkhana,306,Salang,?????,Parwan,?????,3
36567,36568,USAID AIDVillageView,SAL-066,,0,PWN-SAL-066,0,Dari,1,2906.052002,35.2367,69.1101,PWN,SAL,Nasratkhanha,306,Salang,?????,Parwan,?????,3
36568,36569,USAID AIDVillageView,SAL-033,,0,PWN-SAL-033,0,Dari,1,2514.168945,35.2435,69.1634,PWN,SAL,Ghaw,306,Salang,?????,Parwan,?????,3
36569,36570,USAID AIDVillageView,SAL-054,,0,PWN-SAL-054,0,Dari,1,2464.375977,35.2542,69.1349,PWN,SAL,Alarkacha,306,Salang,?????,Parwan,?????,3
36570,36571,USAID AIDVillageView,SAL-006,,0,PWN-SAL-006,0,Dari,1,2569.237061,35.2809,69.2116,PWN,SAL,Shahre Beland,306,Salang,?????,Parwan,?????,3
36571,36572,USAID AIDVillageView,SAL-069,,0,PWN-SAL-069,0,Dari,1,2832.893066,35.2902,69.084,PWN,SAL,Myanagl,306,Salang,?????,Parwan,?????,3
36572,36573,USAID AIDVillageView,SAL-091,,0,PWN-SAL-091,0,Dari,1,2597.012939,35.2732,69.1274,PWN,SAL,Kalari,306,Salang,?????,Parwan,?????,3
36573,36574,USAID AIDVillageView,SAL-064,,0,PWN-SAL-064,0,Dari,1,2817.518066,35.2287,69.1034,PWN,SAL,Darrahe Salahkhan,306,Salang,?????,Parwan,?????,3
36574,36575,USAID AIDVillageView,SAL-028,,0,PWN-SAL-028,0,Dari,1,2800.4729,35.2795,69.1006,PWN,SAL,Khamba'i,306,Salang,?????,Parwan,?????,3
36575,36576,USAID AIDVillageView,SAL-120,,0,PWN-SAL-120,0,Dari,1,2712.957031,35.3039,69.1867,PWN,SAL,Chehlakata-i-nyaz,306,Salang,?????,Parwan,?????,3
36576,36577,USAID AIDVillageView,SAL-068,,0,PWN-SAL-068,0,Dari,1,3091.438965,35.2912,69.0697,PWN,SAL,Gawarasang,306,Salang,?????,Parwan,?????,3
36577,36578,USAID AIDVillageView,JSJ-030,,0,PWN-JSJ-030,0,Dari,1,2295.449951,35.1361,69.1175,PWN,JSJ,Rastdara,302,Jabalussaraj,??? ??????,Parwan,?????,3
36580,36581,USAID AIDVillageView,SAL-009,,0,PWN-SAL-009,0,Dari,1,2068.881104,35.1762,69.2311,PWN,SAL,Babamardan,306,Salang,?????,Parwan,?????,3
36581,36582,USAID AIDVillageView,SAL-060,,0,PWN-SAL-060,0,Dari,1,2172.939941,35.1845,69.2321,PWN,SAL,Lalma-i-sultan,306,Salang,?????,Parwan,?????,3
36582,36583,USAID AIDVillageView,SAL-099,,0,PWN-SAL-099,0,Dari,1,2067.195068,35.1634,69.2297,PWN,SAL,Sumte Shahmir,306,Salang,?????,Parwan,?????,3
36584,36585,Yale POP_MASTER,SAL-021,,0,PWN-SAL-021,151,Dari,1,2217.669922,35.2062,69.20100000000001,PWN,SAL,Benawoch,306,Salang,?????,Parwan,?????,3
36585,36586,Yale POP_MASTER,SAL-119,,0,PWN-SAL-119,243,Dari,1,2259.524902,35.26,69.2131,PWN,SAL,Wenar Way Sufla,306,Salang,?????,Parwan,?????,3
36586,36587,Yale POP_MASTER,SAL-034,,0,PWN-SAL-034,170,Dari,1,2406.052979,35.2411,69.1685,PWN,SAL,Gho Khoram,306,Salang,?????,Parwan,?????,3
36587,36588,Yale POP_MASTER,SAL-010,,0,PWN-SAL-010,214,Dari,1,1798.621948,35.1754,69.2217,PWN,SAL,Baba Mardan,306,Salang,?????,Parwan,?????,3
36588,36589,Yale POP_MASTER,SAL-123,District,1,PWN-SAL-123,2533,Dari,1,1914.328979,35.2039,69.2182,PWN,SAL,Salang,306,Salang,?????,Parwan,?????,3
36589,36590,Yale POP_MASTER,SAL-097,,0,PWN-SAL-097,91,Dari,1,2107.570068,35.2577,69.2035,PWN,SAL,Saifasat,306,Salang,?????,Parwan,?????,3
36590,36591,Yale POP_MASTER,SAL-023,,0,PWN-SAL-023,180,Dari,1,2447.6020510000003,35.1851,69.1655,PWN,SAL,Chandal,306,Salang,?????,Parwan,?????,3
36591,36592,Yale POP_MASTER,SAL-080,,0,PWN-SAL-080,198,Dari,1,2390.7260739999997,35.2053,69.1864,PWN,SAL,Nawoch Bala,306,Salang,?????,Parwan,?????,3
36592,36593,Yale POP_MASTER,SAL-118,,0,PWN-SAL-118,797,Dari,1,2106.501953,35.255,69.204,PWN,SAL,Wenar Way Hulya,306,Salang,?????,Parwan,?????,3
36593,36594,Yale POP_MASTER,SAL-061,,0,PWN-SAL-061,300,Dari,1,1844.093994,35.1836,69.2232,PWN,SAL,Lalma Sultan Dahi Now Chaparaq,306,Salang,?????,Parwan,?????,3
36594,36595,Yale POP_MASTER,SAL-103,,0,PWN-SAL-103,469,Dari,1,2178.013916,35.2402,69.2174,PWN,SAL,Sarqai Kacha,306,Salang,?????,Parwan,?????,3
36595,36596,Yale POP_MASTER,SAL-042,,0,PWN-SAL-042,247,Dari,1,2196.61499,35.1744,69.1875,PWN,SAL,Hangara,306,Salang,?????,Parwan,?????,3
36596,36597,Yale POP_MASTER,SAL-048,,0,PWN-SAL-048,260,Dari,1,2104.1201170000004,35.2419,69.2057,PWN,SAL,Jafarak Payen,306,Salang,?????,Parwan,?????,3
36597,36598,Yale POP_MASTER,SAL-085,,0,PWN-SAL-085,136,Dari,1,1944.42395,35.2002,69.2158,PWN,SAL,Paja,306,Salang,?????,Parwan,?????,3
36598,36599,Yale POP_MASTER,SAL-111,,0,PWN-SAL-111,606,Dari,1,1872.277954,35.1772,69.2169,PWN,SAL,Taghma,306,Salang,?????,Parwan,?????,3
36599,36600,Yale POP_MASTER,SAL-117,,0,PWN-SAL-117,117,Dari,1,1912.136963,35.1551,69.2013,PWN,SAL,Tootamazar,306,Salang,?????,Parwan,?????,3
36600,36601,Yale POP_MASTER,SAL-081,,0,PWN-SAL-081,475,Dari,1,1992.885986,35.2124,69.2115,PWN,SAL,Nawoch Payen,306,Salang,?????,Parwan,?????,3
36601,36602,Yale POP_MASTER,SAL-039,,0,PWN-SAL-039,168,Dari,1,2155.11792,35.2346,69.1727,PWN,SAL,Hajan,306,Salang,?????,Parwan,?????,3
36602,36603,Yale POP_MASTER,SAL-090,,0,PWN-SAL-090,501,Dari,1,2021.823975,35.2312,69.2069,PWN,SAL,Qala Tak,306,Salang,?????,Parwan,?????,3
36603,36604,Yale POP_MASTER,SAL-047,,0,PWN-SAL-047,65,Dari,1,2375.8510739999997,35.2472,69.194,PWN,SAL,Jafarak Hulya,306,Salang,?????,Parwan,?????,3
36604,36605,Yale POP_MASTER,SAL-001,,0,PWN-SAL-001,540,Dari,1,1959.418945,35.2176,69.2125,PWN,SAL,Aghal Khan,306,Salang,?????,Parwan,?????,3
36605,36606,Yale POP_MASTER,SAL-053,,0,PWN-SAL-053,120,Dari,1,2492.706055,35.2454,69.1704,PWN,SAL,Khorma,306,Salang,?????,Parwan,?????,3
36606,36607,Yale POP_MASTER,SAL-012,,0,PWN-SAL-012,243,Dari,1,1948.04895,35.2111,69.2159,PWN,SAL,Baba Shen Gul,306,Salang,?????,Parwan,?????,3
36607,36608,Yale POP_MASTER,SAL-014,,0,PWN-SAL-014,148,Dari,1,2502.511963,35.2429,69.1744,PWN,SAL,Badal Khail,306,Salang,?????,Parwan,?????,3
36608,36609,Yale POP_MASTER,SAL-025,,0,PWN-SAL-025,219,Dari,1,2109.100098,35.1711,69.1935,PWN,SAL,Dahi Horoti,306,Salang,?????,Parwan,?????,3
36609,36610,Yale POP_MASTER,SAL-062,,0,PWN-SAL-062,190,Dari,1,2137.572998,35.2356,69.1864,PWN,SAL,Langar Khana,306,Salang,?????,Parwan,?????,3
36610,36611,Yale POP_MASTER,SAL-082,,0,PWN-SAL-082,393,Dari,1,2179.465088,35.1585,69.178,PWN,SAL,Now Bara Sambak,306,Salang,?????,Parwan,?????,3
36611,36612,Yale POP_MASTER,SAL-098,,0,PWN-SAL-098,248,Dari,1,2272.454102,35.2342,69.1634,PWN,SAL,Samad Khail,306,Salang,?????,Parwan,?????,3
36612,36613,Yale POP_MASTER,SAL-017,,0,PWN-SAL-017,77,Dari,1,1972.6149899999998,35.2217,69.2121,PWN,SAL,Bagh Maidan Markaz Woluswaly,306,Salang,?????,Parwan,?????,3
36613,36614,Yale POP_MASTER,SAL-004,,0,PWN-SAL-004,181,Dari,1,2074.746094,35.1598,69.1894,PWN,SAL,Anar Zar,306,Salang,?????,Parwan,?????,3
36614,36615,Yale POP_MASTER,SAL-040,,0,PWN-SAL-040,114,Dari,1,2116.731934,35.2335,69.1969,PWN,SAL,Hajan Bolandi,306,Salang,?????,Parwan,?????,3
36615,36616,Yale POP_MASTER,SAL-100,,0,PWN-SAL-100,245,Dari,1,1887.157959,35.1629,69.2218,PWN,SAL,Samch Shamir,306,Salang,?????,Parwan,?????,3
36616,36617,Yale POP_MASTER,SAL-036,,0,PWN-SAL-036,39,Dari,1,2436.865967,35.2253,69.1629,PWN,SAL,Gorg Borda,306,Salang,?????,Parwan,?????,3
36617,36618,Yale POP_MASTER,SAL-003,,0,PWN-SAL-003,79,Dari,1,2186.302002,35.2369,69.163,PWN,SAL,Amir Khail Mirzuma,306,Salang,?????,Parwan,?????,3
36618,36619,Yale POP_MASTER,SAL-038,,0,PWN-SAL-038,137,Dari,1,2462.51001,35.2287,69.1344,PWN,SAL,Gul Mohammada,306,Salang,?????,Parwan,?????,3
36619,36620,Yale POP_MASTER,SAL-094,,0,PWN-SAL-094,55,Dari,1,2454.353027,35.2535,69.1261,PWN,SAL,Qoul Baqi,306,Salang,?????,Parwan,?????,3
36620,36621,Yale POP_MASTER,SAL-008,,0,PWN-SAL-008,386,Dari,1,2320.219971,35.2676,69.2165,PWN,SAL,Arza Wanan,306,Salang,?????,Parwan,?????,3
36621,36622,Yale POP_MASTER,SAL-037,,0,PWN-SAL-037,240,Dari,1,2332.8911129999997,35.1588,69.1649,PWN,SAL,Gul Kana,306,Salang,?????,Parwan,?????,3
36622,36623,Yale POP_MASTER,SAL-077,,0,PWN-SAL-077,50,Dari,1,2494.3588870000003,35.2412,69.1223,PWN,SAL,Nasrat Khan,306,Salang,?????,Parwan,?????,3
36623,36624,Yale POP_MASTER,SAL-018,,0,PWN-SAL-018,403,Dari,1,2136.281982,35.2703,69.2,PWN,SAL,Bainalo,306,Salang,?????,Parwan,?????,3
36624,36625,Yale POP_MASTER,SAL-096,,0,PWN-SAL-096,307,Dari,1,2563.8520510000003,35.2427,69.1176,PWN,SAL,Ramayel,306,Salang,?????,Parwan,?????,3
36625,36626,Yale POP_MASTER,SAL-035,,0,PWN-SAL-035,130,Dari,1,2213.197021,35.2786,69.1943,PWN,SAL,Gom Zam,306,Salang,?????,Parwan,?????,3
36626,36627,Yale POP_MASTER,SAL-057,,0,PWN-SAL-057,15,Dari,1,2408.534912,35.2589,69.1285,PWN,SAL,Khotan Gulow,306,Salang,?????,Parwan,?????,3
36627,36628,Yale POP_MASTER,SAL-067,,0,PWN-SAL-067,309,Dari,1,2682.27002,35.2303,69.1099,PWN,SAL,Lora,306,Salang,?????,Parwan,?????,3
36628,36629,Yale POP_MASTER,SAL-031,,0,PWN-SAL-031,95,Dari,1,2457.3330079999996,35.236999999999995,69.1281,PWN,SAL,Gamandi,306,Salang,?????,Parwan,?????,3
36629,36630,Yale POP_MASTER,SAL-101,,0,PWN-SAL-101,156,Dari,1,2220.947998,35.2396,69.1543,PWN,SAL,Samda,306,Salang,?????,Parwan,?????,3
36630,36631,Yale POP_MASTER,SAL-114,,0,PWN-SAL-114,295,Dari,1,2819.499023,35.1818,69.1361,PWN,SAL,Takht-e- Mirgul,306,Salang,?????,Parwan,?????,3
36631,36632,Yale POP_MASTER,SAL-078,,0,PWN-SAL-078,130,Dari,1,2448.409912,35.1627,69.1568,PWN,SAL,Nawi Toot,306,Salang,?????,Parwan,?????,3
36632,36633,Yale POP_MASTER,SAL-027,,0,PWN-SAL-027,275,Dari,1,2581.7771,35.2659,69.1493,PWN,SAL,Darandi,306,Salang,?????,Parwan,?????,3
36633,36634,Yale POP_MASTER,SAL-109,,0,PWN-SAL-109,311,Dari,1,2428.644043,35.1463,69.1522,PWN,SAL,Shaghal Kunda,306,Salang,?????,Parwan,?????,3
36634,36635,Yale POP_MASTER,SAL-026,,0,PWN-SAL-026,776,Dari,1,2202.4770510000003,35.2867,69.1896,PWN,SAL,Dahi Yak,306,Salang,?????,Parwan,?????,3
36635,36636,Yale POP_MASTER,SAL-115,,0,PWN-SAL-115,58,Dari,1,2460.717041,35.2501,69.148,PWN,SAL,Tangi Kaftar Khana,306,Salang,?????,Parwan,?????,3
36636,36637,Yale POP_MASTER,SAL-044,,0,PWN-SAL-044,588,Dari,1,2164.0629879999997,35.2622,69.1986,PWN,SAL,Honamak,306,Salang,?????,Parwan,?????,3
36637,36638,Yale POP_MASTER,SAL-002,,0,PWN-SAL-002,328,Dari,1,2330.7451170000004,35.2335,69.1443,PWN,SAL,Ahangaran Aghil Sadiq,306,Salang,?????,Parwan,?????,3
36638,36639,Yale POP_MASTER,SAL-087,,0,PWN-SAL-087,501,Dari,1,2267.0229489999997,35.2908,69.1808,PWN,SAL,Pashair Raj,306,Salang,?????,Parwan,?????,3
36639,36640,Yale POP_MASTER,SAL-063,,0,PWN-SAL-063,350,Dari,1,2499.750977,35.2233,69.1326,PWN,SAL,Lewan,306,Salang,?????,Parwan,?????,3
36640,36641,Yale POP_MASTER,SAL-043,,0,PWN-SAL-043,240,Dari,1,2641.775879,35.1625,69.1425,PWN,SAL,Hodak,306,Salang,?????,Parwan,?????,3
36641,36642,Yale POP_MASTER,SAL-058,,0,PWN-SAL-058,236,Dari,1,2455.481934,35.3325,69.1414,PWN,SAL,Kotah,306,Salang,?????,Parwan,?????,3
36642,36643,Yale POP_MASTER,SAL-088,,0,PWN-SAL-088,167,Dari,1,2763.320068,35.2647,69.1144,PWN,SAL,Qala Holang,306,Salang,?????,Parwan,?????,3
36643,36644,Yale POP_MASTER,SAL-076,,0,PWN-SAL-076,83,Dari,1,2570.590088,35.27,69.1193,PWN,SAL,Naik Chai,306,Salang,?????,Parwan,?????,3
36644,36645,Yale POP_MASTER,SAL-022,,0,PWN-SAL-022,387,Dari,1,2378.470947,35.3154,69.1732,PWN,SAL,Chaila Kan,306,Salang,?????,Parwan,?????,3
36645,36646,Yale POP_MASTER,SAL-122,,0,PWN-SAL-122,687,Dari,1,2289.068115,35.3024,69.172,PWN,SAL,Wiwa,306,Salang,?????,Parwan,?????,3
36646,36647,Yale POP_MASTER,SAL-112,,0,PWN-SAL-112,273,Dari,1,2553.258057,35.2817,69.11399999999999,PWN,SAL,Taj,306,Salang,?????,Parwan,?????,3
36647,36648,Yale POP_MASTER,SAL-113,,0,PWN-SAL-113,618,Dari,1,2533.124023,35.3293,69.1406,PWN,SAL,Taj Sartey,306,Salang,?????,Parwan,?????,3
36648,36649,Yale POP_MASTER,SAL-029,,0,PWN-SAL-029,76,Dari,1,2644.378906,35.2843,69.1051,PWN,SAL,Fatahullah,306,Salang,?????,Parwan,?????,3
36649,36650,Yale POP_MASTER,SAL-070,,0,PWN-SAL-070,206,Dari,1,2743.9580079999996,35.2915,69.0906,PWN,SAL,Maiyangi,306,Salang,?????,Parwan,?????,3
36650,36651,Yale POP_MASTER,SAL-104,,0,PWN-SAL-104,69,Dari,1,2549.7109379999997,35.3258,69.1657,PWN,SAL,Sayid Qoul,306,Salang,?????,Parwan,?????,3
36651,36652,Yale POP_MASTER,SAL-049,,0,PWN-SAL-049,128,Dari,1,2463.628906,35.3194,69.1561,PWN,SAL,Janma,306,Salang,?????,Parwan,?????,3
36652,36653,Yale POP_MASTER,SAL-052,,0,PWN-SAL-052,108,Dari,1,2613.178955,35.2794,69.1099,PWN,SAL,Kham Baiye,306,Salang,?????,Parwan,?????,3
36653,36654,Yale POP_MASTER,SAL-075,,0,PWN-SAL-075,104,Dari,1,2637.095947,35.2878,69.1077,PWN,SAL,Mullah Marjowi,306,Salang,?????,Parwan,?????,3
36654,36655,Yale POP_MASTER,SAL-092,,0,PWN-SAL-092,167,Dari,1,2450.395996,35.2664,69.126,PWN,SAL,Qalandar Shah Jawar Sakha,306,Salang,?????,Parwan,?????,3
36655,36656,Yale POP_MASTER,SAL-051,,0,PWN-SAL-051,135,Dari,1,2505.783936,35.2745,69.1177,PWN,SAL,Kalari Gulzar,306,Salang,?????,Parwan,?????,3
36656,36657,Yale POP_MASTER,SAL-073,,0,PWN-SAL-073,98,Dari,1,2426.903076,35.2929,69.1608,PWN,SAL,Mohammad Shah (2),306,Salang,?????,Parwan,?????,3
36657,36658,Yale POP_MASTER,SAL-024,,0,PWN-SAL-024,349,Dari,1,2383.85791,35.3255,69.1556,PWN,SAL,Char Kark,306,Salang,?????,Parwan,?????,3
36658,36659,Yale POP_MASTER,SAL-050,,0,PWN-SAL-050,121,Dari,1,2774.25293,35.2856,69.0965,PWN,SAL,Jawar Qamar,306,Salang,?????,Parwan,?????,3
36659,36660,Yale POP_MASTER,JSJ-091,,0,PWN-JSJ-091,416,Dari,1,2355.407959,35.1403,69.1139,PWN,JSJ,Seyel Kundi,302,Jabalussaraj,??? ??????,Parwan,?????,3
36660,36661,Yale POP_MASTER,JSJ-094,,0,PWN-JSJ-094,208,Dari,1,2195.646973,35.132,69.1171,PWN,JSJ,Shakhal Zar,302,Jabalussaraj,??? ??????,Parwan,?????,3
36661,36662,CSO AIMS Villages (ACSOR),CHR-099,,0,PWN-CHR-099,977,Dari,1,1454.590942,34.99564,69.27983,PWN,CHR,Balto Khail,301,Charikar,???????,Parwan,?????,3
36662,36663,CSO AIMS Villages (ACSOR),CHR-100,,0,PWN-CHR-100,274,Dari,1,1454.0839839999999,34.99217,69.28713,PWN,CHR,Pacha Khail,301,Charikar,???????,Parwan,?????,3
36663,36664,USAID AIDVillageView,BAM-001,,0,PWN-BAM-001,0,Dari,1,1476.3630369999998,34.9701,69.2975,PWN,BAM,Akakhel,304,Bagram,?????,Parwan,?????,3
36664,36665,USAID AIDVillageView,BAM-002,,0,PWN-BAM-002,0,Dari,1,1476.670044,34.9675,69.2951,PWN,BAM,Bagram (1),304,Bagram,?????,Parwan,?????,3
36665,36666,USAID AIDVillageView,BAM-003,,0,PWN-BAM-003,0,Dari,1,1476.053955,34.9568,69.2832,PWN,BAM,Hasankhel,304,Bagram,?????,Parwan,?????,3
36666,36667,USAID AIDVillageView,BAM-006,,0,PWN-BAM-006,0,Dari,1,1492.458008,34.9429,69.22800000000001,PWN,BAM,Laghmani Kuhna,304,Bagram,?????,Parwan,?????,3
36667,36668,USAID AIDVillageView,BAM-008,,0,PWN-BAM-008,0,Dari,1,1481.505981,34.9617,69.2528,PWN,BAM,Nawdeh,304,Bagram,?????,Parwan,?????,3
36668,36669,USAID AIDVillageView,BAM-010,,0,PWN-BAM-010,0,Dari,1,1508.14502,34.9155,69.2067,PWN,BAM,Panjqal'a,304,Bagram,?????,Parwan,?????,3
36669,36670,USAID AIDVillageView,BAM-011,,0,PWN-BAM-011,0,Dari,1,1481.983032,34.9421,69.2503,PWN,BAM,Payan Janqadam,304,Bagram,?????,Parwan,?????,3
36670,36671,USAID AIDVillageView,BAM-012,,0,PWN-BAM-012,0,Dari,1,1463.7709960000002,34.9202,69.278,PWN,BAM,Qal'eh-ye Ahmadkhan,304,Bagram,?????,Parwan,?????,3
36671,36672,Yale POP_MASTER,CHR-059,,0,PWN-CHR-059,389,Dari,1,1492.616943,34.9928,69.2283,PWN,CHR,Neyazi,301,Charikar,???????,Parwan,?????,3
36672,36673,Yale POP_MASTER,BAM-017,,0,PWN-BAM-017,849,Dari,1,1491.560059,34.9705,69.2275,PWN,BAM,Arghan Khail,304,Bagram,?????,Parwan,?????,3
36673,36674,Yale POP_MASTER,BAM-023,,0,PWN-BAM-023,190,Other,9,1478.295044,34.9633,69.2669,PWN,BAM,Bakhshi Ha,304,Bagram,?????,Parwan,?????,3
36674,36675,Yale POP_MASTER,BAM-024,,0,PWN-BAM-024,1014,Dari,1,1491.755005,34.9743,69.2306,PWN,BAM,Bala Dahi,304,Bagram,?????,Parwan,?????,3
36675,36676,Yale POP_MASTER,BAM-025,,0,PWN-BAM-025,339,Dari,1,1486.7769779999999,34.9534,69.2397,PWN,BAM,Barfi Khail,304,Bagram,?????,Parwan,?????,3
36676,36677,Yale POP_MASTER,BAM-026,,0,PWN-BAM-026,316,Dari,1,1487.088013,34.9852,69.2424,PWN,BAM,Big Mohammad Khail,304,Bagram,?????,Parwan,?????,3
36677,36678,Yale POP_MASTER,BAM-028,,0,PWN-BAM-028,433,Dari,1,1486.112061,34.9863,69.2668,PWN,BAM,Char Qala,304,Bagram,?????,Parwan,?????,3
36678,36679,Yale POP_MASTER,BAM-030,,0,PWN-BAM-030,1149,Dari,1,1485.9370119999999,34.9273,69.2452,PWN,BAM,Dahan Maidan,304,Bagram,?????,Parwan,?????,3
36679,36680,Yale POP_MASTER,BAM-034,,0,PWN-BAM-034,1239,Dari,1,1499.185059,34.9526,69.2091,PWN,BAM,Dahi Mullah,304,Bagram,?????,Parwan,?????,3
36680,36681,Yale POP_MASTER,BAM-035,,0,PWN-BAM-035,720,Dari,1,1498.503052,34.9488,69.2105,PWN,BAM,Dahi Mullah Ya Shahi Bala,304,Bagram,?????,Parwan,?????,3
36681,36682,Yale POP_MASTER,BAM-036,,0,PWN-BAM-036,925,Dari,1,1491.9689939999998,34.9896,69.2282,PWN,BAM,Dahi Payan Poorchi,304,Bagram,?????,Parwan,?????,3
36682,36683,Yale POP_MASTER,BAM-037,,0,PWN-BAM-037,261,Dari,1,1498.741943,34.9562,69.217,PWN,BAM,Dahi Payen,304,Bagram,?????,Parwan,?????,3
36683,36684,Yale POP_MASTER,BAM-038,,0,PWN-BAM-038,366,Dari,1,1486.118042,34.9744,69.2419,PWN,BAM,Darab Khail,304,Bagram,?????,Parwan,?????,3
36684,36685,Yale POP_MASTER,BAM-041,,0,PWN-BAM-041,1046,Pashto,2,1497.47998,34.9229,69.2281,PWN,BAM,Family Hai Maidan Hawaee,304,Bagram,?????,Parwan,?????,3
36685,36686,Yale POP_MASTER,BAM-043,,0,PWN-BAM-043,1802,Dari,1,1490.259033,34.9479,69.2274,PWN,BAM,Ghulam Ali,304,Bagram,?????,Parwan,?????,3
36686,36687,Yale POP_MASTER,BAM-044,,0,PWN-BAM-044,700,Pashto,2,1481.92395,34.9761,69.2681,PWN,BAM,Gojar Khail,304,Bagram,?????,Parwan,?????,3
36687,36688,Yale POP_MASTER,BAM-046,,0,PWN-BAM-046,386,Dari,1,1487.829956,34.9812,69.2441,PWN,BAM,Hamza Khail,304,Bagram,?????,Parwan,?????,3
36688,36689,Yale POP_MASTER,BAM-047,,0,PWN-BAM-047,1197,Dari,1,1483.573975,34.9669,69.2565,PWN,BAM,Jafar Khail,304,Bagram,?????,Parwan,?????,3
36689,36690,Yale POP_MASTER,BAM-048,,0,PWN-BAM-048,1179,Dari,1,1478.781982,34.9567,69.2619,PWN,BAM,Jan Qadam Bala,304,Bagram,?????,Parwan,?????,3
36690,36691,Yale POP_MASTER,BAM-049,,0,PWN-BAM-049,636,Pashto,2,1481.671021,34.9439,69.2557,PWN,BAM,Jan Qadam Payen,304,Bagram,?????,Parwan,?????,3
36691,36692,Yale POP_MASTER,BAM-052,,0,PWN-BAM-052,388,Dari,1,1483.5980220000001,34.9855,69.2873,PWN,BAM,Khan Baba Khail,304,Bagram,?????,Parwan,?????,3
36692,36693,Yale POP_MASTER,BAM-053,,0,PWN-BAM-053,340,Dari,1,1482.047974,34.9807,69.2808,PWN,BAM,Khanjar Khail,304,Bagram,?????,Parwan,?????,3
36693,36694,Yale POP_MASTER,BAM-055,,0,PWN-BAM-055,694,Dari,1,1509.232056,34.9407,69.1903,PWN,BAM,Korak Dana,304,Bagram,?????,Parwan,?????,3
36694,36695,Yale POP_MASTER,BAM-056,,0,PWN-BAM-056,802,Dari,1,1488.555054,34.9341,69.2389,PWN,BAM,Laghmani Bala,304,Bagram,?????,Parwan,?????,3
36695,36696,Yale POP_MASTER,BAM-057,,0,PWN-BAM-057,1181,Dari,1,1492.340942,34.9304,69.236,PWN,BAM,Laghmani Kohnna,304,Bagram,?????,Parwan,?????,3
36696,36697,Yale POP_MASTER,BAM-058,,0,PWN-BAM-058,205,Dari,1,1481.323975,34.9754,69.2771,PWN,BAM,Logari,304,Bagram,?????,Parwan,?????,3
36697,36698,Yale POP_MASTER,BAM-059,,0,PWN-BAM-059,1497,Dari,1,1491.540039,34.9534,69.2291,PWN,BAM,Mahe Ger,304,Bagram,?????,Parwan,?????,3
36698,36699,Yale POP_MASTER,BAM-060,,0,PWN-BAM-060,553,Dari,1,1492.5119630000002,34.9508,69.2246,PWN,BAM,Mahe Ger Chouni,304,Bagram,?????,Parwan,?????,3
36699,36700,Yale POP_MASTER,BAM-061,,0,PWN-BAM-061,469,Dari,1,1485.232056,34.9703,69.2453,PWN,BAM,Mahtad Khail,304,Bagram,?????,Parwan,?????,3
36700,36701,Yale POP_MASTER,BAM-062,,0,PWN-BAM-062,172,Pashto,2,1482.157959,34.9835,69.2987,PWN,BAM,Mirza Jallal,304,Bagram,?????,Parwan,?????,3
36701,36702,Yale POP_MASTER,BAM-063,,0,PWN-BAM-063,669,Dari,1,1474.785034,34.975,69.3058,PWN,BAM,Mohammad Rafeq Khan,304,Bagram,?????,Parwan,?????,3
36702,36703,Yale POP_MASTER,BAM-066,,0,PWN-BAM-066,529,Dari,1,1485.688965,34.9621,69.2422,PWN,BAM,Nayeb Khail,304,Bagram,?????,Parwan,?????,3
36703,36704,Yale POP_MASTER,BAM-068,,0,PWN-BAM-068,1710,Other,9,1480.260986,34.9627,69.2602,PWN,BAM,Now Dahi,304,Bagram,?????,Parwan,?????,3
36704,36705,Yale POP_MASTER,BAM-071,,0,PWN-BAM-071,543,Dari,1,1496.079956,34.968,69.2191,PWN,BAM,Qala Baha Dor,304,Bagram,?????,Parwan,?????,3
36705,36706,Yale POP_MASTER,BAM-072,,0,PWN-BAM-072,1046,Dari,1,1506.911987,34.9563,69.1971,PWN,BAM,Qala Bazaid,304,Bagram,?????,Parwan,?????,3
36706,36707,Yale POP_MASTER,BAM-074,,0,PWN-BAM-074,372,Dari,1,1484.442017,34.9861,69.2746,PWN,BAM,Qala Boland,304,Bagram,?????,Parwan,?????,3
36707,36708,Yale POP_MASTER,BAM-075,,0,PWN-BAM-075,1184,Pashto,2,1475.505005,34.8948,69.2531,PWN,BAM,Qala Dewana Wa Qala Dan,304,Bagram,?????,Parwan,?????,3
36708,36709,Yale POP_MASTER,BAM-076,,0,PWN-BAM-076,458,Pashto,2,1486.100952,34.9239,69.2448,PWN,BAM,Qala Goly Dahi Kalan,304,Bagram,?????,Parwan,?????,3
36709,36710,Yale POP_MASTER,BAM-078,,0,PWN-BAM-078,540,Dari,1,1505.748047,34.9498,69.1985,PWN,BAM,Qala Hazara,304,Bagram,?????,Parwan,?????,3
36710,36711,Yale POP_MASTER,BAM-079,,0,PWN-BAM-079,691,Dari,1,1476.5839839999999,34.965,69.2892,PWN,BAM,Qala Hazara Ha,304,Bagram,?????,Parwan,?????,3
36711,36712,Yale POP_MASTER,BAM-081,,0,PWN-BAM-081,878,Dari,1,1493.089966,34.9614,69.2265,PWN,BAM,Qala Khanaha,304,Bagram,?????,Parwan,?????,3
36712,36713,Yale POP_MASTER,BAM-082,,0,PWN-BAM-082,698,Dari,1,1500.61499,34.9245,69.2158,PWN,BAM,Qala Khoja Daspichari,304,Bagram,?????,Parwan,?????,3
36713,36714,Yale POP_MASTER,BAM-083,,0,PWN-BAM-083,1052,Dari,1,1503.192017,34.9341,69.2038,PWN,BAM,Qala Khoja Hulya,304,Bagram,?????,Parwan,?????,3
36714,36715,Yale POP_MASTER,BAM-084,,0,PWN-BAM-084,1103,Dari,1,1501.5780029999999,34.9325,69.2089,PWN,BAM,Qala Khoja Sufla,304,Bagram,?????,Parwan,?????,3
36715,36716,Yale POP_MASTER,BAM-087,,0,PWN-BAM-087,795,Dari,1,1493.774048,34.9733,69.2215,PWN,BAM,Qala Meyan Dahi,304,Bagram,?????,Parwan,?????,3
36716,36717,Yale POP_MASTER,BAM-088,,0,PWN-BAM-088,691,Pashto,2,1493.144043,34.904,69.2311,PWN,BAM,Qala Moussa Payen,304,Bagram,?????,Parwan,?????,3
36717,36718,Yale POP_MASTER,BAM-090,,0,PWN-BAM-090,637,Dari,1,1502.494995,34.9561,69.2056,PWN,BAM,Qala Now,304,Bagram,?????,Parwan,?????,3
36718,36719,Yale POP_MASTER,BAM-091,,0,PWN-BAM-091,261,Dari,1,1502.369995,34.9631,69.2084,PWN,BAM,Qala Qazi,304,Bagram,?????,Parwan,?????,3
36719,36720,Yale POP_MASTER,BAM-092,,0,PWN-BAM-092,1021,Other,9,1487.921021,34.9874,69.2507,PWN,BAM,Qalandar Khail Payen,304,Bagram,?????,Parwan,?????,3
36720,36721,Yale POP_MASTER,BAM-095,,0,PWN-BAM-095,316,Dari,1,1484.712036,34.9665,69.2451,PWN,BAM,Qashang Khail,304,Bagram,?????,Parwan,?????,3
36721,36722,Yale POP_MASTER,BAM-100,,0,PWN-BAM-100,223,Dari,1,1473.708008,34.9597,69.2955,PWN,BAM,Sahabi Khail,304,Bagram,?????,Parwan,?????,3
36722,36723,Yale POP_MASTER,BAM-101,,0,PWN-BAM-101,98,Dari,1,1495.718018,34.9727,69.2182,PWN,BAM,Sai Khail,304,Bagram,?????,Parwan,?????,3
36723,36724,Yale POP_MASTER,BAM-104,,0,PWN-BAM-104,1001,Dari,1,1483.581055,34.9572,69.2482,PWN,BAM,Shahka,304,Bagram,?????,Parwan,?????,3
36724,36725,Yale POP_MASTER,BAM-105,,0,PWN-BAM-105,530,Dari,1,1482.001953,34.9482,69.2448,PWN,BAM,Shahr Now Gholam Ali,304,Bagram,?????,Parwan,?????,3
36725,36726,Yale POP_MASTER,BAM-107,,0,PWN-BAM-107,325,Pashto,2,1474.3220210000002,34.9134,69.2587,PWN,BAM,Taji Kohtai,304,Bagram,?????,Parwan,?????,3
36726,36727,Yale POP_MASTER,BAM-108,,0,PWN-BAM-108,378,Dari,1,1493.9589839999999,34.98,69.2225,PWN,BAM,Toghchai,304,Bagram,?????,Parwan,?????,3
36727,36728,Yale POP_MASTER,BAM-109,,0,PWN-BAM-109,1267,Pashto,2,1481.968018,34.9818,69.2618,PWN,BAM,Turkman,304,Bagram,?????,Parwan,?????,3
36791,36792,Yale POP_MASTER,BAM-110,,0,PWN-BAM-110,202,Pashto,2,1477.68396,34.9293,69.2643,PWN,BAM,Yaz Bashi,304,Bagram,?????,Parwan,?????,3
36792,36793,Yale POP_MASTER,BAM-113,District,1,PWN-BAM-113,41264,Dari,1,1482.047974,34.9465,69.2562,PWN,BAM,Bagram (2),304,Bagram,?????,Parwan,?????,3
36873,36874,USAID AIDVillageView,SRP-004,,0,PWN-SRP-004,0,Dari,1,3194.193115,34.7804,68.846,PWN,SRP,Aylaqe Wand,310,Surkh-e- Parsa,??? ?????,Parwan,?????,3
36965,36966,Yale POP_MASTER,SRP-165,,0,PWN-SRP-165,2163,Dari,1,3066.314941,34.7664,68.8304,PWN,SRP,Wand,310,Surkh-e- Parsa,??? ?????,Parwan,?????,3
37032,37033,USAID AIDVillageView,SRP-007,,0,PWN-SRP-007,0,Dari,1,3044.349121,34.7603,68.8196,PWN,SRP,Eshturmurda,310,Surkh-e- Parsa,??? ?????,Parwan,?????,3
37033,37034,CSO AIMS Villages (ACSOR),SRP-014,,0,PWN-SRP-014,81,Dari,1,2748.825928,34.70143,68.75401,PWN,SRP,Kalan Tala (2),310,Surkh-e- Parsa,??? ?????,Parwan,?????,3
37034,37035,CSO AIMS Villages (ACSOR),SRP-016,,0,PWN-SRP-016,207,Dari,1,2801.506104,34.68738,68.77615,PWN,SRP,Qar Ghana,310,Surkh-e- Parsa,??? ?????,Parwan,?????,3
