,OBJECTID,SOURCE,VIL_UID,CENTER,CNTR_CODE,AFG_UID,POPULATION,LANGUAGE_,LANG_CODE,ELEVATION,LAT_Y,LON_X,MISTI_PROV,MISTI_DIST,VILLAGE_NA,DIST_CODE,DIST_NA_EN,DIST_NA_DA,PROV_NA_EN,PROV_NA_DA,PROV_CODE
1,2,USAID AIDVillageView,MZI-016,,0,KST-MZI-016,0,Pashto,2,1339.345947,33.3175,69.7421,KST,MZI,Nekbal,2605,Mandozayi,????????,Khost,????,26
2,3,USAID AIDVillageView,MZI-005,,0,KST-MZI-005,0,Pashto,2,1314.277954,33.3011,69.7749,KST,MZI,Bar Khankhel,2605,Mandozayi,????????,Khost,????,26
5,6,USAID AIDVillageView,JMN-005,,0,KST-JMN-005,0,Pashto,2,1623.4160160000001,33.6983,70.0807,KST,JMN,Mandeta,2613,Jajimaydan,???? ?????,Khost,????,26
6,7,USAID AIDVillageView,JMN-006,,0,KST-JMN-006,0,Pashto,2,1559.348999,33.6886,70.1071,KST,JMN,Other,2613,Jajimaydan,???? ?????,Khost,????,26
11,12,USAID AIDVillageView,MZI-010,,0,KST-MZI-010,0,Pashto,2,1227.232056,33.3232,69.8555,KST,MZI,Haydarkhel,2605,Mandozayi,????????,Khost,????,26
13,14,USAID AIDVillageView,TNI-010,,0,KST-TNI-010,0,Pashto,2,1290.848999,33.2649,69.8224,KST,TNI,Lalmay,2606,Tani,???,Khost,????,26
14,15,USAID AIDVillageView,TZY-014,,0,KST-TZY-014,0,Pashto,2,931.5507202,33.314,70.2066,KST,TZY,Sadak,2608,Terezayi,??? ????,Khost,????,26
1375,1376,USAID AIDVillageView,GRB-002,,0,KST-GRB-002,0,Pashto,2,1410.713989,33.2037,69.8632,KST,GRB,Lezi Kalay,2607,Gurbuz,????,Khost,????,26
1376,1377,CSO AIMS Villages (ACSOR),GRB-059,,0,KST-GRB-059,180,Pashto,2,1703.689941,33.18105,69.83337,KST,GRB,Doro Khail,2607,Gurbuz,????,Khost,????,26
1377,1378,CSO AIMS Villages (ACSOR),GRB-060,,0,KST-GRB-060,249,Pashto,2,1944.043945,33.13089,69.83012,KST,GRB,Kumake Zan Shora,2607,Gurbuz,????,Khost,????,26
1378,1379,CSO AIMS Villages (ACSOR),GRB-062,,0,KST-GRB-062,472,Pashto,2,1976.902954,33.1534,69.82811,KST,GRB,Shodeka Kalay,2607,Gurbuz,????,Khost,????,26
1379,1380,CSO AIMS Villages (ACSOR),GRB-063,,0,KST-GRB-063,360,Pashto,2,1717.640015,33.18155,69.82816,KST,GRB,Spen Zari,2607,Gurbuz,????,Khost,????,26
1380,1381,CSO AIMS Villages (ACSOR),GRB-064,,0,KST-GRB-064,1109,Pashto,2,1671.090942,33.10952,69.85,KST,GRB,Zan Shora,2607,Gurbuz,????,Khost,????,26
1381,1382,CSO AIMS Villages (ACSOR),GRB-061,,0,KST-GRB-061,113,Pashto,2,1855.094971,33.15309,69.84053,KST,GRB,Magho Lage,2607,Gurbuz,????,Khost,????,26
1382,1383,USAID AIDVillageView,TNI-020,,0,KST-TNI-020,0,Pashto,2,1282.910034,33.2595,69.8312,KST,TNI,Walam Kalay,2606,Tani,???,Khost,????,26
1383,1384,CSO AIMS Villages (ACSOR),TNI-139,,0,KST-TNI-139,62,Pashto,2,1325.045044,33.22167,69.83201,KST,TNI,Yaran Kalay,2606,Tani,???,Khost,????,26
1384,1385,USAID AIDVillageView,TNI-015,,0,KST-TNI-015,0,Pashto,2,1325.609009,33.2209,69.8373,KST,TNI,Mosil Kotkay,2606,Tani,???,Khost,????,26
1385,1386,USAID AIDVillageView,TNI-011,,0,KST-TNI-011,0,Pashto,2,1263.088989,33.2847,69.8265,KST,TNI,Mazarak Kala,2606,Tani,???,Khost,????,26
1386,1387,USAID AIDVillageView,TNI-007,,0,KST-TNI-007,0,Pashto,2,1469.105957,33.2013,69.7708,KST,TNI,Hashem Kot,2606,Tani,???,Khost,????,26
1387,1388,USAID AIDVillageView,TNI-022,,0,KST-TNI-022,0,Pashto,2,1401.186035,33.2052,69.8064,KST,TNI,Wazirgul Kot,2606,Tani,???,Khost,????,26
1388,1389,Yale POP_MASTER,GRB-039,,0,KST-GRB-039,1024,Pashto,2,1269.223999,33.2419,69.882,KST,GRB,Patlan,2607,Gurbuz,????,Khost,????,26
1389,1390,Yale POP_MASTER,TNI-035,,0,KST-TNI-035,304,Pashto,2,1265.878052,33.2655,69.8411,KST,TNI,Eid Gul Kalay,2606,Tani,???,Khost,????,26
1390,1391,Yale POP_MASTER,TNI-083,,0,KST-TNI-083,201,Pashto,2,1721.168945,33.1625,69.7261,KST,TNI,Munda Ta,2606,Tani,???,Khost,????,26
1391,1392,Yale POP_MASTER,TNI-034,,0,KST-TNI-034,466,Pashto,2,1260.86499,33.2749,69.8415,KST,TNI,Eid Akbar,2606,Tani,???,Khost,????,26
1392,1393,Yale POP_MASTER,TNI-100,,0,KST-TNI-100,532,Pashto,2,1265.6970210000002,33.2681,69.8417,KST,TNI,Sayid Kalay,2606,Tani,???,Khost,????,26
1393,1394,Yale POP_MASTER,TNI-029,,0,KST-TNI-029,13,Pashto,2,1458.963013,33.2101,69.7639,KST,TNI,Bukhta Gul,2606,Tani,???,Khost,????,26
1394,1395,Yale POP_MASTER,TNI-031,,0,KST-TNI-031,323,Pashto,2,1266.530029,33.2627,69.8416,KST,TNI,Dayer Malik,2606,Tani,???,Khost,????,26
1395,1396,Yale POP_MASTER,TNI-053,,0,KST-TNI-053,631,Pashto,2,1517.3439939999998,33.1961,69.7527,KST,TNI,Khan Mussa Kalay,2606,Tani,???,Khost,????,26
1396,1397,Yale POP_MASTER,TNI-052,,0,KST-TNI-052,144,Pashto,2,1741.7049559999998,33.163000000000004,69.7341,KST,TNI,Khai Sare,2606,Tani,???,Khost,????,26
1397,1398,Yale POP_MASTER,TNI-086,,0,KST-TNI-086,277,Pashto,2,1422.407959,33.2235,69.7695,KST,TNI,Nar Khail,2606,Tani,???,Khost,????,26
1398,1399,Yale POP_MASTER,TNI-098,,0,KST-TNI-098,1248,Pashto,2,1727.266968,33.161,69.7623,KST,TNI,Sari Kalay,2606,Tani,???,Khost,????,26
1399,1400,Yale POP_MASTER,TNI-132,,0,KST-TNI-132,311,Pashto,2,2063.126953,33.1512,69.8008,KST,TNI,Zhawara,2606,Tani,???,Khost,????,26
1400,1401,Yale POP_MASTER,TNI-107,,0,KST-TNI-107,23,Pashto,2,1412.501953,33.208,69.7924,KST,TNI,Shamaly Kala,2606,Tani,???,Khost,????,26
1401,1402,Yale POP_MASTER,TNI-073,,0,KST-TNI-073,428,Pashto,2,1318.531982,33.2653,69.7972,KST,TNI,Meya Khan Kalay,2606,Tani,???,Khost,????,26
22721,22722,USAID AIDVillageView,SPE-003,,0,KST-SPE-003,0,Pashto,2,2124.929932,33.0466,69.5,KST,SPE,Kochon,2611,Spera,?????,Khost,????,26
22722,22723,USAID AIDVillageView,SPE-007,,0,KST-SPE-007,0,Pashto,2,2115.211914,33.036,69.5045,KST,SPE,Paca Mela,2611,Spera,?????,Khost,????,26
22723,22724,USAID AIDVillageView,SPE-012,,0,KST-SPE-012,0,Pashto,2,2113.853027,33.0362,69.4962,KST,SPE,Wrice,2611,Spera,?????,Khost,????,26
22742,22743,Yale POP_MASTER,SPE-024,,0,KST-SPE-024,3979,Pashto,2,2827.856934,33.0574,69.4034,KST,SPE,Dara Gali,2611,Spera,?????,Khost,????,26
22743,22744,Yale POP_MASTER,SPE-035,,0,KST-SPE-035,309,Pashto,2,2397.302002,33.0744,69.4405,KST,SPE,Kala Kalay,2611,Spera,?????,Khost,????,26
22830,22831,Yale POP_MASTER,SPE-016,,0,KST-SPE-016,41,Pashto,2,2437.1489260000003,33.1112,69.4232,KST,SPE,Badam,2611,Spera,?????,Khost,????,26
22831,22832,Yale POP_MASTER,SPE-020,,0,KST-SPE-020,823,Pashto,2,2443.9580079999996,33.0963,69.4152,KST,SPE,Bazi Kon,2611,Spera,?????,Khost,????,26
22832,22833,Yale POP_MASTER,SPE-027,,0,KST-SPE-027,196,Pashto,2,2469.478027,33.1053,69.4249,KST,SPE,Ghojra,2611,Spera,?????,Khost,????,26
22833,22834,Yale POP_MASTER,SPE-051,,0,KST-SPE-051,265,Pashto,2,1979.765991,33.1705,69.4073,KST,SPE,Mulkey Kalay,2611,Spera,?????,Khost,????,26
22834,22835,Yale POP_MASTER,SPE-055,,0,KST-SPE-055,228,Pashto,2,2223.10791,33.1841,69.3958,KST,SPE,Remro,2611,Spera,?????,Khost,????,26
22835,22836,Yale POP_MASTER,SPE-070,,0,KST-SPE-070,151,Pashto,2,2216.3798829999996,33.1626,69.4119,KST,SPE,Wari Kalay (2),2611,Spera,?????,Khost,????,26
22889,22890,USAID AIDVillageView,SPE-001,,0,KST-SPE-001,0,Pashto,2,2123.0830079999996,33.1202,69.4888,KST,SPE,Afdzal Kala,2611,Spera,?????,Khost,????,26
22890,22891,USAID AIDVillageView,SPE-002,,0,KST-SPE-002,0,Pashto,2,2239.395996,33.1254,69.4482,KST,SPE,Dand,2611,Spera,?????,Khost,????,26
22891,22892,USAID AIDVillageView,SPE-004,,0,KST-SPE-004,0,Pashto,2,2137.3129879999997,33.1125,69.4725,KST,SPE,Magar,2611,Spera,?????,Khost,????,26
22892,22893,USAID AIDVillageView,SPE-005,,0,KST-SPE-005,0,Pashto,2,1799.6669920000002,33.1736,69.5211,KST,SPE,Mana,2611,Spera,?????,Khost,????,26
22893,22894,USAID AIDVillageView,SPE-008,,0,KST-SPE-008,0,Pashto,2,2380.318115,33.114000000000004,69.57,KST,SPE,Spalkin,2611,Spera,?????,Khost,????,26
22894,22895,USAID AIDVillageView,SPE-009,,0,KST-SPE-009,0,Pashto,2,2227.623047,33.068000000000005,69.5127,KST,SPE,Sra Kanda,2611,Spera,?????,Khost,????,26
22895,22896,USAID AIDVillageView,SPE-010,,0,KST-SPE-010,0,Pashto,2,2026.06897,33.1247,69.4869,KST,SPE,Tit Kala,2611,Spera,?????,Khost,????,26
22896,22897,USAID AIDVillageView,SPE-011,,0,KST-SPE-011,0,Pashto,2,2260.280029,33.1292,69.4572,KST,SPE,Wasti,2611,Spera,?????,Khost,????,26
22897,22898,CSO AIMS Villages (ACSOR),SPE-013,,0,KST-SPE-013,585,Pashto,2,1646.418945,33.22483,69.54476,KST,SPE,Kotaki,2611,Spera,?????,Khost,????,26
22898,22899,CSO AIMS Villages (ACSOR),TNI-137,,0,KST-TNI-137,361,Pashto,2,2046.245972,33.12968,69.67358,KST,TNI,Stera Khera,2606,Tani,???,Khost,????,26
22899,22900,USAID AIDVillageView,TNI-021,,0,KST-TNI-021,0,Pashto,2,2292.177979,33.119,69.6083,KST,TNI,Warije,2606,Tani,???,Khost,????,26
22900,22901,CSO AIMS Villages (ACSOR),TNI-138,,0,KST-TNI-138,1320,Pashto,2,2227.36499,33.10791,69.64708,KST,TNI,Stera Mana,2606,Tani,???,Khost,????,26
22901,22902,USAID AIDVillageView,TNI-012,,0,KST-TNI-012,0,Pashto,2,1946.4940190000002,33.1394,69.6744,KST,TNI,Mecyanga,2606,Tani,???,Khost,????,26
22902,22903,Yale POP_MASTER,SPE-014,,0,KST-SPE-014,581,Pashto,2,2030.540039,33.1881,69.5455,KST,SPE,Afzal Khail,2611,Spera,?????,Khost,????,26
22903,22904,Yale POP_MASTER,SPE-015,,0,KST-SPE-015,451,Pashto,2,1965.968018,33.1364,69.5034,KST,SPE,Azar Khail,2611,Spera,?????,Khost,????,26
22904,22905,Yale POP_MASTER,SPE-017,,0,KST-SPE-017,243,Pashto,2,2258.970947,33.1225,69.4459,KST,SPE,Balay,2611,Spera,?????,Khost,????,26
22905,22906,Yale POP_MASTER,SPE-018,,0,KST-SPE-018,729,Pashto,2,1782.9520260000002,33.1998,69.4786,KST,SPE,Bashing Kalay,2611,Spera,?????,Khost,????,26
22906,22907,Yale POP_MASTER,SPE-019,,0,KST-SPE-019,738,Pashto,2,1818.9940190000002,33.1956,69.4617,KST,SPE,Baze Kalay,2611,Spera,?????,Khost,????,26
22907,22908,Yale POP_MASTER,SPE-021,,0,KST-SPE-021,150,Pashto,2,2152.2080079999996,33.1026,69.4681,KST,SPE,Daila Ragha,2611,Spera,?????,Khost,????,26
22908,22909,Yale POP_MASTER,SPE-022,,0,KST-SPE-022,86,Pashto,2,2185.563965,33.1306,69.4662,KST,SPE,Dand Kalay,2611,Spera,?????,Khost,????,26
22909,22910,Yale POP_MASTER,SPE-023,,0,KST-SPE-023,365,Pashto,2,1686.073975,33.2213,69.5374,KST,SPE,Dandage,2611,Spera,?????,Khost,????,26
22910,22911,Yale POP_MASTER,SPE-026,,0,KST-SPE-026,1149,Pashto,2,1815.0959469999998,33.1998,69.5136,KST,SPE,Espera Kalay,2611,Spera,?????,Khost,????,26
22911,22912,Yale POP_MASTER,SPE-028,,0,KST-SPE-028,1005,Pashto,2,1800.359009,33.1953,69.4705,KST,SPE,Ghorma,2611,Spera,?????,Khost,????,26
22912,22913,Yale POP_MASTER,SPE-029,,0,KST-SPE-029,263,Pashto,2,1823.718994,33.1847,69.5154,KST,SPE,Ghorwa Kashte,2611,Spera,?????,Khost,????,26
22913,22914,Yale POP_MASTER,SPE-030,,0,KST-SPE-030,356,Pashto,2,1970.1860350000002,33.161,69.5464,KST,SPE,Hawas Khail,2611,Spera,?????,Khost,????,26
22914,22915,Yale POP_MASTER,SPE-031,,0,KST-SPE-031,450,Pashto,2,2312.592041,33.1152,69.5473,KST,SPE,Jangi Kalay,2611,Spera,?????,Khost,????,26
22915,22916,Yale POP_MASTER,SPE-032,,0,KST-SPE-032,166,Pashto,2,2093.344971,33.171,69.4302,KST,SPE,Kabul Shahi Kalay,2611,Spera,?????,Khost,????,26
22916,22917,Yale POP_MASTER,SPE-033,,0,KST-SPE-033,239,Pashto,2,2068.0310059999997,33.1426,69.5488,KST,SPE,Kak Kalay,2611,Spera,?????,Khost,????,26
22917,22918,Yale POP_MASTER,SPE-034,,0,KST-SPE-034,648,Pashto,2,1890.760986,33.184,69.4284,KST,SPE,Kala,2611,Spera,?????,Khost,????,26
22918,22919,Yale POP_MASTER,SPE-036,,0,KST-SPE-036,179,Pashto,2,1781.7130129999998,33.201,69.4845,KST,SPE,Kana,2611,Spera,?????,Khost,????,26
22919,22920,Yale POP_MASTER,SPE-037,,0,KST-SPE-037,219,Pashto,2,1861.2249760000002,33.1905,69.4411,KST,SPE,Kata Sari,2611,Spera,?????,Khost,????,26
22920,22921,Yale POP_MASTER,SPE-038,,0,KST-SPE-038,248,Pashto,2,2039.3459469999998,33.1974,69.5279,KST,SPE,Kekha,2611,Spera,?????,Khost,????,26
22921,22922,Yale POP_MASTER,SPE-039,,0,KST-SPE-039,343,Pashto,2,1732.3659670000002,33.2072,69.5177,KST,SPE,Keyan Khailo Kott Markaz Wolluswaly,2611,Spera,?????,Khost,????,26
22922,22923,Yale POP_MASTER,SPE-040,,0,KST-SPE-040,1173,Pashto,2,2295.205078,33.1198,69.4405,KST,SPE,Khan Kalay,2611,Spera,?????,Khost,????,26
22923,22924,Yale POP_MASTER,SPE-041,,0,KST-SPE-041,651,Pashto,2,1756.7709960000002,33.2045,69.4922,KST,SPE,Khar Gori,2611,Spera,?????,Khost,????,26
22924,22925,Yale POP_MASTER,SPE-042,,0,KST-SPE-042,680,Pashto,2,1922.875,33.1767,69.5408,KST,SPE,Khatan Khail Janger Kalay,2611,Spera,?????,Khost,????,26
22925,22926,Yale POP_MASTER,SPE-043,,0,KST-SPE-043,40,Pashto,2,1919.0209960000002,33.1793,69.4197,KST,SPE,Khost Khail,2611,Spera,?????,Khost,????,26
22926,22927,Yale POP_MASTER,SPE-044,,0,KST-SPE-044,451,Pashto,2,1970.560059,33.2289,69.5298,KST,SPE,Kowanda Khail,2611,Spera,?????,Khost,????,26
22927,22928,Yale POP_MASTER,SPE-045,,0,KST-SPE-045,275,Pashto,2,2170.408936,33.131,69.5554,KST,SPE,Kunda Kalay,2611,Spera,?????,Khost,????,26
22928,22929,Yale POP_MASTER,SPE-046,,0,KST-SPE-046,955,Pashto,2,2119.5271,33.1331,69.5471,KST,SPE,Lahoree,2611,Spera,?????,Khost,????,26
22929,22930,Yale POP_MASTER,SPE-047,,0,KST-SPE-047,426,Pashto,2,1773.781006,33.1935,69.5174,KST,SPE,Lak,2611,Spera,?????,Khost,????,26
22930,22931,Yale POP_MASTER,SPE-048,,0,KST-SPE-048,1027,Pashto,2,2003.584961,33.1544,69.5505,KST,SPE,Makra Mangal,2611,Spera,?????,Khost,????,26
22931,22932,Yale POP_MASTER,SPE-049,,0,KST-SPE-049,228,Pashto,2,1952.744995,33.1471,69.5082,KST,SPE,Mamo Mani,2611,Spera,?????,Khost,????,26
22932,22933,Yale POP_MASTER,SPE-050,,0,KST-SPE-050,350,Pashto,2,1830.46106,33.1657,69.5167,KST,SPE,Mana Kalay,2611,Spera,?????,Khost,????,26
22933,22934,Yale POP_MASTER,SPE-052,,0,KST-SPE-052,1118,Pashto,2,2345.535889,33.1141,69.4327,KST,SPE,Munda Ta Khola,2611,Spera,?????,Khost,????,26
22934,22935,Yale POP_MASTER,SPE-053,,0,KST-SPE-053,199,Pashto,2,2169.0979,33.1225,69.5471,KST,SPE,Pachogi Kalay,2611,Spera,?????,Khost,????,26
22935,22936,Yale POP_MASTER,SPE-054,,0,KST-SPE-054,84,Pashto,2,1696.100952,33.2161,69.5375,KST,SPE,Rage,2611,Spera,?????,Khost,????,26
22936,22937,Yale POP_MASTER,SPE-056,,0,KST-SPE-056,40,Pashto,2,1820.314941,33.1966,69.5027,KST,SPE,Shair Wali Kalay,2611,Spera,?????,Khost,????,26
22937,22938,Yale POP_MASTER,SPE-057,,0,KST-SPE-057,138,Pashto,2,2214.3439940000003,33.1267,69.4553,KST,SPE,Shami Khan,2611,Spera,?????,Khost,????,26
22938,22939,Yale POP_MASTER,SPE-059,,0,KST-SPE-059,586,Pashto,2,1613.259033,33.2398,69.5609,KST,SPE,Spen Kalay,2611,Spera,?????,Khost,????,26
22939,22940,Yale POP_MASTER,SPE-060,,0,KST-SPE-060,836,Pashto,2,2198.22998,33.1188,69.5153,KST,SPE,Takya,2611,Spera,?????,Khost,????,26
22940,22941,Yale POP_MASTER,SPE-061,,0,KST-SPE-061,770,Pashto,2,1831.874023,33.1941,69.4531,KST,SPE,Tanai Kahil,2611,Spera,?????,Khost,????,26
22941,22942,Yale POP_MASTER,SPE-062,,0,KST-SPE-062,1012,Pashto,2,1997.177002,33.2229,69.4471,KST,SPE,Tangi Ghorma,2611,Spera,?????,Khost,????,26
22942,22943,Yale POP_MASTER,SPE-063,,0,KST-SPE-063,265,Pashto,2,1699.6889649999998,33.2152,69.5323,KST,SPE,Tarim Khan Kalay,2611,Spera,?????,Khost,????,26
22943,22944,Yale POP_MASTER,SPE-064,,0,KST-SPE-064,425,Pashto,2,2194.018066,33.1365,69.4718,KST,SPE,Tary,2611,Spera,?????,Khost,????,26
22944,22945,Yale POP_MASTER,SPE-065,,0,KST-SPE-065,138,Pashto,2,2169.988037,33.1154,69.4919,KST,SPE,Teet Kalay,2611,Spera,?????,Khost,????,26
22945,22946,Yale POP_MASTER,SPE-066,,0,KST-SPE-066,618,Pashto,2,1929.255005,33.181,69.5418,KST,SPE,Teet Khail,2611,Spera,?????,Khost,????,26
22946,22947,Yale POP_MASTER,SPE-067,,0,KST-SPE-067,78,Pashto,2,1862.171997,33.2403,69.5444,KST,SPE,Terwa,2611,Spera,?????,Khost,????,26
22947,22948,Yale POP_MASTER,SPE-068,,0,KST-SPE-068,188,Pashto,2,2000.161011,33.133,69.4881,KST,SPE,Tour Manda,2611,Spera,?????,Khost,????,26
22948,22949,Yale POP_MASTER,SPE-069,,0,KST-SPE-069,282,Pashto,2,1727.7130129999998,33.2014,69.5072,KST,SPE,Wali Kalay (1),2611,Spera,?????,Khost,????,26
22949,22950,Yale POP_MASTER,SPE-071,,0,KST-SPE-071,154,Pashto,2,2373.400879,33.0906,69.4447,KST,SPE,Wari Sar,2611,Spera,?????,Khost,????,26
22950,22951,Yale POP_MASTER,SPE-072,,0,KST-SPE-072,184,Pashto,2,2087.084961,33.1387,69.4834,KST,SPE,Washte,2611,Spera,?????,Khost,????,26
22951,22952,Yale POP_MASTER,SPE-073,,0,KST-SPE-073,514,Pashto,2,1661.282959,33.231,69.5508,KST,SPE,Zenda Tezha Wa Khair Wali,2611,Spera,?????,Khost,????,26
22952,22953,Yale POP_MASTER,SPE-074,,0,KST-SPE-074,229,Pashto,2,1807.52002,33.2037,69.5238,KST,SPE,Zhandar Gari,2611,Spera,?????,Khost,????,26
22953,22954,Yale POP_MASTER,SPE-075,District,1,KST-SPE-075,10561,Pashto,2,1721.375977,33.2025,69.5165,KST,SPE,Spera,2611,Spera,?????,Khost,????,26
22954,22955,Yale POP_MASTER,TNI-091,,0,KST-TNI-091,220,Pashto,2,1959.6340329999998,33.1459,69.6615,KST,TNI,Pashan,2606,Tani,???,Khost,????,26
22955,22956,Yale POP_MASTER,TNI-063,,0,KST-TNI-063,186,Pashto,2,2438.9609379999997,33.1051,69.5941,KST,TNI,Lamanz Gani,2606,Tani,???,Khost,????,26
22956,22957,Yale POP_MASTER,TNI-115,,0,KST-TNI-115,57,Pashto,2,2391.158936,33.1241,69.6016,KST,TNI,Ster Zera,2606,Tani,???,Khost,????,26
22957,22958,Yale POP_MASTER,TNI-116,,0,KST-TNI-116,703,Pashto,2,1957.0410160000001,33.1228,69.6493,KST,TNI,Tande Kalay,2606,Tani,???,Khost,????,26
22958,22959,Yale POP_MASTER,TNI-126,,0,KST-TNI-126,631,Pashto,2,2220.150879,33.1144,69.6082,KST,TNI,Woreze,2606,Tani,???,Khost,????,26
22959,22960,Yale POP_MASTER,TNI-067,,0,KST-TNI-067,355,Pashto,2,2040.874023,33.1807,69.6438,KST,TNI,Manz Kalay,2606,Tani,???,Khost,????,26
22960,22961,Yale POP_MASTER,TNI-113,,0,KST-TNI-113,1374,Pashto,2,1875.9169920000002,33.1534,69.6655,KST,TNI,Sper Kai,2606,Tani,???,Khost,????,26
22961,22962,Yale POP_MASTER,TNI-027,,0,KST-TNI-027,1884,Pashto,2,1914.9749760000002,33.1757,69.6479,KST,TNI,Banda Khail,2606,Tani,???,Khost,????,26
22962,22963,Yale POP_MASTER,TNI-114,,0,KST-TNI-114,1068,Pashto,2,1886.459961,33.1366,69.6624,KST,TNI,Ster Kalay,2606,Tani,???,Khost,????,26
22963,22964,Yale POP_MASTER,TNI-058,,0,KST-TNI-058,2111,Pashto,2,2467.12793,33.1534,69.6223,KST,TNI,Kochon,2606,Tani,???,Khost,????,26
22964,22965,Yale POP_MASTER,TNI-119,,0,KST-TNI-119,686,Pashto,2,2166.300049,33.1168,69.6237,KST,TNI,Toura Tezha,2606,Tani,???,Khost,????,26
22965,22966,Yale POP_MASTER,TNI-030,,0,KST-TNI-030,322,Pashto,2,1896.21106,33.1801,69.6501,KST,TNI,Dabra,2606,Tani,???,Khost,????,26
22966,22967,Yale POP_MASTER,TNI-059,,0,KST-TNI-059,426,Pashto,2,2127.342041,33.1212,69.6565,KST,TNI,Kumaki Mana,2606,Tani,???,Khost,????,26
22967,22968,Yale POP_MASTER,TNI-109,,0,KST-TNI-109,45,Pashto,2,2272.98999,33.1407,69.6203,KST,TNI,So Denara,2606,Tani,???,Khost,????,26
22968,22969,Yale POP_MASTER,TNI-102,,0,KST-TNI-102,334,Pashto,2,1885.7590329999998,33.1325,69.657,KST,TNI,Seri,2606,Tani,???,Khost,????,26
22969,22970,Yale POP_MASTER,TNI-090,,0,KST-TNI-090,285,Pashto,2,2362.986084,33.1318,69.6147,KST,TNI,Pangi,2606,Tani,???,Khost,????,26
22970,22971,Yale POP_MASTER,TNI-038,,0,KST-TNI-038,893,Pashto,2,1811.2080079999998,33.1453,69.6695,KST,TNI,Faqiran,2606,Tani,???,Khost,????,26
22971,22972,Yale POP_MASTER,TNI-065,,0,KST-TNI-065,136,Pashto,2,1919.793945,33.1405,69.6686,KST,TNI,Landi,2606,Tani,???,Khost,????,26
22972,22973,USAID AIDVillageView,SML-001,,0,KST-SML-001,0,Pashto,2,1681.42395,33.3292,69.5426,KST,SML,Sawaykot(khawikhel),2610,Shamal,???,Khost,????,26
22973,22974,USAID AIDVillageView,NSK-003,,0,KST-NSK-003,0,Pashto,2,1517.935059,33.2834,69.6114,KST,NSK,Malway,2604,Nadirshahkot,??????? ???,Khost,????,26
22974,22975,CCI Field Team,SML-035,,0,KST-SML-035,339,Pashto,2,1508.9530029999999,33.2756,69.5984,KST,SML,Dumanda,2610,Shamal,???,Khost,????,26
22975,22976,CCI Field Team,SML-034,,0,KST-SML-034,325,Pashto,2,1543.541992,33.2816,69.5812,KST,SML,Khelwetay,2610,Shamal,???,Khost,????,26
22976,22977,CCI Field Team,SML-009,,0,KST-SML-009,206,Pashto,2,1565.009033,33.28875,69.578319,KST,SML,Doya Khel,2610,Shamal,???,Khost,????,26
22977,22978,CCI Field Team,SML-031,,0,KST-SML-031,718,Pashto,2,1561.081055,33.2908,69.5706,KST,SML,Laki Khel,2610,Shamal,???,Khost,????,26
22978,22979,CCI Field Team,SML-032,,0,KST-SML-032,718,Pashto,2,1567.785034,33.2908,69.5706,KST,SML,Anar Bagh,2610,Shamal,???,Khost,????,26
22979,22980,CCI Field Team,SML-033,,0,KST-SML-033,718,Pashto,2,1584.5410160000001,33.2908,69.5706,KST,SML,Boskai,2610,Shamal,???,Khost,????,26
22980,22981,CCI Field Team,SML-026,,0,KST-SML-026,105,Pashto,2,1577.880981,33.299721999999996,69.558987,KST,SML,Zakara,2610,Shamal,???,Khost,????,26
22981,22982,CCI Field Team,SML-004,,0,KST-SML-004,613,Pashto,2,1628.442993,33.305583,69.554291,KST,SML,Burgahatee,2610,Shamal,???,Khost,????,26
22982,22983,CCI Field Team,SML-029,,0,KST-SML-029,613,Pashto,2,1586.296021,33.3035,69.5537,KST,SML,Kotkai,2610,Shamal,???,Khost,????,26
22983,22984,CCI Field Team,SML-028,,0,KST-SML-028,6304,Pashto,2,1643.0620119999999,33.3113,69.5499,KST,SML,Malakot,2610,Shamal,???,Khost,????,26
22984,22985,CCI Field Team,SML-012,,0,KST-SML-012,611,Pashto,2,1630.345947,33.313827,69.544157,KST,SML,Allawadin,2610,Shamal,???,Khost,????,26
22985,22986,CCI Field Team,SML-030,,0,KST-SML-030,577,Pashto,2,1637.5860599999999,33.3221,69.5389,KST,SML,Rishka,2610,Shamal,???,Khost,????,26
22986,22987,Yale POP_MASTER,SPE-025,,0,KST-SPE-025,419,Pashto,2,1576.522949,33.2535,69.5756,KST,SPE,Dorgay,2611,Spera,?????,Khost,????,26
22987,22988,Yale POP_MASTER,SPE-058,,0,KST-SPE-058,400,Pashto,2,1603.001953,33.2466,69.5692,KST,SPE,Shedal,2611,Spera,?????,Khost,????,26
22988,22989,Yale POP_MASTER,SML-024,,0,KST-SML-024,577,Pashto,2,1651.980957,33.3221,69.5389,KST,SML,Sowy Kott,2610,Shamal,???,Khost,????,26
22989,22990,Yale POP_MASTER,SML-005,,0,KST-SML-005,188,Pashto,2,1680.8139649999998,33.3169,69.5386,KST,SML,Chandari,2610,Shamal,???,Khost,????,26
22991,22992,Yale POP_MASTER,SML-014,,0,KST-SML-014,101,Pashto,2,1724.687988,33.3365,69.5392,KST,SML,Haram Kotta,2610,Shamal,???,Khost,????,26
22992,22993,Yale POP_MASTER,SML-002,,0,KST-SML-002,634,Pashto,2,1701.597046,33.3464,69.5267,KST,SML,Allo Khail,2610,Shamal,???,Khost,????,26
22993,22994,Yale POP_MASTER,SML-016,,0,KST-SML-016,664,Pashto,2,1893.932983,33.3394,69.5536,KST,SML,Karaiz,2610,Shamal,???,Khost,????,26
22994,22995,Yale POP_MASTER,SML-017,,0,KST-SML-017,510,Pashto,2,1724.593018,33.3507,69.5117,KST,SML,Khowja Kott,2610,Shamal,???,Khost,????,26
22995,22996,Yale POP_MASTER,SML-022,,0,KST-SML-022,2471,Pashto,2,1758.4520260000002,33.3466,69.4977,KST,SML,Sayid Khail,2610,Shamal,???,Khost,????,26
22996,22997,Yale POP_MASTER,SML-023,,0,KST-SML-023,840,Pashto,2,1560.11499,33.2788,69.5891,KST,SML,Sor Kani,2610,Shamal,???,Khost,????,26
22997,22998,Yale POP_MASTER,SML-008,,0,KST-SML-008,406,Pashto,2,1573.265991,33.2852,69.6001,KST,SML,Dowa Mendi Markaz Wolluswaly,2610,Shamal,???,Khost,????,26
22998,22999,Yale POP_MASTER,SML-019,,0,KST-SML-019,437,Pashto,2,1516.171021,33.2829,69.6092,KST,SML,Malawi,2610,Shamal,???,Khost,????,26
22999,23000,Yale POP_MASTER,SML-021,,0,KST-SML-021,339,Pashto,2,1537.7810060000002,33.2756,69.5984,KST,SML,Raite Kalay,2610,Shamal,???,Khost,????,26
23000,23001,Yale POP_MASTER,SML-013,,0,KST-SML-013,325,Pashto,2,1571.060059,33.2816,69.5812,KST,SML,Halwati Korkay,2610,Shamal,???,Khost,????,26
23001,23002,Yale POP_MASTER,SML-010,,0,KST-SML-010,718,Pashto,2,1553.5720210000002,33.2908,69.5706,KST,SML,Ganda Kholy,2610,Shamal,???,Khost,????,26
23002,23003,Yale POP_MASTER,SML-011,,0,KST-SML-011,1191,Pashto,2,1701.135986,33.2924,69.5343,KST,SML,Gete Khail,2610,Shamal,???,Khost,????,26
23003,23004,Yale POP_MASTER,SML-007,,0,KST-SML-007,116,Pashto,2,1847.57605,33.2775,69.5175,KST,SML,Dara Kamal Khail,2610,Shamal,???,Khost,????,26
23004,23005,Yale POP_MASTER,SML-027,District,1,KST-SML-027,6304,Pashto,2,1668.272949,33.3113,69.5499,KST,SML,Shamal (shamul),2610,Shamal,???,Khost,????,26
23005,23006,Yale POP_MASTER,SML-020,,0,KST-SML-020,110,Pashto,2,1613.293945,33.3099,69.5482,KST,SML,Mullah Kott,2610,Shamal,???,Khost,????,26
23006,23007,Yale POP_MASTER,SML-006,,0,KST-SML-006,273,Pashto,2,1930.078979,33.2949,69.4963,KST,SML,Dangar Kalay,2610,Shamal,???,Khost,????,26
23007,23008,Yale POP_MASTER,SML-018,,0,KST-SML-018,303,Pashto,2,1735.967041,33.2974,69.5251,KST,SML,Kohi Ragha,2610,Shamal,???,Khost,????,26
23008,23009,Yale POP_MASTER,SML-015,,0,KST-SML-015,1086,Pashto,2,1867.999023,33.2959,69.5046,KST,SML,Kamal Khail,2610,Shamal,???,Khost,????,26
23009,23010,Yale POP_MASTER,SML-025,,0,KST-SML-025,749,Pashto,2,2157.721924,33.29,69.4667,KST,SML,Ster Kas,2610,Shamal,???,Khost,????,26
23010,23011,Yale POP_MASTER,SML-003,,0,KST-SML-003,205,Pashto,2,2068.045898,33.2948,69.4895,KST,SML,Banda Kay,2610,Shamal,???,Khost,????,26
23011,23012,USAID AIDVillageView,TNI-005,,0,KST-TNI-005,0,Pashto,2,1300.516968,33.266999999999996,69.8113,KST,TNI,Dur Koti,2606,Tani,???,Khost,????,26
23012,23013,USAID AIDVillageView,TNI-013,,0,KST-TNI-013,0,Pashto,2,2419.056885,33.121,69.7382,KST,TNI,Melan,2606,Tani,???,Khost,????,26
23013,23014,USAID AIDVillageView,TNI-003,,0,KST-TNI-003,0,Pashto,2,1442.9780269999999,33.2071,69.7754,KST,TNI,Bakhtyar Kot,2606,Tani,???,Khost,????,26
23014,23015,USAID AIDVillageView,TNI-002,,0,KST-TNI-002,0,Pashto,2,1262.348999,33.2488,69.8796,KST,TNI,Aliman Kotkay,2606,Tani,???,Khost,????,26
23015,23016,USAID AIDVillageView,TNI-001,,0,KST-TNI-001,0,Pashto,2,1268.95105,33.2513,69.8611,KST,TNI,Abdulhamid Kotky,2606,Tani,???,Khost,????,26
23016,23017,Yale POP_MASTER,TNI-085,,0,KST-TNI-085,261,Pashto,2,1280.295044,33.2463,69.8594,KST,TNI,Nai Naz Kott,2606,Tani,???,Khost,????,26
23017,23018,Yale POP_MASTER,TNI-066,,0,KST-TNI-066,288,Pashto,2,1249.1290279999998,33.2601,69.8725,KST,TNI,Mani,2606,Tani,???,Khost,????,26
23018,23019,Yale POP_MASTER,TNI-032,,0,KST-TNI-032,799,Pashto,2,1241.255981,33.2647,69.8719,KST,TNI,Din Shahbaz Wa Kamal Khan Kalay,2606,Tani,???,Khost,????,26
23019,23020,Yale POP_MASTER,TNI-074,,0,KST-TNI-074,790,Pashto,2,1258.0529789999998,33.2548,69.8706,KST,TNI,Mir Arkott,2606,Tani,???,Khost,????,26
23020,23021,Yale POP_MASTER,TNI-042,,0,KST-TNI-042,232,Pashto,2,1255.52002,33.2576,69.869,KST,TNI,Gul Perous,2606,Tani,???,Khost,????,26
23021,23022,Yale POP_MASTER,TNI-047,,0,KST-TNI-047,1038,Pashto,2,1268.608032,33.2498,69.8678,KST,TNI,Haliman Kalay,2606,Tani,???,Khost,????,26
23022,23023,Yale POP_MASTER,TNI-026,,0,KST-TNI-026,120,Pashto,2,1239.2709960000002,33.2744,69.8616,KST,TNI,Azmat Khan Kalay,2606,Tani,???,Khost,????,26
23023,23024,Yale POP_MASTER,TNI-024,,0,KST-TNI-024,536,Pashto,2,1229.910034,33.2955,69.8526,KST,TNI,Arsana Kalay,2606,Tani,???,Khost,????,26
23024,23025,Yale POP_MASTER,TNI-128,,0,KST-TNI-128,419,Pashto,2,1236.6469730000001,33.2836,69.8598,KST,TNI,Zakam Khail Kalay,2606,Tani,???,Khost,????,26
23025,23026,Yale POP_MASTER,GRB-023,,0,KST-GRB-023,166,Pashto,2,1636.712036,33.1784,69.8446,KST,GRB,Kaskay Kalay,2607,Gurbuz,????,Khost,????,26
23026,23027,Yale POP_MASTER,GRB-014,,0,KST-GRB-014,91,Pashto,2,1515.744995,33.1865,69.8624,KST,GRB,Dalalatezhe Kalay,2607,Gurbuz,????,Khost,????,26
23027,23028,Yale POP_MASTER,TNI-082,,0,KST-TNI-082,430,Pashto,2,1355.286987,33.2511,69.7847,KST,TNI,Modez Kalay,2606,Tani,???,Khost,????,26
23028,23029,Yale POP_MASTER,TNI-125,,0,KST-TNI-125,146,Pashto,2,1362.796021,33.2442,69.7845,KST,TNI,Woni Gul Kalay,2606,Tani,???,Khost,????,26
23029,23030,Yale POP_MASTER,TNI-099,,0,KST-TNI-099,79,Pashto,2,1317.274048,33.2484,69.8126,KST,TNI,Sarke,2606,Tani,???,Khost,????,26
23030,23031,Yale POP_MASTER,TNI-040,,0,KST-TNI-040,216,Pashto,2,1334.444946,33.2567,69.7935,KST,TNI,Ghulam Jan Kalay,2606,Tani,???,Khost,????,26
23031,23032,Yale POP_MASTER,TNI-051,,0,KST-TNI-051,759,Pashto,2,1305.72998,33.2336,69.8459,KST,TNI,Juma Khan Kalay,2606,Tani,???,Khost,????,26
23032,23033,Yale POP_MASTER,TNI-039,,0,KST-TNI-039,325,Pashto,2,1317.198975,33.2296,69.8508,KST,TNI,Faqiri,2606,Tani,???,Khost,????,26
23033,23034,Yale POP_MASTER,TNI-112,,0,KST-TNI-112,129,Pashto,2,1312.999023,33.2262,69.835,KST,TNI,Speendad,2606,Tani,???,Khost,????,26
23034,23035,Yale POP_MASTER,TNI-062,,0,KST-TNI-062,80,Pashto,2,1294.8280029999999,33.2597,69.821,KST,TNI,Lalmi,2606,Tani,???,Khost,????,26
23035,23036,Yale POP_MASTER,TNI-077,,0,KST-TNI-077,118,Pashto,2,1257.090942,33.2643,69.8494,KST,TNI,Mir Salam Gul,2606,Tani,???,Khost,????,26
23036,23037,Yale POP_MASTER,TNI-075,,0,KST-TNI-075,50,Pashto,2,1298.149048,33.2359,69.8392,KST,TNI,Mir Baz Kalay,2606,Tani,???,Khost,????,26
23037,23038,Yale POP_MASTER,TNI-057,,0,KST-TNI-057,343,Pashto,2,1333.446045,33.2217,69.8493,KST,TNI,Khanoge Kalay,2606,Tani,???,Khost,????,26
23038,23039,Yale POP_MASTER,TNI-068,,0,KST-TNI-068,5302,Pashto,2,1305.935059,33.2401,69.8275,KST,TNI,Markaz Wolluswaly Dorge,2606,Tani,???,Khost,????,26
23039,23040,Yale POP_MASTER,TNI-055,,0,KST-TNI-055,175,Pashto,2,1347.8029789999998,33.2471,69.7926,KST,TNI,Khanage Kotaki,2606,Tani,???,Khost,????,26
23040,23041,Yale POP_MASTER,TNI-122,,0,KST-TNI-122,453,Pashto,2,1356.224976,33.2406,69.7911,KST,TNI,Wali Mir Khan Kalay,2606,Tani,???,Khost,????,26
23041,23042,Yale POP_MASTER,TNI-133,,0,KST-TNI-133,499,Pashto,2,1357.777954,33.2131,69.8184,KST,TNI,Zurmat Kalay,2606,Tani,???,Khost,????,26
23042,23043,Yale POP_MASTER,TNI-134,,0,KST-TNI-134,186,Pashto,2,1307.578979,33.2568,69.8136,KST,TNI,Zurmat Khan Kalay,2606,Tani,???,Khost,????,26
23043,23044,Yale POP_MASTER,TNI-078,,0,KST-TNI-078,357,Pashto,2,1319.55603,33.228,69.8455,KST,TNI,Mir Zaman,2606,Tani,???,Khost,????,26
23044,23045,Yale POP_MASTER,TNI-044,,0,KST-TNI-044,140,Pashto,2,1370.6719970000001,33.2105,69.8146,KST,TNI,Gulab Khail,2606,Tani,???,Khost,????,26
23045,23046,Yale POP_MASTER,TNI-070,,0,KST-TNI-070,29,Pashto,2,1265.928955,33.2567,69.8516,KST,TNI,Mayob Kalay,2606,Tani,???,Khost,????,26
23046,23047,Yale POP_MASTER,TNI-120,,0,KST-TNI-120,406,Pashto,2,1266.912964,33.2585,69.8426,KST,TNI,Walam,2606,Tani,???,Khost,????,26
23047,23048,Yale POP_MASTER,TNI-096,,0,KST-TNI-096,111,Pashto,2,1324.581055,33.2584,69.8004,KST,TNI,Sallay Mohammad Khan Kalay,2606,Tani,???,Khost,????,26
23048,23049,Yale POP_MASTER,TNI-106,,0,KST-TNI-106,122,Pashto,2,1366.222046,33.2485,69.7787,KST,TNI,Shair Ghak,2606,Tani,???,Khost,????,26
23049,23050,Yale POP_MASTER,TNI-130,,0,KST-TNI-130,303,Pashto,2,1288.508057,33.2545,69.8286,KST,TNI,Zayer Nasim Kalay,2606,Tani,???,Khost,????,26
23050,23051,Yale POP_MASTER,TNI-135,District,1,KST-TNI-135,10100,Pashto,2,1301.956055,33.2436,69.83,KST,TNI,Tani,2606,Tani,???,Khost,????,26
23051,23052,Yale POP_MASTER,TNI-043,,0,KST-TNI-043,87,Pashto,2,1340.291992,33.2255,69.8148,KST,TNI,Gul Qadam Wa Zal Kala,2606,Tani,???,Khost,????,26
23052,23053,Yale POP_MASTER,TNI-036,,0,KST-TNI-036,965,Pashto,2,1710.1429440000002,33.1632,69.7595,KST,TNI,Eissa Khail,2606,Tani,???,Khost,????,26
23053,23054,Yale POP_MASTER,TNI-037,,0,KST-TNI-037,1708,Pashto,2,1569.8709720000002,33.1783,69.7934,KST,TNI,Eman Kalay,2606,Tani,???,Khost,????,26
23054,23055,Yale POP_MASTER,TNI-104,,0,KST-TNI-104,688,Pashto,2,1272.462036,33.2797,69.8214,KST,TNI,Shah Mard Kalay,2606,Tani,???,Khost,????,26
23055,23056,Yale POP_MASTER,TNI-076,,0,KST-TNI-076,47,Pashto,2,1428.465942,33.228,69.7631,KST,TNI,Mir Khatam Kalay,2606,Tani,???,Khost,????,26
23056,23057,Yale POP_MASTER,TNI-131,,0,KST-TNI-131,861,Pashto,2,1740.7760010000002,33.1637,69.7525,KST,TNI,Zenda Khail,2606,Tani,???,Khost,????,26
23057,23058,Yale POP_MASTER,TNI-071,,0,KST-TNI-071,18,Pashto,2,1391.06897,33.2273,69.7822,KST,TNI,Mazar Kalay,2606,Tani,???,Khost,????,26
23058,23059,Yale POP_MASTER,TNI-121,,0,KST-TNI-121,339,Pashto,2,1429.109985,33.233000000000004,69.7569,KST,TNI,Wali Mir Khan,2606,Tani,???,Khost,????,26
23059,23060,Yale POP_MASTER,TNI-097,,0,KST-TNI-097,210,Pashto,2,1630.515015,33.1763,69.7303,KST,TNI,Sangari,2606,Tani,???,Khost,????,26
23060,23061,Yale POP_MASTER,TNI-033,,0,KST-TNI-033,59,Pashto,2,1284.5410160000001,33.2761,69.8133,KST,TNI,Dor Kotaki,2606,Tani,???,Khost,????,26
23061,23062,Yale POP_MASTER,TNI-079,,0,KST-TNI-079,30,Pashto,2,1392.55603,33.2301,69.7796,KST,TNI,Mira Jan Kalay,2606,Tani,???,Khost,????,26
23062,23063,Yale POP_MASTER,TNI-103,,0,KST-TNI-103,378,Pashto,2,1702.8110350000002,33.1657,69.7568,KST,TNI,Shabo Khail,2606,Tani,???,Khost,????,26
23063,23064,Yale POP_MASTER,TNI-064,,0,KST-TNI-064,410,Pashto,2,1460.9060060000002,33.1932,69.8085,KST,TNI,Landai,2606,Tani,???,Khost,????,26
23064,23065,Yale POP_MASTER,TNI-094,,0,KST-TNI-094,217,Pashto,2,1442.319946,33.2166,69.7638,KST,TNI,Saber Gul Kalay,2606,Tani,???,Khost,????,26
23065,23066,Yale POP_MASTER,TNI-054,,0,KST-TNI-054,75,Pashto,2,1375.686035,33.2345,69.7854,KST,TNI,Khan Nazar,2606,Tani,???,Khost,????,26
23066,23067,Yale POP_MASTER,TNI-084,,0,KST-TNI-084,113,Pashto,2,1450.925049,33.2009,69.7827,KST,TNI,Mussa Khan Kalay,2606,Tani,???,Khost,????,26
23067,23068,Yale POP_MASTER,TNI-101,,0,KST-TNI-101,564,Pashto,2,2222.677002,33.1087,69.7016,KST,TNI,Saze,2606,Tani,???,Khost,????,26
23068,23069,Yale POP_MASTER,TNI-087,,0,KST-TNI-087,1502,Pashto,2,1809.036011,33.1547,69.7038,KST,TNI,Nareza,2606,Tani,???,Khost,????,26
23069,23070,Yale POP_MASTER,TNI-124,,0,KST-TNI-124,57,Pashto,2,1434.7810060000002,33.2042,69.7865,KST,TNI,Wazir Kott,2606,Tani,???,Khost,????,26
23070,23071,Yale POP_MASTER,TNI-088,,0,KST-TNI-088,2042,Pashto,2,1853.630005,33.1491,69.70100000000001,KST,TNI,Nareza Kaido Khail,2606,Tani,???,Khost,????,26
23071,23072,Yale POP_MASTER,TNI-028,,0,KST-TNI-028,108,Pashto,2,1391.2290039999998,33.2159,69.7944,KST,TNI,Baran Kotaki,2606,Tani,???,Khost,????,26
23072,23073,USAID AIDVillageView,TNI-009,,0,KST-TNI-009,0,Pashto,2,1360.118042,33.2617,69.7659,KST,TNI,Laghari,2606,Tani,???,Khost,????,26
23073,23074,USAID AIDVillageView,MZI-014,,0,KST-MZI-014,0,Pashto,2,1234.285034,33.3319,69.8402,KST,MZI,Melani,2605,Mandozayi,????????,Khost,????,26
23074,23075,CSO AIMS Villages (ACSOR),MZI-025,,0,KST-MZI-025,1156,Pashto,2,1244.016968,33.32486,69.83221999999999,KST,MZI,Maqbel (2),2605,Mandozayi,????????,Khost,????,26
23075,23076,CSO AIMS Villages (ACSOR),NSK-044,,0,KST-NSK-044,1040,Pashto,2,1368.041992,33.347359999999995,69.74266,KST,NSK,Malangan,2604,Nadirshahkot,??????? ???,Khost,????,26
23076,23077,CSO AIMS Villages (ACSOR),TNI-136,,0,KST-TNI-136,331,Pashto,2,1299.280029,33.277359999999994,69.8001,KST,TNI,Hatam Kalay,2606,Tani,???,Khost,????,26
23077,23078,USAID AIDVillageView,TNI-014,,0,KST-TNI-014,0,Pashto,2,1378.3790279999998,33.2555,69.7607,KST,TNI,Migi Kala,2606,Tani,???,Khost,????,26
23078,23079,USAID AIDVillageView,TNI-008,,0,KST-TNI-008,0,Pashto,2,1295.18396,33.2753,69.805,KST,TNI,Khatam Kala,2606,Tani,???,Khost,????,26
23079,23080,USAID AIDVillageView,TNI-006,,0,KST-TNI-006,0,Pashto,2,1314.8959960000002,33.2718,69.7879,KST,TNI,Esma'alkhel,2606,Tani,???,Khost,????,26
23080,23081,USAID AIDVillageView,MZI-003,,0,KST-MZI-003,0,Pashto,2,1236.1660160000001,33.3002,69.8362,KST,MZI,Arsana,2605,Mandozayi,????????,Khost,????,26
23081,23082,USAID AIDVillageView,MZI-006,,0,KST-MZI-006,0,Pashto,2,1274.077026,33.312,69.808,KST,MZI,Dadwal,2605,Mandozayi,????????,Khost,????,26
23082,23083,USAID AIDVillageView,MZI-008,,0,KST-MZI-008,0,Pashto,2,1307.4610599999999,33.318000000000005,69.7739,KST,MZI,Darkotae,2605,Mandozayi,????????,Khost,????,26
23083,23084,USAID AIDVillageView,MZI-013,,0,KST-MZI-013,0,Pashto,2,1243.098999,33.3052,69.8348,KST,MZI,Mangar Lar,2605,Mandozayi,????????,Khost,????,26
23084,23085,USAID AIDVillageView,MZI-020,,0,KST-MZI-020,0,Pashto,2,1344.953979,33.3125,69.7439,KST,MZI,Sunjay,2605,Mandozayi,????????,Khost,????,26
23085,23086,CSO AIMS Villages (ACSOR),MZI-022,,0,KST-MZI-022,96,Pashto,2,1258.897949,33.29169,69.82106999999999,KST,MZI,Lalmi Kalay (1),2605,Mandozayi,????????,Khost,????,26
23086,23087,CSO AIMS Villages (ACSOR),MZI-023,,0,KST-MZI-023,399,Pashto,2,1270.875977,33.33858,69.81522,KST,MZI,Lalmi Kalay (2),2605,Mandozayi,????????,Khost,????,26
23087,23088,CSO AIMS Villages (ACSOR),MZI-024,,0,KST-MZI-024,807,Pashto,2,1341.552002,33.3163,69.74129,KST,MZI,Maqbel (1),2605,Mandozayi,????????,Khost,????,26
23088,23089,CSO AIMS Villages (ACSOR),MZI-027,,0,KST-MZI-027,466,Pashto,2,1294.29895,33.34485,69.80216,KST,MZI,Saro Kalay (2),2605,Mandozayi,????????,Khost,????,26
23089,23090,Yale POP_MASTER,TNI-105,,0,KST-TNI-105,809,Pashto,2,1401.698975,33.2453,69.7566,KST,TNI,Shahbaz,2606,Tani,???,Khost,????,26
23090,23091,Yale POP_MASTER,TNI-049,,0,KST-TNI-049,1117,Pashto,2,1443.052002,33.2374,69.7433,KST,TNI,Hesarak Kotaki,2606,Tani,???,Khost,????,26
23091,23092,Yale POP_MASTER,KHS-145,,0,KST-KHS-145,818,Pashto,2,1270.338013,33.3566,69.8434,KST,KHS,Sarbani,2601,Khost(Matun),( ????(????,Khost,????,26
23092,23093,Yale POP_MASTER,MZI-028,,0,KST-MZI-028,526,Pashto,2,1221.63501,33.3066,69.8509,KST,MZI,Abdul Karim Peran,2605,Mandozayi,????????,Khost,????,26
23093,23094,Yale POP_MASTER,MZI-030,,0,KST-MZI-030,1391,Pashto,2,1227.862061,33.313,69.8416,KST,MZI,Ar Khail,2605,Mandozayi,????????,Khost,????,26
23094,23095,Yale POP_MASTER,MZI-033,,0,KST-MZI-033,464,Pashto,2,1230.1519779999999,33.2988,69.8422,KST,MZI,Bakhmali,2605,Mandozayi,????????,Khost,????,26
23095,23096,Yale POP_MASTER,MZI-036,,0,KST-MZI-036,557,Pashto,2,1254.454956,33.3396,69.8295,KST,MZI,Bate Lalmi,2605,Mandozayi,????????,Khost,????,26
23096,23097,Yale POP_MASTER,MZI-047,,0,KST-MZI-047,1527,Pashto,2,1232.078979,33.328,69.8437,KST,MZI,Dosaraka Melan,2605,Mandozayi,????????,Khost,????,26
23097,23098,Yale POP_MASTER,MZI-051,,0,KST-MZI-051,1408,Pashto,2,1231.23999,33.3379,69.8468,KST,MZI,Khair Abad,2605,Mandozayi,????????,Khost,????,26
23098,23099,Yale POP_MASTER,MZI-054,,0,KST-MZI-054,808,Pashto,2,1225.833008,33.3131,69.846,KST,MZI,Kochar Khail,2605,Mandozayi,????????,Khost,????,26
23099,23100,Yale POP_MASTER,MZI-060,,0,KST-MZI-060,783,Pashto,2,1229.661011,33.3199,69.8411,KST,MZI,Melani Kalay,2605,Mandozayi,????????,Khost,????,26
23100,23101,Yale POP_MASTER,MZI-062,,0,KST-MZI-062,1102,Pashto,2,1266.713989,33.3456,69.8256,KST,MZI,Moge,2605,Mandozayi,????????,Khost,????,26
23101,23102,Yale POP_MASTER,MZI-072,,0,KST-MZI-072,560,Pashto,2,1230.036987,33.3048,69.8431,KST,MZI,Sar Baran Khail,2605,Mandozayi,????????,Khost,????,26
23102,23103,Yale POP_MASTER,NSK-011,,0,KST-NSK-011,234,Pashto,2,1433.5860599999999,33.406,69.8034,KST,NSK,Badail,2604,Nadirshahkot,??????? ???,Khost,????,26
23103,23104,Yale POP_MASTER,KHS-119,,0,KST-KHS-119,633,Pashto,2,1329.4530029999999,33.3647,69.8028,KST,KHS,Now Abad Warzi,2601,Khost(Matun),( ????(????,Khost,????,26
23104,23105,Yale POP_MASTER,NSK-036,,0,KST-NSK-036,2741,Pashto,2,1426.084961,33.3742,69.7607,KST,NSK,Sowi,2604,Nadirshahkot,??????? ???,Khost,????,26
23105,23106,Yale POP_MASTER,NSK-030,,0,KST-NSK-030,749,Pashto,2,1394.892944,33.3665,69.7601,KST,NSK,Sar Mushkay,2604,Nadirshahkot,??????? ???,Khost,????,26
23106,23107,Yale POP_MASTER,NSK-020,,0,KST-NSK-020,1413,Pashto,2,1374.012939,33.3553,69.7606,KST,NSK,Khowja Rahim,2604,Nadirshahkot,??????? ???,Khost,????,26
23107,23108,Yale POP_MASTER,NSK-021,,0,KST-NSK-021,1477,Pashto,2,1403.2110599999999,33.3588,69.73899999999999,KST,NSK,Latka,2604,Nadirshahkot,??????? ???,Khost,????,26
23108,23109,Yale POP_MASTER,NSK-032,,0,KST-NSK-032,1436,Pashto,2,1445.920044,33.3705,69.7396,KST,NSK,Sham Bawat,2604,Nadirshahkot,??????? ???,Khost,????,26
23109,23110,Yale POP_MASTER,NSK-013,,0,KST-NSK-013,842,Pashto,2,1679.187988,33.4176,69.7519,KST,NSK,Dagha Kalay,2604,Nadirshahkot,??????? ???,Khost,????,26
23110,23111,Yale POP_MASTER,NSK-031,,0,KST-NSK-031,349,Pashto,2,1443.97998,33.3778,69.759,KST,NSK,Shah Azfar,2604,Nadirshahkot,??????? ???,Khost,????,26
23111,23112,Yale POP_MASTER,NSK-034,,0,KST-NSK-034,385,Pashto,2,1588.717041,33.4239,69.7907,KST,NSK,Shel Gara,2604,Nadirshahkot,??????? ???,Khost,????,26
23112,23113,Yale POP_MASTER,NSK-042,,0,KST-NSK-042,1346,Pashto,2,1429.390015,33.381,69.7719,KST,NSK,Wam Meka,2604,Nadirshahkot,??????? ???,Khost,????,26
23113,23114,Yale POP_MASTER,KHS-166,,0,KST-KHS-166,3032,Pashto,2,1340.6290279999998,33.3628,69.7924,KST,KHS,Warzi,2601,Khost(Matun),( ????(????,Khost,????,26
23114,23115,Yale POP_MASTER,TNI-045,,0,KST-TNI-045,173,Pashto,2,1333.32605,33.2636,69.7849,KST,TNI,Hajim Khan Kalay,2606,Tani,???,Khost,????,26
23115,23116,Yale POP_MASTER,TNI-060,,0,KST-TNI-060,1996,Pashto,2,1440.014038,33.2561,69.7348,KST,TNI,Laghar Peran,2606,Tani,???,Khost,????,26
23116,23117,Yale POP_MASTER,TNI-050,,0,KST-TNI-050,105,Pashto,2,1306.2540279999998,33.2723,69.798,KST,TNI,Ibrahim Kalay,2606,Tani,???,Khost,????,26
23117,23118,Yale POP_MASTER,TNI-072,,0,KST-TNI-072,435,Pashto,2,1372.405029,33.2515,69.76899999999999,KST,TNI,Megi Kala,2606,Tani,???,Khost,????,26
23118,23119,Yale POP_MASTER,TNI-095,,0,KST-TNI-095,237,Pashto,2,1362.797974,33.2655,69.7585,KST,TNI,Sallay Kalay,2606,Tani,???,Khost,????,26
23119,23120,Yale POP_MASTER,MZI-029,,0,KST-MZI-029,1198,Pashto,2,1260.723999,33.3171,69.8166,KST,MZI,Ali Wat,2605,Mandozayi,????????,Khost,????,26
23120,23121,Yale POP_MASTER,MZI-031,,0,KST-MZI-031,710,Pashto,2,1238.855957,33.3149,69.834,KST,MZI,Athar Khail,2605,Mandozayi,????????,Khost,????,26
23121,23122,Yale POP_MASTER,MZI-032,,0,KST-MZI-032,799,Pashto,2,1272.005981,33.3078,69.8114,KST,MZI,Bahi Kalay,2605,Mandozayi,????????,Khost,????,26
23122,23123,Yale POP_MASTER,MZI-034,,0,KST-MZI-034,1530,Pashto,2,1252.650024,33.3066,69.8279,KST,MZI,Baran Khail,2605,Mandozayi,????????,Khost,????,26
23123,23124,Yale POP_MASTER,MZI-035,,0,KST-MZI-035,2689,Pashto,2,1291.619995,33.2962,69.7864,KST,MZI,Barkhan Khail,2605,Mandozayi,????????,Khost,????,26
23124,23125,Yale POP_MASTER,MZI-038,,0,KST-MZI-038,595,Pashto,2,1293.140991,33.3148,69.7853,KST,MZI,Chandar Khail,2605,Mandozayi,????????,Khost,????,26
23125,23126,Yale POP_MASTER,MZI-040,,0,KST-MZI-040,2029,Pashto,2,1356.494019,33.2991,69.7365,KST,MZI,Dailpuri,2605,Mandozayi,????????,Khost,????,26
23126,23127,Yale POP_MASTER,MZI-041,,0,KST-MZI-041,737,Pashto,2,1303.359985,33.3157,69.7785,KST,MZI,Dakano Kalay,2605,Mandozayi,????????,Khost,????,26
23127,23128,Yale POP_MASTER,MZI-043,,0,KST-MZI-043,1509,Pashto,2,1337.2810060000002,33.3116,69.749,KST,MZI,Dar Nami,2605,Mandozayi,????????,Khost,????,26
23128,23129,Yale POP_MASTER,MZI-045,,0,KST-MZI-045,1342,Pashto,2,1281.786011,33.3075,69.7983,KST,MZI,Darwal Kalay,2605,Mandozayi,????????,Khost,????,26
23129,23130,Yale POP_MASTER,MZI-046,,0,KST-MZI-046,1092,Pashto,2,1287.208008,33.3089,69.7922,KST,MZI,Dawol Kalay,2605,Mandozayi,????????,Khost,????,26
23130,23131,Yale POP_MASTER,MZI-048,,0,KST-MZI-048,651,Pashto,2,1345.010986,33.2956,69.7452,KST,MZI,Gedar,2605,Mandozayi,????????,Khost,????,26
23131,23132,Yale POP_MASTER,MZI-050,,0,KST-MZI-050,331,Pashto,2,1299.280029,33.2774,69.8001,KST,MZI,Hatam Kalay,2605,Mandozayi,????????,Khost,????,26
23132,23133,Yale POP_MASTER,MZI-052,,0,KST-MZI-052,1070,Pashto,2,1323.0389400000001,33.3131,69.76,KST,MZI,Khan Kala,2605,Mandozayi,????????,Khost,????,26
23133,23134,Yale POP_MASTER,MZI-053,,0,KST-MZI-053,293,Pashto,2,1314.418945,33.3145,69.77,KST,MZI,Khani Khail,2605,Mandozayi,????????,Khost,????,26
23134,23135,Yale POP_MASTER,MZI-056,,0,KST-MZI-056,833,Pashto,2,1294.126953,33.3559,69.8177,KST,MZI,Mangal Kalay (1),2605,Mandozayi,????????,Khost,????,26
23135,23136,Yale POP_MASTER,MZI-057,,0,KST-MZI-057,404,Pashto,2,1253.475952,33.2985,69.8194,KST,MZI,Mangar Kalay (2),2605,Mandozayi,????????,Khost,????,26
23136,23137,Yale POP_MASTER,MZI-058,,0,KST-MZI-058,173,Pashto,2,1331.140015,33.319,69.7477,KST,MZI,Mari Khail,2605,Mandozayi,????????,Khost,????,26
23137,23138,Yale POP_MASTER,MZI-059,,0,KST-MZI-059,1333,Pashto,2,1324.874023,33.2995,69.7667,KST,MZI,Mata Khan Ya Maste Khan,2605,Mandozayi,????????,Khost,????,26
23138,23139,Yale POP_MASTER,MZI-063,,0,KST-MZI-063,1949,Pashto,2,1270.20105,33.3181,69.8087,KST,MZI,Mohammad Hassan,2605,Mandozayi,????????,Khost,????,26
23139,23140,Yale POP_MASTER,MZI-064,,0,KST-MZI-064,376,Pashto,2,1272.077026,33.3054,69.8082,KST,MZI,Mori Khail,2605,Mandozayi,????????,Khost,????,26
23140,23141,Yale POP_MASTER,MZI-065,,0,KST-MZI-065,272,Pashto,2,1355.774048,33.3005,69.7419,KST,MZI,Morki Khail,2605,Mandozayi,????????,Khost,????,26
23141,23142,Yale POP_MASTER,MZI-066,,0,KST-MZI-066,598,Pashto,2,1279.35498,33.3089,69.8074,KST,MZI,Nakher Khail,2605,Mandozayi,????????,Khost,????,26
23142,23143,Yale POP_MASTER,MZI-067,,0,KST-MZI-067,519,Pashto,2,1289.93396,33.317,69.7884,KST,MZI,Payenda Khail,2605,Mandozayi,????????,Khost,????,26
23143,23144,Yale POP_MASTER,MZI-069,,0,KST-MZI-069,1196,Pashto,2,1347.3129880000001,33.2996,69.751,KST,MZI,Pera Khail,2605,Mandozayi,????????,Khost,????,26
23144,23145,Yale POP_MASTER,MZI-070,,0,KST-MZI-070,164,Pashto,2,1270.102051,33.2998,69.8041,KST,MZI,Sallahuddin Kalay,2605,Mandozayi,????????,Khost,????,26
23145,23146,Yale POP_MASTER,MZI-071,,0,KST-MZI-071,552,Pashto,2,1251.5209960000002,33.3243,69.8218,KST,MZI,Samawat,2605,Mandozayi,????????,Khost,????,26
23146,23147,Yale POP_MASTER,MZI-073,,0,KST-MZI-073,555,Pashto,2,1284.295044,33.319,69.7972,KST,MZI,Setra Kalay,2605,Mandozayi,????????,Khost,????,26
23147,23148,Yale POP_MASTER,MZI-075,,0,KST-MZI-075,1647,Pashto,2,1313.1369630000002,33.3004,69.7754,KST,MZI,Shami Khail,2605,Mandozayi,????????,Khost,????,26
23148,23149,Yale POP_MASTER,MZI-076,,0,KST-MZI-076,941,Pashto,2,1245.161987,33.3208,69.8273,KST,MZI,Soni Sorkh,2605,Mandozayi,????????,Khost,????,26
23149,23150,Yale POP_MASTER,MZI-077,,0,KST-MZI-077,392,Pashto,2,1250.7230220000001,33.3178,69.8241,KST,MZI,Wadam Kalay Ya Karam Kalay,2605,Mandozayi,????????,Khost,????,26
23150,23151,Yale POP_MASTER,MZI-078,,0,KST-MZI-078,156,Pashto,2,1294.232056,33.3053,69.7865,KST,MZI,Wate Kalay,2605,Mandozayi,????????,Khost,????,26
23151,23152,Yale POP_MASTER,MZI-080,,0,KST-MZI-080,254,Pashto,2,1309.7719730000001,33.3201,69.7667,KST,MZI,Zhor Khail,2605,Mandozayi,????????,Khost,????,26
23152,23153,Yale POP_MASTER,MZI-082,District,1,KST-MZI-082,2257,Pashto,2,1290.19104,33.3069,69.7887,KST,MZI,Mando Zayi,2605,Mandozayi,????????,Khost,????,26
23153,23154,USAID AIDVillageView,NSK-001,,0,KST-NSK-001,0,Pashto,2,1393.777954,33.3048,69.6942,KST,NSK,Belandwakil,2604,Nadirshahkot,??????? ???,Khost,????,26
23154,23155,USAID AIDVillageView,NSK-002,,0,KST-NSK-002,0,Pashto,2,1427.36499,33.3082,69.6732,KST,NSK,Haji'alamkhan,2604,Nadirshahkot,??????? ???,Khost,????,26
23155,23156,USAID AIDVillageView,NSK-007,,0,KST-NSK-007,0,Pashto,2,1421.936035,33.3061,69.6692,KST,NSK,Sunjalay,2604,Nadirshahkot,??????? ???,Khost,????,26
23156,23157,USAID AIDVillageView,NSK-008,,0,KST-NSK-008,0,Pashto,2,1488.803955,33.2991,69.6262,KST,NSK,Wonyazay,2604,Nadirshahkot,??????? ???,Khost,????,26
23157,23158,CSO AIMS Villages (ACSOR),NSK-046,,0,KST-NSK-046,916,Pashto,2,1396.94397,33.300670000000004,69.69529,KST,NSK,Nawi Kott,2604,Nadirshahkot,??????? ???,Khost,????,26
23158,23159,CSO AIMS Villages (ACSOR),NSK-045,,0,KST-NSK-045,176,Pashto,2,1523.918945,33.38098,69.72601999999999,KST,NSK,Nasokay,2604,Nadirshahkot,??????? ???,Khost,????,26
23159,23160,USAID AIDVillageView,MZI-004,,0,KST-MZI-004,0,Pashto,2,1362.86499,33.3021,69.7296,KST,MZI,Bar Boshay,2605,Mandozayi,????????,Khost,????,26
23160,23161,CSO AIMS Villages (ACSOR),MZI-026,,0,KST-MZI-026,228,Pashto,2,1368.442017,33.32375,69.7263,KST,MZI,Saro Kalay (1),2605,Mandozayi,????????,Khost,????,26
23161,23162,Yale POP_MASTER,TNI-023,,0,KST-TNI-023,111,Pashto,2,1920.692017,33.188,69.654,KST,TNI,Arian Kala,2606,Tani,???,Khost,????,26
23162,23163,Yale POP_MASTER,TNI-108,,0,KST-TNI-108,200,Pashto,2,1753.962036,33.1562,69.6755,KST,TNI,Shamsi Khail,2606,Tani,???,Khost,????,26
23163,23164,Yale POP_MASTER,TNI-056,,0,KST-TNI-056,716,Pashto,2,1696.156982,33.2206,69.6916,KST,TNI,Khandake,2606,Tani,???,Khost,????,26
23164,23165,Yale POP_MASTER,TNI-046,,0,KST-TNI-046,349,Pashto,2,1811.312012,33.1554,69.6962,KST,TNI,Halam Khail,2606,Tani,???,Khost,????,26
23165,23166,Yale POP_MASTER,TNI-123,,0,KST-TNI-123,530,Pashto,2,1656.649048,33.1815,69.7012,KST,TNI,Warghar,2606,Tani,???,Khost,????,26
23166,23167,Yale POP_MASTER,TNI-093,,0,KST-TNI-093,908,Pashto,2,1603.411011,33.1926,69.7058,KST,TNI,Roshan Khail,2606,Tani,???,Khost,????,26
23167,23168,Yale POP_MASTER,TNI-111,,0,KST-TNI-111,1121,Pashto,2,1755.7709960000002,33.1577,69.6888,KST,TNI,Sor Kott,2606,Tani,???,Khost,????,26
23168,23169,Yale POP_MASTER,TNI-080,,0,KST-TNI-080,417,Pashto,2,1623.220947,33.1848,69.70100000000001,KST,TNI,Mirzage,2606,Tani,???,Khost,????,26
23169,23170,Yale POP_MASTER,TNI-069,,0,KST-TNI-069,258,Pashto,2,1735.984985,33.1892,69.6764,KST,TNI,Matak,2606,Tani,???,Khost,????,26
23170,23171,Yale POP_MASTER,TNI-118,,0,KST-TNI-118,1892,Pashto,2,1551.918945,33.2017,69.7219,KST,TNI,Tour Khail Kotaki,2606,Tani,???,Khost,????,26
23171,23172,Yale POP_MASTER,NSK-026,,0,KST-NSK-026,1764,Pashto,2,1597.5209960000002,33.3357,69.6738,KST,NSK,Mushken,2604,Nadirshahkot,??????? ???,Khost,????,26
23172,23173,Yale POP_MASTER,NSK-027,,0,KST-NSK-027,778,Pashto,2,1447.442993,33.3001,69.6614,KST,NSK,Pake,2604,Nadirshahkot,??????? ???,Khost,????,26
23173,23174,Yale POP_MASTER,NSK-043,District,1,KST-NSK-043,8900,Pashto,2,1419.60498,33.3112,69.6848,KST,NSK,Nadir Shah Kot,2604,Nadirshahkot,??????? ???,Khost,????,26
23174,23175,Yale POP_MASTER,NSK-023,,0,KST-NSK-023,2857,Pashto,2,1452.5939939999998,33.2983,69.6386,KST,NSK,Lumra,2604,Nadirshahkot,??????? ???,Khost,????,26
23175,23176,Yale POP_MASTER,NSK-018,,0,KST-NSK-018,913,Pashto,2,1512.5629880000001,33.2905,69.6241,KST,NSK,Kekha,2604,Nadirshahkot,??????? ???,Khost,????,26
23176,23177,Yale POP_MASTER,NSK-022,,0,KST-NSK-022,1082,Pashto,2,1453.255005,33.2991,69.6687,KST,NSK,Lowara,2604,Nadirshahkot,??????? ???,Khost,????,26
23177,23178,Yale POP_MASTER,NSK-038,,0,KST-NSK-038,431,Pashto,2,1547.3220210000002,33.3607,69.6905,KST,NSK,Spen Koram,2604,Nadirshahkot,??????? ???,Khost,????,26
23178,23179,Yale POP_MASTER,NSK-017,,0,KST-NSK-017,1643,Pashto,2,1406.3320310000001,33.3068,69.6852,KST,NSK,Kapri Nader Shah Kott,2604,Nadirshahkot,??????? ???,Khost,????,26
23179,23180,Yale POP_MASTER,NSK-010,,0,KST-NSK-010,301,Pashto,2,1461.125977,33.2945,69.6793,KST,NSK,Babrak Khan,2604,Nadirshahkot,??????? ???,Khost,????,26
23180,23181,Yale POP_MASTER,NSK-028,,0,KST-NSK-028,846,Pashto,2,1523.557007,33.384,69.7185,KST,NSK,Palo See,2604,Nadirshahkot,??????? ???,Khost,????,26
23181,23182,Yale POP_MASTER,NSK-015,,0,KST-NSK-015,408,Pashto,2,1471.410034,33.3781,69.7351,KST,NSK,Ghondaye,2604,Nadirshahkot,??????? ???,Khost,????,26
23182,23183,Yale POP_MASTER,NSK-009,,0,KST-NSK-009,74,Pashto,2,1552.801025,33.3896,69.707,KST,NSK,Arian Kott,2604,Nadirshahkot,??????? ???,Khost,????,26
23183,23184,Yale POP_MASTER,NSK-016,,0,KST-NSK-016,350,Pashto,2,1643.256958,33.3862,69.71,KST,NSK,Golowar Ka,2604,Nadirshahkot,??????? ???,Khost,????,26
23184,23185,Yale POP_MASTER,NSK-014,,0,KST-NSK-014,854,Pashto,2,1597.958008,33.3919,69.6945,KST,NSK,Gani,2604,Nadirshahkot,??????? ???,Khost,????,26
23185,23186,Yale POP_MASTER,TNI-025,,0,KST-TNI-025,326,Pashto,2,1689.572998,33.174,69.6968,KST,TNI,Atmanzai,2606,Tani,???,Khost,????,26
23186,23187,Yale POP_MASTER,TNI-089,,0,KST-TNI-089,520,Pashto,2,1820.871948,33.1758,69.6583,KST,TNI,Nowsheya,2606,Tani,???,Khost,????,26
23187,23188,Yale POP_MASTER,TNI-048,,0,KST-TNI-048,1076,Pashto,2,1604.75,33.2337,69.7073,KST,TNI,Hesarak,2606,Tani,???,Khost,????,26
23188,23189,Yale POP_MASTER,TNI-081,,0,KST-TNI-081,108,Pashto,2,1724.7750239999998,33.175,69.6758,KST,TNI,Moch Khail,2606,Tani,???,Khost,????,26
23189,23190,Yale POP_MASTER,TNI-117,,0,KST-TNI-117,1113,Pashto,2,1613.359009,33.1975,69.7063,KST,TNI,Tour Khail,2606,Tani,???,Khost,????,26
23190,23191,Yale POP_MASTER,TNI-041,,0,KST-TNI-041,891,Pashto,2,1528.043945,33.2726,69.6939,KST,TNI,Gosha,2606,Tani,???,Khost,????,26
23191,23192,Yale POP_MASTER,MZI-037,,0,KST-MZI-037,957,Pashto,2,1388.6369630000002,33.3057,69.6973,KST,MZI,Boland Wakail,2605,Mandozayi,????????,Khost,????,26
23192,23193,Yale POP_MASTER,MZI-042,,0,KST-MZI-042,6305,Pashto,2,1382.317993,33.3081,69.7083,KST,MZI,Dakhai,2605,Mandozayi,????????,Khost,????,26
23193,23194,Yale POP_MASTER,MZI-044,,0,KST-MZI-044,471,Pashto,2,1353.3360599999999,33.3093,69.7317,KST,MZI,Daroi Khail,2605,Mandozayi,????????,Khost,????,26
23194,23195,Yale POP_MASTER,MZI-049,,0,KST-MZI-049,998,Pashto,2,1407.338013,33.2945,69.7022,KST,MZI,Gerwara,2605,Mandozayi,????????,Khost,????,26
23195,23196,Yale POP_MASTER,MZI-055,,0,KST-MZI-055,713,Pashto,2,1364.394043,33.3126,69.7257,KST,MZI,Maligi,2605,Mandozayi,????????,Khost,????,26
23196,23197,Yale POP_MASTER,MZI-068,,0,KST-MZI-068,761,Pashto,2,1369.196045,33.2986,69.7195,KST,MZI,Per Kalay,2605,Mandozayi,????????,Khost,????,26
23197,23198,Yale POP_MASTER,MZI-074,,0,KST-MZI-074,780,Pashto,2,1365.781982,33.3069,69.7195,KST,MZI,Shadal,2605,Mandozayi,????????,Khost,????,26
23198,23199,Yale POP_MASTER,MZI-079,,0,KST-MZI-079,781,Pashto,2,1350.527954,33.3109,69.7363,KST,MZI,Zanzaye,2605,Mandozayi,????????,Khost,????,26
23199,23200,Yale POP_MASTER,MZI-081,,0,KST-MZI-081,6201,Pashto,2,1393.4730220000001,33.306999999999995,69.6982,KST,MZI,Kaparay,2605,Mandozayi,????????,Khost,????,26
23200,23201,CSO AIMS Villages (ACSOR),MSK-004,,0,KST-MSK-004,221,Pashto,2,2522.978027,33.56409,69.58926,KST,MSK,Ayoub Khail (1),2603,Musakhel,???? ???,Khost,????,26
23201,23202,USAID AIDVillageView,QLD-002,,0,KST-QLD-002,0,Pashto,2,2184.535889,33.4923,69.6883,KST,QLD,Kot Mana,2609,Qalandar,?????,Khost,????,26
23202,23203,USAID AIDVillageView,QLD-003,,0,KST-QLD-003,0,Pashto,2,2442.485107,33.4746,69.623,KST,QLD,Mandalay,2609,Qalandar,?????,Khost,????,26
23203,23204,USAID AIDVillageView,QLD-005,,0,KST-QLD-005,0,Pashto,2,2481.3701170000004,33.49,69.6374,KST,QLD,Shinkay (1),2609,Qalandar,?????,Khost,????,26
23204,23205,USAID AIDVillageView,QLD-006,,0,KST-QLD-006,0,Pashto,2,2282.217041,33.4694,69.6319,KST,QLD,Shinkay (2),2609,Qalandar,?????,Khost,????,26
23205,23206,Yale POP_MASTER,MSK-019,,0,KST-MSK-019,1661,Pashto,2,2564.489014,33.5589,69.5793,KST,MSK,Ghozhak,2603,Musakhel,???? ???,Khost,????,26
23206,23207,Yale POP_MASTER,MSK-022,,0,KST-MSK-022,705,Pashto,2,2611.626953,33.5463,69.5479,KST,MSK,Kazh Kay,2603,Musakhel,???? ???,Khost,????,26
23207,23208,Yale POP_MASTER,MSK-039,,0,KST-MSK-039,608,Pashto,2,2491.037109,33.5785,69.607,KST,MSK,Mana Kohl,2603,Musakhel,???? ???,Khost,????,26
23208,23209,Yale POP_MASTER,MSK-065,,0,KST-MSK-065,350,Pashto,2,2517.091064,33.5747,69.6031,KST,MSK,Tamkay,2603,Musakhel,???? ???,Khost,????,26
23209,23210,Yale POP_MASTER,MSK-069,,0,KST-MSK-069,529,Pashto,2,2717.49707,33.5408,69.5263,KST,MSK,Wach Pairay,2603,Musakhel,???? ???,Khost,????,26
23210,23211,Yale POP_MASTER,MSK-072,,0,KST-MSK-072,474,Pashto,2,2437.633057,33.5825,69.6169,KST,MSK,Woch Kari,2603,Musakhel,???? ???,Khost,????,26
23211,23212,Yale POP_MASTER,MSK-076,,0,KST-MSK-076,451,Pashto,2,2583.649902,33.5545,69.5651,KST,MSK,Zera,2603,Musakhel,???? ???,Khost,????,26
23212,23213,Yale POP_MASTER,QLD-007,,0,KST-QLD-007,494,Pashto,2,2089.13501,33.5199,69.6673,KST,QLD,Aliga,2609,Qalandar,?????,Khost,????,26
23213,23214,Yale POP_MASTER,QLD-008,,0,KST-QLD-008,199,Pashto,2,2117.695068,33.5229,69.6619,KST,QLD,Aseman Kott,2609,Qalandar,?????,Khost,????,26
23214,23215,Yale POP_MASTER,QLD-010,,0,KST-QLD-010,173,Pashto,2,2331.729004,33.4815,69.643,KST,QLD,Darweshe,2609,Qalandar,?????,Khost,????,26
23215,23216,Yale POP_MASTER,QLD-011,,0,KST-QLD-011,2001,Pashto,2,2356.169922,33.4664,69.6168,KST,QLD,Dowa Mandi,2609,Qalandar,?????,Khost,????,26
23216,23217,Yale POP_MASTER,QLD-012,,0,KST-QLD-012,34,Pashto,2,2202.339111,33.4722,69.655,KST,QLD,Gasne,2609,Qalandar,?????,Khost,????,26
23217,23218,Yale POP_MASTER,QLD-013,,0,KST-QLD-013,19,Pashto,2,2225.825928,33.4659,69.6387,KST,QLD,Hai Khail,2609,Qalandar,?????,Khost,????,26
23218,23219,Yale POP_MASTER,QLD-014,,0,KST-QLD-014,1266,Pashto,2,2432.787109,33.4868,69.6315,KST,QLD,Kamran,2609,Qalandar,?????,Khost,????,26
23219,23220,Yale POP_MASTER,QLD-017,,0,KST-QLD-017,916,Pashto,2,2025.439941,33.5037,69.6881,KST,QLD,Khost Mela,2609,Qalandar,?????,Khost,????,26
23220,23221,Yale POP_MASTER,QLD-018,,0,KST-QLD-018,341,Pashto,2,2196.4370120000003,33.4693,69.6535,KST,QLD,Kotaki,2609,Qalandar,?????,Khost,????,26
23221,23222,Yale POP_MASTER,QLD-019,,0,KST-QLD-019,1003,Pashto,2,2039.6700440000002,33.5123,69.6746,KST,QLD,Landara,2609,Qalandar,?????,Khost,????,26
23222,23223,Yale POP_MASTER,QLD-020,,0,KST-QLD-020,628,Pashto,2,1971.1390379999998,33.4674,69.6942,KST,QLD,Landi,2609,Qalandar,?????,Khost,????,26
23223,23224,Yale POP_MASTER,QLD-022,,0,KST-QLD-022,647,Pashto,2,2390.594971,33.5356,69.6308,KST,QLD,Mal,2609,Qalandar,?????,Khost,????,26
23224,23225,Yale POP_MASTER,QLD-023,,0,KST-QLD-023,225,Pashto,2,2046.0340579999997,33.4657,69.6886,KST,QLD,Mana,2609,Qalandar,?????,Khost,????,26
23225,23226,Yale POP_MASTER,QLD-024,,0,KST-QLD-024,64,Pashto,2,2121.592041,33.4675,69.6642,KST,QLD,Mani Khail,2609,Qalandar,?????,Khost,????,26
23226,23227,Yale POP_MASTER,QLD-026,,0,KST-QLD-026,115,Pashto,2,2373.574951,33.5377,69.6379,KST,QLD,Marze,2609,Qalandar,?????,Khost,????,26
23227,23228,Yale POP_MASTER,QLD-028,,0,KST-QLD-028,160,Pashto,2,2419.715088,33.4769,69.6424,KST,QLD,Panga,2609,Qalandar,?????,Khost,????,26
23228,23229,Yale POP_MASTER,QLD-029,,0,KST-QLD-029,1125,Pashto,2,2489.888916,33.5358,69.6086,KST,QLD,Sharifi,2609,Qalandar,?????,Khost,????,26
23229,23230,Yale POP_MASTER,QLD-030,,0,KST-QLD-030,332,Pashto,2,2414.2810059999997,33.4831,69.6385,KST,QLD,Shenkai,2609,Qalandar,?????,Khost,????,26
23230,23231,Yale POP_MASTER,QLD-031,,0,KST-QLD-031,241,Pashto,2,2308.220947,33.4665,69.6302,KST,QLD,Speargai,2609,Qalandar,?????,Khost,????,26
23231,23232,Yale POP_MASTER,QLD-032,,0,KST-QLD-032,1038,Pashto,2,2317.707031,33.4705,69.6214,KST,QLD,Spenkay,2609,Qalandar,?????,Khost,????,26
23232,23233,Yale POP_MASTER,QLD-033,,0,KST-QLD-033,1339,Pashto,2,2073.862061,33.4636,69.6711,KST,QLD,Ster Kot,2609,Qalandar,?????,Khost,????,26
23233,23234,Yale POP_MASTER,QLD-034,,0,KST-QLD-034,889,Pashto,2,2368.965088,33.525999999999996,69.6241,KST,QLD,Tande,2609,Qalandar,?????,Khost,????,26
23234,23235,Yale POP_MASTER,QLD-037,,0,KST-QLD-037,114,Pashto,2,2140.364014,33.4648,69.6605,KST,QLD,Waragha,2609,Qalandar,?????,Khost,????,26
23235,23236,Yale POP_MASTER,QLD-038,,0,KST-QLD-038,337,Pashto,2,2402.14209,33.4692,69.6185,KST,QLD,Zange,2609,Qalandar,?????,Khost,????,26
23236,23237,Yale POP_MASTER,QLD-039,,0,KST-QLD-039,7599,Pashto,2,1992.100952,33.5023,69.6883,KST,QLD,Khost Mela,2609,Qalandar,?????,Khost,????,26
23237,23238,Yale POP_MASTER,QLD-040,District,1,KST-QLD-040,1668,Pashto,2,2227.481934,33.4668,69.645,KST,QLD,Qalandar,2609,Qalandar,?????,Khost,????,26
23238,23239,Yale POP_MASTER,NSK-019,,0,KST-NSK-019,267,Pashto,2,1798.7979739999998,33.4076,69.6453,KST,NSK,Khar Spano Khola,2604,Nadirshahkot,??????? ???,Khost,????,26
23239,23240,Yale POP_MASTER,NSK-040,,0,KST-NSK-040,173,Pashto,2,2326.043945,33.429,69.5877,KST,NSK,Ter Zowa,2604,Nadirshahkot,??????? ???,Khost,????,26
23240,23241,Yale POP_MASTER,NSK-012,,0,KST-NSK-012,521,Pashto,2,1945.3139649999998,33.4187,69.6248,KST,NSK,Bagh Kalay,2604,Nadirshahkot,??????? ???,Khost,????,26
23241,23242,Yale POP_MASTER,NSK-041,,0,KST-NSK-041,138,Pashto,2,2035.30603,33.4314,69.6164,KST,NSK,Wali Manda,2604,Nadirshahkot,??????? ???,Khost,????,26
23242,23243,Yale POP_MASTER,NSK-037,,0,KST-NSK-037,1538,Pashto,2,2010.7049559999998,33.4023,69.62,KST,NSK,Speen Kan,2604,Nadirshahkot,??????? ???,Khost,????,26
23243,23244,Yale POP_MASTER,NSK-039,,0,KST-NSK-039,339,Pashto,2,2074.493896,33.4267,69.6067,KST,NSK,Tambeka,2604,Nadirshahkot,??????? ???,Khost,????,26
23244,23245,Yale POP_MASTER,NSK-024,,0,KST-NSK-024,330,Pashto,2,2189.440918,33.4397,69.6043,KST,NSK,Manzak,2604,Nadirshahkot,??????? ???,Khost,????,26
23245,23246,Yale POP_MASTER,NSK-025,,0,KST-NSK-025,719,Pashto,2,1761.972046,33.3978,69.6772,KST,NSK,Mir Gori,2604,Nadirshahkot,??????? ???,Khost,????,26
23246,23247,Yale POP_MASTER,NSK-035,,0,KST-NSK-035,383,Pashto,2,1651.06897,33.3978,69.6869,KST,NSK,Solomri,2604,Nadirshahkot,??????? ???,Khost,????,26
23247,23248,Yale POP_MASTER,NSK-029,,0,KST-NSK-029,874,Pashto,2,1740.869995,33.4008,69.6628,KST,NSK,Saper Kay,2604,Nadirshahkot,??????? ???,Khost,????,26
23248,23249,USAID AIDVillageView,SBR-001,,0,KST-SBR-001,0,Pashto,2,1485.6209720000002,33.5585,69.8409,KST,SBR,Balkhel,2602,Sabari,????,Khost,????,26
23250,23251,Yale POP_MASTER,MSK-007,,0,KST-MSK-007,184,Pashto,2,1463.505005,33.4497,69.8374,KST,MSK,Ayoub Gharang,2603,Musakhel,???? ???,Khost,????,26
23251,23252,Yale POP_MASTER,SBR-007,,0,KST-SBR-007,2769,Pashto,2,1272.6040039999998,33.5285,69.8891,KST,SBR,Abo Khail,2602,Sabari,????,Khost,????,26
23252,23253,Yale POP_MASTER,SBR-008,,0,KST-SBR-008,789,Pashto,2,1725.4980469999998,33.6477,69.9037,KST,SBR,Ahmad Khan Kalay,2602,Sabari,????,Khost,????,26
23253,23254,Yale POP_MASTER,SBR-009,,0,KST-SBR-009,785,Pashto,2,1351.765991,33.51,69.8552,KST,SBR,Aqbi,2602,Sabari,????,Khost,????,26
23254,23255,Yale POP_MASTER,SBR-012,,0,KST-SBR-012,299,Pashto,2,1658.904053,33.6301,69.921,KST,SBR,Chanari Kalay,2602,Sabari,????,Khost,????,26
23255,23256,Yale POP_MASTER,SBR-014,,0,KST-SBR-014,117,Pashto,2,1836.9040530000002,33.633,69.8726,KST,SBR,Cheri Taren Kott,2602,Sabari,????,Khost,????,26
23256,23257,Yale POP_MASTER,SBR-015,,0,KST-SBR-015,3333,Pashto,2,1710.328003,33.577,69.8208,KST,SBR,Dogha Kalay,2602,Sabari,????,Khost,????,26
23257,23258,Yale POP_MASTER,SBR-016,,0,KST-SBR-016,306,Pashto,2,1241.269043,33.5118,69.9033,KST,SBR,Faqiran Kalay,2602,Sabari,????,Khost,????,26
23258,23259,Yale POP_MASTER,SBR-017,,0,KST-SBR-017,1290,Pashto,2,1663.871948,33.575,69.8224,KST,SBR,Garay Jena Ghondi,2602,Sabari,????,Khost,????,26
23259,23260,Yale POP_MASTER,SBR-020,,0,KST-SBR-020,838,Pashto,2,1255.530029,33.5181,69.8964,KST,SBR,Guldar Kalay,2602,Sabari,????,Khost,????,26
23260,23261,Yale POP_MASTER,SBR-023,,0,KST-SBR-023,126,Pashto,2,1516.859985,33.5504,69.8303,KST,SBR,Kas Kota,2602,Sabari,????,Khost,????,26
23261,23262,Yale POP_MASTER,SBR-024,,0,KST-SBR-024,251,Pashto,2,1669.508057,33.6164,69.8603,KST,SBR,Khadang,2602,Sabari,????,Khost,????,26
23262,23263,Yale POP_MASTER,SBR-026,,0,KST-SBR-026,1664,Pashto,2,1205.647949,33.5052,69.9315,KST,SBR,Khatka Kalay,2602,Sabari,????,Khost,????,26
23263,23264,Yale POP_MASTER,SBR-027,,0,KST-SBR-027,763,Pashto,2,1317.512939,33.5509,69.8826,KST,SBR,Kheyal Kotta,2602,Sabari,????,Khost,????,26
23264,23265,Yale POP_MASTER,SBR-030,,0,KST-SBR-030,518,Pashto,2,1295.7070310000001,33.5159,69.8756,KST,SBR,Kotagi Damar Kalay,2602,Sabari,????,Khost,????,26
23265,23266,Yale POP_MASTER,SBR-031,,0,KST-SBR-031,352,Pashto,2,2005.9360350000002,33.6727,69.9441,KST,SBR,Kumaki Ghonzay,2602,Sabari,????,Khost,????,26
23266,23267,Yale POP_MASTER,SBR-032,,0,KST-SBR-032,2377,Pashto,2,1230.1660160000001,33.5163,69.9174,KST,SBR,Laghar Kalay,2602,Sabari,????,Khost,????,26
23267,23268,Yale POP_MASTER,SBR-033,,0,KST-SBR-033,907,Pashto,2,1301.4959720000002,33.5148,69.873,KST,SBR,Lakari,2602,Sabari,????,Khost,????,26
23268,23269,Yale POP_MASTER,SBR-034,,0,KST-SBR-034,387,Pashto,2,1634.012939,33.629,69.9102,KST,SBR,Lalme Kalay,2602,Sabari,????,Khost,????,26
23269,23270,Yale POP_MASTER,SBR-035,,0,KST-SBR-035,250,Pashto,2,1637.5219730000001,33.6281,69.9299,KST,SBR,Landi Rogha,2602,Sabari,????,Khost,????,26
23270,23271,Yale POP_MASTER,SBR-036,,0,KST-SBR-036,2417,Pashto,2,1291.905029,33.5614,69.9239,KST,SBR,Lewan Khail,2602,Sabari,????,Khost,????,26
23271,23272,Yale POP_MASTER,SBR-038,,0,KST-SBR-038,588,Pashto,2,1597.0119630000002,33.5429,69.8231,KST,SBR,Lowara Kalay,2602,Sabari,????,Khost,????,26
23272,23273,Yale POP_MASTER,SBR-039,,0,KST-SBR-039,272,Pashto,2,2013.072998,33.6676,69.9417,KST,SBR,Loye Ghonzay,2602,Sabari,????,Khost,????,26
23273,23274,Yale POP_MASTER,SBR-040,,0,KST-SBR-040,399,Pashto,2,1231.387939,33.5247,69.944,KST,SBR,Majles Kalay,2602,Sabari,????,Khost,????,26
23274,23275,Yale POP_MASTER,SBR-041,,0,KST-SBR-041,160,Pashto,2,1782.130005,33.6364,69.9359,KST,SBR,Manake,2602,Sabari,????,Khost,????,26
23275,23276,Yale POP_MASTER,SBR-043,,0,KST-SBR-043,288,Pashto,2,1710.905029,33.5616,69.8168,KST,SBR,Manz Lagada,2602,Sabari,????,Khost,????,26
23276,23277,Yale POP_MASTER,SBR-048,,0,KST-SBR-048,1893,Pashto,2,1220.097046,33.4929,69.922,KST,SBR,Mouchi Kalay,2602,Sabari,????,Khost,????,26
23277,23278,Yale POP_MASTER,SBR-049,,0,KST-SBR-049,360,Pashto,2,1287.6519779999999,33.548,69.9094,KST,SBR,Mullayano Kalay,2602,Sabari,????,Khost,????,26
23278,23279,Yale POP_MASTER,SBR-053,,0,KST-SBR-053,392,Pashto,2,1320.310059,33.543,69.8765,KST,SBR,Nasapa,2602,Sabari,????,Khost,????,26
23279,23280,Yale POP_MASTER,SBR-055,,0,KST-SBR-055,190,Pashto,2,1250.327026,33.51,69.8942,KST,SBR,Pair Jan Kalay,2602,Sabari,????,Khost,????,26
23280,23281,Yale POP_MASTER,SBR-056,,0,KST-SBR-056,972,Pashto,2,1273.025024,33.5381,69.9077,KST,SBR,Paira Gul Kotta,2602,Sabari,????,Khost,????,26
23281,23282,Yale POP_MASTER,SBR-057,,0,KST-SBR-057,514,Pashto,2,1291.859985,33.5093,69.8803,KST,SBR,Pari Khail,2602,Sabari,????,Khost,????,26
23282,23283,Yale POP_MASTER,SBR-059,,0,KST-SBR-059,1286,Pashto,2,1491.036011,33.604,69.9402,KST,SBR,Paro Khail,2602,Sabari,????,Khost,????,26
23283,23284,Yale POP_MASTER,SBR-060,,0,KST-SBR-060,1308,Pashto,2,1321.9160160000001,33.5637,69.9488,KST,SBR,Parta Ghondi,2602,Sabari,????,Khost,????,26
23284,23285,Yale POP_MASTER,SBR-061,,0,KST-SBR-061,765,Pashto,2,1201.7380369999998,33.5091,69.9457,KST,SBR,Qasim Khan Kalay,2602,Sabari,????,Khost,????,26
23285,23286,Yale POP_MASTER,SBR-062,,0,KST-SBR-062,1595,Pashto,2,1313.1209720000002,33.5288,69.8687,KST,SBR,Rahim Kahol,2602,Sabari,????,Khost,????,26
23286,23287,Yale POP_MASTER,SBR-063,,0,KST-SBR-063,638,Pashto,2,1217.536011,33.5165,69.9281,KST,SBR,Rand Faqiran,2602,Sabari,????,Khost,????,26
23287,23288,Yale POP_MASTER,SBR-065,,0,KST-SBR-065,2206,Pashto,2,1253.499023,33.5019,69.9047,KST,SBR,Sapera,2602,Sabari,????,Khost,????,26
23288,23289,Yale POP_MASTER,SBR-066,,0,KST-SBR-066,293,Pashto,2,1215.750977,33.4832,69.9362,KST,SBR,Sara Para Mussa Khan,2602,Sabari,????,Khost,????,26
23289,23290,Yale POP_MASTER,SBR-069,,0,KST-SBR-069,526,Pashto,2,1633.376953,33.5706,69.8282,KST,SBR,Shaikhri Kalay,2602,Sabari,????,Khost,????,26
23290,23291,Yale POP_MASTER,SBR-070,,0,KST-SBR-070,192,Pashto,2,1747.5179440000002,33.5648,69.8089,KST,SBR,Shaire Maila,2602,Sabari,????,Khost,????,26
23291,23292,Yale POP_MASTER,SBR-071,,0,KST-SBR-071,758,Pashto,2,1284.6519779999999,33.5227,69.8817,KST,SBR,Sheenkay Kalay,2602,Sabari,????,Khost,????,26
23292,23293,Yale POP_MASTER,SBR-072,,0,KST-SBR-072,1409,Pashto,2,1268.647949,33.543,69.9462,KST,SBR,Sor Ban Manz Kalay,2602,Sabari,????,Khost,????,26
23293,23294,Yale POP_MASTER,SBR-073,,0,KST-SBR-073,1805,Pashto,2,1295.6290279999998,33.5524,69.9512,KST,SBR,Sor Ban Sar Kalay,2602,Sabari,????,Khost,????,26
23294,23295,Yale POP_MASTER,SBR-077,,0,KST-SBR-077,363,Pashto,2,1266.727051,33.5134,69.8906,KST,SBR,Spen Kay Kotta,2602,Sabari,????,Khost,????,26
23295,23296,Yale POP_MASTER,SBR-079,,0,KST-SBR-079,638,Pashto,2,1292.850952,33.5638,69.9303,KST,SBR,Taghar Lewan Khail,2602,Sabari,????,Khost,????,26
23296,23297,Yale POP_MASTER,SBR-080,,0,KST-SBR-080,2415,Pashto,2,1244.7089839999999,33.5311,69.944,KST,SBR,Tala Kalay,2602,Sabari,????,Khost,????,26
23297,23298,Yale POP_MASTER,SBR-081,,0,KST-SBR-081,448,Pashto,2,1679.019043,33.6332,69.8972,KST,SBR,Tanda Kalay,2602,Sabari,????,Khost,????,26
23298,23299,Yale POP_MASTER,SBR-083,,0,KST-SBR-083,431,Pashto,2,1212.901001,33.5141,69.9423,KST,SBR,Targeda,2602,Sabari,????,Khost,????,26
23299,23300,Yale POP_MASTER,SBR-084,,0,KST-SBR-084,227,Pashto,2,1386.639038,33.5829,69.9043,KST,SBR,Tari Lewan Khail,2602,Sabari,????,Khost,????,26
23300,23301,Yale POP_MASTER,SBR-085,,0,KST-SBR-085,889,Pashto,2,1237.9780269999999,33.4897,69.91199999999999,KST,SBR,Toda Kalay,2602,Sabari,????,Khost,????,26
23301,23302,Yale POP_MASTER,SBR-086,,0,KST-SBR-086,664,Pashto,2,1279.823975,33.4742,69.9034,KST,SBR,Tour Tangi,2602,Sabari,????,Khost,????,26
23302,23303,Yale POP_MASTER,SBR-088,,0,KST-SBR-088,81,Pashto,2,1570.383057,33.6139,69.9183,KST,SBR,Wosto Ghondi,2602,Sabari,????,Khost,????,26
23303,23304,Yale POP_MASTER,SBR-089,,0,KST-SBR-089,5495,Pashto,2,1352.935059,33.5629,69.8768,KST,SBR,Zambar,2602,Sabari,????,Khost,????,26
23304,23305,Yale POP_MASTER,SBR-090,,0,KST-SBR-090,1032,Pashto,2,1237.365967,33.5281,69.9425,KST,SBR,Zardar Kalay,2602,Sabari,????,Khost,????,26
23305,23306,Yale POP_MASTER,SBR-091,,0,KST-SBR-091,649,Pashto,2,1974.22998,33.6371,69.8471,KST,SBR,Zhoworona,2602,Sabari,????,Khost,????,26
23306,23307,Yale POP_MASTER,SBR-092,District,1,KST-SBR-092,9089,Pashto,2,1419.4179689999999,33.5774,69.8842,KST,SBR,Sabari,2602,Sabari,????,Khost,????,26
23307,23308,Yale POP_MASTER,JMN-016,,0,KST-JMN-016,332,Pashto,2,1849.959961,33.6741,69.9806,KST,JMN,Baidad Kalay,2613,Jajimaydan,???? ?????,Khost,????,26
23308,23309,Yale POP_MASTER,JMN-021,,0,KST-JMN-021,449,Pashto,2,1815.067017,33.6544,69.9682,KST,JMN,Choghan,2613,Jajimaydan,???? ?????,Khost,????,26
23310,23311,Yale POP_MASTER,JMN-039,,0,KST-JMN-039,311,Pashto,2,1631.3280029999999,33.6487,69.9941,KST,JMN,Kor Kori,2613,Jajimaydan,???? ?????,Khost,????,26
23311,23312,Yale POP_MASTER,JMN-041,,0,KST-JMN-041,441,Pashto,2,1725.81604,33.6637,69.9865,KST,JMN,Kotakay Kumaki,2613,Jajimaydan,???? ?????,Khost,????,26
23312,23313,Yale POP_MASTER,JMN-044,,0,KST-JMN-044,279,Pashto,2,1721.364014,33.6595,69.9774,KST,JMN,Landa Roghe,2613,Jajimaydan,???? ?????,Khost,????,26
23313,23314,Yale POP_MASTER,JMN-064,,0,KST-JMN-064,419,Pashto,2,1788.9930420000003,33.6393,69.9709,KST,JMN,Satkay,2613,Jajimaydan,???? ?????,Khost,????,26
23314,23315,Yale POP_MASTER,JMN-070,,0,KST-JMN-070,763,Pashto,2,1638.862061,33.6449,69.9898,KST,JMN,Shaikhan Algad,2613,Jajimaydan,???? ?????,Khost,????,26
23315,23316,CSO AIMS Villages (ACSOR),KHS-184,,0,KST-KHS-184,343,Pashto,2,1167.0389400000001,33.351259999999996,69.94665,KST,KHS,Koryan (1),2601,Khost(Matun),( ????(????,Khost,????,26
23316,23317,CSO AIMS Villages (ACSOR),KHS-187,,0,KST-KHS-187,992,Pashto,2,1182.7110599999999,33.34332,69.92485,KST,KHS,Landi Kalay (2),2601,Khost(Matun),( ????(????,Khost,????,26
23317,23318,CSO AIMS Villages (ACSOR),KHS-183,,0,KST-KHS-183,1204,Pashto,2,1100.198975,33.37421,70.01575,KST,KHS,Ghondi Kalay (3),2601,Khost(Matun),( ????(????,Khost,????,26
23318,23319,USAID AIDVillageView,KHS-020,,0,KST-KHS-020,0,Pashto,2,1116.602051,33.3209,69.9871,KST,KHS,Tolay Mishir Kalay,2601,Khost(Matun),( ????(????,Khost,????,26
23319,23320,CSO AIMS Villages (ACSOR),KHS-191,,0,KST-KHS-191,139,Pashto,2,1094.6719970000001,33.34158,70.02436,KST,KHS,Pairan Kalay (1),2601,Khost(Matun),( ????(????,Khost,????,26
23320,23321,CSO AIMS Villages (ACSOR),KHS-193,,0,KST-KHS-193,794,Pashto,2,1142.331055,33.31118,69.96515,KST,KHS,Pairano Kalay (1),2601,Khost(Matun),( ????(????,Khost,????,26
23321,23322,USAID AIDVillageView,KHS-001,,0,KST-KHS-001,0,Pashto,2,1344.119995,33.3933,69.8367,KST,KHS,Asar,2601,Khost(Matun),( ????(????,Khost,????,26
23322,23323,CSO AIMS Villages (ACSOR),KHS-192,,0,KST-KHS-192,2603,Pashto,2,1110.6639400000001,33.34297,69.99685,KST,KHS,Pairan Kalay (2),2601,Khost(Matun),( ????(????,Khost,????,26
23323,23324,USAID AIDVillageView,KHS-015,,0,KST-KHS-015,0,Pashto,2,1161.150024,33.3234,69.9241,KST,KHS,Punjaya,2601,Khost(Matun),( ????(????,Khost,????,26
23324,23325,USAID AIDVillageView,KHS-016,,0,KST-KHS-016,0,Pashto,2,1161.142944,33.3372,69.942,KST,KHS,Qal'a-i Hindu,2601,Khost(Matun),( ????(????,Khost,????,26
23325,23326,USAID AIDVillageView,KHS-008,,0,KST-KHS-008,0,Pashto,2,1207.432007,33.3572,69.92399999999999,KST,KHS,Land,2601,Khost(Matun),( ????(????,Khost,????,26
23326,23327,CSO AIMS Villages (ACSOR),KHS-186,,0,KST-KHS-186,414,Pashto,2,1141.635986,33.32595,69.94926,KST,KHS,Landi Kalay (1),2601,Khost(Matun),( ????(????,Khost,????,26
23327,23328,CSO AIMS Villages (ACSOR),KHS-194,,0,KST-KHS-194,1955,Pashto,2,1204.772949,33.35013,69.90864,KST,KHS,Pairano Kalay (2),2601,Khost(Matun),( ????(????,Khost,????,26
23328,23329,CSO AIMS Villages (ACSOR),KHS-185,,0,KST-KHS-185,866,Pashto,2,1210.8280029999999,33.35386,69.91379,KST,KHS,Koryan (2),2601,Khost(Matun),( ????(????,Khost,????,26
23329,23330,USAID AIDVillageView,KHS-019,,0,KST-KHS-019,0,Pashto,2,1193.5980220000001,33.3235,69.8882,KST,KHS,Tanday,2601,Khost(Matun),( ????(????,Khost,????,26
23330,23331,Yale POP_MASTER,MSK-015,,0,KST-MSK-015,964,Pashto,2,1472.131958,33.445,69.8532,KST,MSK,Garyani,2603,Musakhel,???? ???,Khost,????,26
23331,23332,Yale POP_MASTER,MSK-048,,0,KST-MSK-048,68,Pashto,2,1517.902954,33.428000000000004,69.8439,KST,MSK,Pako Mela,2603,Musakhel,???? ???,Khost,????,26
23332,23333,Yale POP_MASTER,MSK-066,,0,KST-MSK-066,1095,Pashto,2,1547.847046,33.4377,69.8296,KST,MSK,Tapa Ya,2603,Musakhel,???? ???,Khost,????,26
23333,23334,Yale POP_MASTER,GRB-056,,0,KST-GRB-056,330,Pashto,2,1147.1719970000001,33.3102,69.9499,KST,GRB,Zadran Kalay,2607,Gurbuz,????,Khost,????,26
23334,23335,Yale POP_MASTER,KHS-121,,0,KST-KHS-121,378,Pashto,2,1149.756958,33.3261,69.9429,KST,KHS,Omer Kalay,2601,Khost(Matun),( ????(????,Khost,????,26
23335,23336,Yale POP_MASTER,KHS-165,,0,KST-KHS-165,2363,Pashto,2,1228.380005,33.3593,69.9054,KST,KHS,Wargha Kalay,2601,Khost(Matun),( ????(????,Khost,????,26
23336,23337,Yale POP_MASTER,KHS-056,,0,KST-KHS-056,2111,Pashto,2,1192.958008,33.3341,69.8932,KST,KHS,Ghorje,2601,Khost(Matun),( ????(????,Khost,????,26
23337,23338,Yale POP_MASTER,KHS-104,,0,KST-KHS-104,327,Pashto,2,1200.358032,33.3512,69.9196,KST,KHS,Menna Kalay,2601,Khost(Matun),( ????(????,Khost,????,26
23338,23339,Yale POP_MASTER,KHS-078,,0,KST-KHS-078,391,Pashto,2,1169.006958,33.3125,69.9254,KST,KHS,Kote,2601,Khost(Matun),( ????(????,Khost,????,26
23339,23340,Yale POP_MASTER,KHS-032,,0,KST-KHS-032,1073,Pashto,2,1153.569946,33.3146,69.9472,KST,KHS,Bangi Bagh,2601,Khost(Matun),( ????(????,Khost,????,26
23340,23341,Yale POP_MASTER,KHS-043,,0,KST-KHS-043,1111,Pashto,2,1164.975952,33.3535,69.9531,KST,KHS,Choghi,2601,Khost(Matun),( ????(????,Khost,????,26
23341,23342,Yale POP_MASTER,KHS-079,,0,KST-KHS-079,1123,Pashto,2,1178.5040279999998,33.3541,69.943,KST,KHS,Kotoly Kalay,2601,Khost(Matun),( ????(????,Khost,????,26
23342,23343,Yale POP_MASTER,KHS-091,,0,KST-KHS-091,254,Pashto,2,1179.1779789999998,33.3231,69.902,KST,KHS,Mahmod Kalay,2601,Khost(Matun),( ????(????,Khost,????,26
23343,23344,Yale POP_MASTER,KHS-158,,0,KST-KHS-158,1434,Pashto,2,1195.774048,33.3167,69.8869,KST,KHS,Tandi Pairan,2601,Khost(Matun),( ????(????,Khost,????,26
23344,23345,Yale POP_MASTER,KHS-098,,0,KST-KHS-098,1298,Pashto,2,1179.848999,33.3262,69.9062,KST,KHS,Mani Kalay,2601,Khost(Matun),( ????(????,Khost,????,26
23345,23346,Yale POP_MASTER,KHS-092,,0,KST-KHS-092,2834,Pashto,2,1137.741943,33.3274,69.955,KST,KHS,Mahmod Khail,2601,Khost(Matun),( ????(????,Khost,????,26
23346,23347,Yale POP_MASTER,KHS-048,,0,KST-KHS-048,1025,Pashto,2,1206.0620119999999,33.3542,69.9213,KST,KHS,Dar Kotte,2601,Khost(Matun),( ????(????,Khost,????,26
23347,23348,Yale POP_MASTER,KHS-070,,0,KST-KHS-070,765,Pashto,2,1147.0389400000001,33.3372,69.9554,KST,KHS,Khan Dar,2601,Khost(Matun),( ????(????,Khost,????,26
23348,23349,Yale POP_MASTER,KHS-123,,0,KST-KHS-123,415,Pashto,2,1138.630005,33.3364,69.9685,KST,KHS,Omer Khan Kalay,2601,Khost(Matun),( ????(????,Khost,????,26
23349,23350,Yale POP_MASTER,KHS-034,,0,KST-KHS-034,3182,Pashto,2,1232.9139400000001,33.3676,69.9109,KST,KHS,Bash Khail,2601,Khost(Matun),( ????(????,Khost,????,26
23350,23351,Yale POP_MASTER,KHS-141,,0,KST-KHS-141,78,Pashto,2,1164.779053,33.3114,69.9364,KST,KHS,Sahib Zada Kotaki,2601,Khost(Matun),( ????(????,Khost,????,26
23351,23352,Yale POP_MASTER,KHS-162,,0,KST-KHS-162,1203,Pashto,2,1210.293945,33.3616,69.9204,KST,KHS,Toura Wari,2601,Khost(Matun),( ????(????,Khost,????,26
23352,23353,Yale POP_MASTER,KHS-103,,0,KST-KHS-103,1332,Pashto,2,1142.9570310000001,33.3206,69.9443,KST,KHS,Mazar Kalay,2601,Khost(Matun),( ????(????,Khost,????,26
23353,23354,Yale POP_MASTER,KHS-122,,0,KST-KHS-122,150,Pashto,2,1133.845947,33.3294,69.965,KST,KHS,Omer Khail,2601,Khost(Matun),( ????(????,Khost,????,26
23354,23355,Yale POP_MASTER,KHS-136,,0,KST-KHS-136,562,Pashto,2,1162.553955,33.3352,69.9356,KST,KHS,Qala Hendo,2601,Khost(Matun),( ????(????,Khost,????,26
23355,23356,Yale POP_MASTER,KHS-124,,0,KST-KHS-124,164,Pashto,2,1097.251953,33.3476,70.0346,KST,KHS,Painake,2601,Khost(Matun),( ????(????,Khost,????,26
23356,23357,Yale POP_MASTER,KHS-047,,0,KST-KHS-047,814,Pashto,2,1108.399048,33.3306,69.992,KST,KHS,Danda Pan,2601,Khost(Matun),( ????(????,Khost,????,26
23357,23358,Yale POP_MASTER,KHS-147,,0,KST-KHS-147,837,Pashto,2,1375.936035,33.3941,69.8716,KST,KHS,Sari Obah,2601,Khost(Matun),( ????(????,Khost,????,26
23358,23359,Yale POP_MASTER,KHS-059,,0,KST-KHS-059,314,Pashto,2,1131.474976,33.341,69.9751,KST,KHS,Gul Padshah Kalay,2601,Khost(Matun),( ????(????,Khost,????,26
23359,23360,Yale POP_MASTER,KHS-037,,0,KST-KHS-037,326,Pashto,2,1108.378052,33.3363,69.9968,KST,KHS,Behsodi,2601,Khost(Matun),( ????(????,Khost,????,26
23360,23361,Yale POP_MASTER,KHS-107,,0,KST-KHS-107,452,Pashto,2,1136.535034,33.3138,69.9677,KST,KHS,Mohammad Ayoub Khan,2601,Khost(Matun),( ????(????,Khost,????,26
23361,23362,Yale POP_MASTER,KHS-155,,0,KST-KHS-155,907,Pashto,2,1080.959961,33.3687,70.0278,KST,KHS,Soba Kalay,2601,Khost(Matun),( ????(????,Khost,????,26
23362,23363,Yale POP_MASTER,KHS-084,,0,KST-KHS-084,8593,Pashto,2,1119.676025,33.3625,69.9888,KST,KHS,Kunda,2601,Khost(Matun),( ????(????,Khost,????,26
23363,23364,Yale POP_MASTER,KHS-094,,0,KST-KHS-094,304,Pashto,2,1102.175049,33.3268,70.0223,KST,KHS,Malizai,2601,Khost(Matun),( ????(????,Khost,????,26
23364,23365,Yale POP_MASTER,KHS-164,,0,KST-KHS-164,307,Pashto,2,1100.322998,33.3304,70.0015,KST,KHS,Wargay,2601,Khost(Matun),( ????(????,Khost,????,26
23365,23366,Yale POP_MASTER,KHS-153,,0,KST-KHS-153,300,Pashto,2,1096.152954,33.3504,70.0323,KST,KHS,Shah Baz Khan Kalay,2601,Khost(Matun),( ????(????,Khost,????,26
23366,23367,Yale POP_MASTER,KHS-156,,0,KST-KHS-156,728,Pashto,2,1116.972046,33.3523,69.9913,KST,KHS,Ster Law Kala,2601,Khost(Matun),( ????(????,Khost,????,26
23367,23368,Yale POP_MASTER,KHS-143,,0,KST-KHS-143,133,Pashto,2,1101.378052,33.3251,70.0043,KST,KHS,Sakhi Jan Kalay,2601,Khost(Matun),( ????(????,Khost,????,26
23368,23369,Yale POP_MASTER,KHS-060,,0,KST-KHS-060,963,Pashto,2,1078.043945,33.336,70.0338,KST,KHS,Haji Raeis Kalay,2601,Khost(Matun),( ????(????,Khost,????,26
23369,23370,Yale POP_MASTER,KHS-171,,0,KST-KHS-171,766,Pashto,2,1122.625,33.3194,69.976,KST,KHS,Zar Kala,2601,Khost(Matun),( ????(????,Khost,????,26
23370,23371,Yale POP_MASTER,KHS-024,,0,KST-KHS-024,115,Pashto,2,1096.840942,33.3508,70.0273,KST,KHS,Abdul Hakim Kalay,2601,Khost(Matun),( ????(????,Khost,????,26
23371,23372,Yale POP_MASTER,KHS-106,,0,KST-KHS-106,796,Pashto,2,1111.958008,33.3633,69.9961,KST,KHS,Miri Kalay,2601,Khost(Matun),( ????(????,Khost,????,26
23372,23373,Yale POP_MASTER,KHS-074,,0,KST-KHS-074,2672,Pashto,2,1275.015015,33.3862,69.9104,KST,KHS,Khoni Khor,2601,Khost(Matun),( ????(????,Khost,????,26
23373,23374,Yale POP_MASTER,KHS-169,,0,KST-KHS-169,533,Pashto,2,1123.7910160000001,33.3289,69.9758,KST,KHS,Yarano Kalay Khanan Kalay,2601,Khost(Matun),( ????(????,Khost,????,26
23374,23375,Yale POP_MASTER,KHS-140,,0,KST-KHS-140,48,Pashto,2,1094.406982,33.345,70.0274,KST,KHS,Sahib Zada Kalay,2601,Khost(Matun),( ????(????,Khost,????,26
23375,23376,Yale POP_MASTER,KHS-174,,0,KST-KHS-174,684,Pashto,2,1120.302002,33.3352,69.9843,KST,KHS,Zargaran,2601,Khost(Matun),( ????(????,Khost,????,26
23376,23377,Yale POP_MASTER,KHS-150,,0,KST-KHS-150,90,Pashto,2,1350.4370119999999,33.3861,69.889,KST,KHS,Sarkay Taizha,2601,Khost(Matun),( ????(????,Khost,????,26
23377,23378,Yale POP_MASTER,KHS-038,,0,KST-KHS-038,255,Pashto,2,1092.551025,33.334,70.0134,KST,KHS,Bogar,2601,Khost(Matun),( ????(????,Khost,????,26
23378,23379,Yale POP_MASTER,KHS-128,,0,KST-KHS-128,596,Pashto,2,1105.2290039999998,33.36,70.0044,KST,KHS,Pankzai,2601,Khost(Matun),( ????(????,Khost,????,26
23379,23380,Yale POP_MASTER,KHS-044,,0,KST-KHS-044,1472,Pashto,2,1106.811035,33.3495,70.0028,KST,KHS,Cholan,2601,Khost(Matun),( ????(????,Khost,????,26
23380,23381,Yale POP_MASTER,KHS-157,,0,KST-KHS-157,1073,Pashto,2,1124.4060060000002,33.3412,69.9841,KST,KHS,Tanai Kalay,2601,Khost(Matun),( ????(????,Khost,????,26
23381,23382,Yale POP_MASTER,KHS-137,,0,KST-KHS-137,1674,Pashto,2,1081.456055,33.3726,70.025,KST,KHS,Razghe Kalay,2601,Khost(Matun),( ????(????,Khost,????,26
23382,23383,Yale POP_MASTER,KHS-112,,0,KST-KHS-112,838,Pashto,2,1100.6469730000001,33.3406,70.013,KST,KHS,Mullahyan,2601,Khost(Matun),( ????(????,Khost,????,26
23383,23384,Yale POP_MASTER,KHS-097,,0,KST-KHS-097,1991,Pashto,2,1092.198975,33.3662,70.0115,KST,KHS,Mangas,2601,Khost(Matun),( ????(????,Khost,????,26
23384,23385,Yale POP_MASTER,KHS-064,,0,KST-KHS-064,3093,Pashto,2,1133.4379880000001,33.3463,69.9765,KST,KHS,Karam Saray,2601,Khost(Matun),( ????(????,Khost,????,26
23385,23386,Yale POP_MASTER,KHS-085,,0,KST-KHS-085,1855,Pashto,2,1216.034058,33.3177,69.8654,KST,KHS,Lalmi Mangal,2601,Khost(Matun),( ????(????,Khost,????,26
23386,23387,Yale POP_MASTER,KHS-142,,0,KST-KHS-142,161,Pashto,2,1111.666992,33.3869,70.0065,KST,KHS,Sahra Kalay,2601,Khost(Matun),( ????(????,Khost,????,26
23387,23388,Yale POP_MASTER,KHS-071,,0,KST-KHS-071,830,Pashto,2,1093.9379880000001,33.3595,70.0172,KST,KHS,Khan Hawas Kalay,2601,Khost(Matun),( ????(????,Khost,????,26
23388,23389,Yale POP_MASTER,KHS-170,,0,KST-KHS-170,673,Pashto,2,1118.55896,33.3204,69.9968,KST,KHS,Zadran,2601,Khost(Matun),( ????(????,Khost,????,26
23389,23390,Yale POP_MASTER,KHS-127,,0,KST-KHS-127,256,Pashto,2,1124.9379880000001,33.315,69.9792,KST,KHS,Paiyo Khan Kalay,2601,Khost(Matun),( ????(????,Khost,????,26
23390,23391,Yale POP_MASTER,KHS-058,,0,KST-KHS-058,353,Pashto,2,1098.670044,33.3509,70.0199,KST,KHS,Gul Hassan Kalay,2601,Khost(Matun),( ????(????,Khost,????,26
23391,23392,Yale POP_MASTER,KHS-151,,0,KST-KHS-151,313,Pashto,2,1107.614014,33.3242,69.9941,KST,KHS,Sarwar Kalay,2601,Khost(Matun),( ????(????,Khost,????,26
23392,23393,Yale POP_MASTER,KHS-057,,0,KST-KHS-057,796,Pashto,2,1087.045044,33.3213,70.04,KST,KHS,Goda Khara,2601,Khost(Matun),( ????(????,Khost,????,26
23393,23394,Yale POP_MASTER,KHS-148,,0,KST-KHS-148,389,Pashto,2,1100.8969730000001,33.3441,70.0188,KST,KHS,Sarkay Jan Kalay,2601,Khost(Matun),( ????(????,Khost,????,26
23394,23395,Yale POP_MASTER,KHS-082,,0,KST-KHS-082,1064,Pashto,2,1404.7969970000001,33.4087,69.8796,KST,KHS,Kumaki Marghori,2601,Khost(Matun),( ????(????,Khost,????,26
23395,23396,Yale POP_MASTER,KHS-138,,0,KST-KHS-138,527,Pashto,2,1126.532959,33.3351,69.9778,KST,KHS,Sahduddin Kalay,2601,Khost(Matun),( ????(????,Khost,????,26
23396,23397,Yale POP_MASTER,KHS-049,,0,KST-KHS-049,987,Pashto,2,1201.885986,33.3605,69.9257,KST,KHS,Dari Khail,2601,Khost(Matun),( ????(????,Khost,????,26
23397,23398,Yale POP_MASTER,KHS-102,,0,KST-KHS-102,490,Pashto,2,1209.409058,33.3367,69.8768,KST,KHS,Mata Chena,2601,Khost(Matun),( ????(????,Khost,????,26
23398,23399,Yale POP_MASTER,KHS-175,,0,KST-KHS-175,1129,Pashto,2,1200.588989,33.3273,69.8753,KST,KHS,Zari Tarkha,2601,Khost(Matun),( ????(????,Khost,????,26
23399,23400,Yale POP_MASTER,KHS-065,,0,KST-KHS-065,685,Pashto,2,1198.490967,33.3511,69.9237,KST,KHS,Kas Kala,2601,Khost(Matun),( ????(????,Khost,????,26
23400,23401,Yale POP_MASTER,KHS-120,,0,KST-KHS-120,841,Pashto,2,1175.785034,33.3436,69.9336,KST,KHS,Nowi Kalay,2601,Khost(Matun),( ????(????,Khost,????,26
23401,23402,Yale POP_MASTER,KHS-027,,0,KST-KHS-027,834,Pashto,2,1164.339966,33.3276,69.9232,KST,KHS,Amir Khan Kott,2601,Khost(Matun),( ????(????,Khost,????,26
23402,23403,Yale POP_MASTER,KHS-163,,0,KST-KHS-163,555,Pashto,2,1197.535034,33.3594,69.9309,KST,KHS,Warda Khail,2601,Khost(Matun),( ????(????,Khost,????,26
23403,23404,Yale POP_MASTER,KHS-117,,0,KST-KHS-117,655,Pashto,2,1185.553955,33.3616,69.9369,KST,KHS,Neyaz Gul Kalay,2601,Khost(Matun),( ????(????,Khost,????,26
23404,23405,Yale POP_MASTER,KHS-116,,0,KST-KHS-116,3339,Pashto,2,1159.567993,33.330999999999996,69.9337,KST,KHS,Nawi Panza,2601,Khost(Matun),( ????(????,Khost,????,26
23405,23406,Yale POP_MASTER,KHS-083,,0,KST-KHS-083,750,Pashto,2,1244.411987,33.3632,69.9004,KST,KHS,Kumaki Wargha,2601,Khost(Matun),( ????(????,Khost,????,26
23406,23407,Yale POP_MASTER,KHS-108,,0,KST-KHS-108,1780,Pashto,2,1191.803955,33.346,69.9174,KST,KHS,Monda Kalay,2601,Khost(Matun),( ????(????,Khost,????,26
23407,23408,Yale POP_MASTER,KHS-069,,0,KST-KHS-069,600,Pashto,2,1195.928955,33.3214,69.8818,KST,KHS,Khalisa,2601,Khost(Matun),( ????(????,Khost,????,26
23408,23409,Yale POP_MASTER,KHS-090,,0,KST-KHS-090,1562,Pashto,2,1226.280029,33.3457,69.8674,KST,KHS,Mahajeren,2601,Khost(Matun),( ????(????,Khost,????,26
23409,23410,Yale POP_MASTER,KHS-146,,0,KST-KHS-146,5712,Pashto,2,1277.900024,33.3548,69.8806,KST,KHS,Sarhadi,2601,Khost(Matun),( ????(????,Khost,????,26
23410,23411,Yale POP_MASTER,KHS-131,,0,KST-KHS-131,747,Pashto,2,1183.865967,33.3474,69.9325,KST,KHS,Pataw Kalay,2601,Khost(Matun),( ????(????,Khost,????,26
23411,23412,Yale POP_MASTER,KHS-077,,0,KST-KHS-077,358,Pashto,2,1231.467041,33.3533,69.9035,KST,KHS,Kotaki Kalay (2),2601,Khost(Matun),( ????(????,Khost,????,26
23412,23413,Yale POP_MASTER,KHS-062,,0,KST-KHS-062,2223,Pashto,2,1158.376953,33.3548,69.9565,KST,KHS,Kajar Kalay,2601,Khost(Matun),( ????(????,Khost,????,26
23413,23414,Yale POP_MASTER,KHS-073,,0,KST-KHS-073,624,Pashto,2,1208.8540039999998,33.3551,69.919,KST,KHS,Khatakay Kalay,2601,Khost(Matun),( ????(????,Khost,????,26
23414,23415,Yale POP_MASTER,KHS-132,,0,KST-KHS-132,1276,Pashto,2,1151.787964,33.3184,69.9321,KST,KHS,Penza,2601,Khost(Matun),( ????(????,Khost,????,26
23415,23416,Yale POP_MASTER,KHS-076,,0,KST-KHS-076,897,Pashto,2,1222.175049,33.3644,69.9163,KST,KHS,Kotagi Kalay (1),2601,Khost(Matun),( ????(????,Khost,????,26
23416,23417,Yale POP_MASTER,KHS-178,Provincial,2,KST-KHS-178,9500,Pashto,2,1178.314941,33.3375,69.9169,KST,KHS,Khost(matun),2601,Khost(Matun),( ????(????,Khost,????,26
23417,23418,Yale POP_MASTER,KHS-068,,0,KST-KHS-068,1005,Pashto,2,1168.7709960000002,33.3456,69.9454,KST,KHS,Khalesa Tabon,2601,Khost(Matun),( ????(????,Khost,????,26
23418,23419,Yale POP_MASTER,KHS-173,,0,KST-KHS-173,561,Pashto,2,1167.222046,33.3209,69.9158,KST,KHS,Zara Penza,2601,Khost(Matun),( ????(????,Khost,????,26
23419,23420,Yale POP_MASTER,KHS-029,,0,KST-KHS-029,1351,Pashto,2,1213.251953,33.3476,69.9043,KST,KHS,Bache Kalay,2601,Khost(Matun),( ????(????,Khost,????,26
23420,23421,Yale POP_MASTER,KHS-129,,0,KST-KHS-129,949,Pashto,2,1169.005005,33.3383,69.9333,KST,KHS,Pashano Kalay,2601,Khost(Matun),( ????(????,Khost,????,26
23421,23422,Yale POP_MASTER,KHS-053,,0,KST-KHS-053,862,Pashto,2,1194.7929689999999,33.35,69.9244,KST,KHS,Gangena,2601,Khost(Matun),( ????(????,Khost,????,26
23422,23423,Yale POP_MASTER,KHS-095,,0,KST-KHS-095,687,Pashto,2,1151.963989,33.3408,69.9538,KST,KHS,Malkondi,2601,Khost(Matun),( ????(????,Khost,????,26
23423,23424,Yale POP_MASTER,KHS-154,,0,KST-KHS-154,498,Pashto,2,1223.7189939999998,33.3584,69.9102,KST,KHS,Shakara Kalay,2601,Khost(Matun),( ????(????,Khost,????,26
23424,23425,Yale POP_MASTER,MZI-039,,0,KST-MZI-039,1595,Pashto,2,1220.563965,33.3256,69.8589,KST,MZI,Chara Ga,2605,Mandozayi,????????,Khost,????,26
23425,23426,Yale POP_MASTER,MZI-061,,0,KST-MZI-061,328,Pashto,2,1224.657959,33.3216,69.8536,KST,MZI,Mesh Khana,2605,Mandozayi,????????,Khost,????,26
23426,23427,Yale POP_MASTER,KHS-088,,0,KST-KHS-088,814,Pashto,2,1475.25,33.4392,69.8874,KST,KHS,Loye Ster Mazghor,2601,Khost(Matun),( ????(????,Khost,????,26
23427,23428,USAID AIDVillageView,GRB-005,,0,KST-GRB-005,0,Pashto,2,1216.911011,33.2837,69.8907,KST,GRB,Shah Wazir Kala,2607,Gurbuz,????,Khost,????,26
23428,23429,USAID AIDVillageView,GRB-006,,0,KST-GRB-006,0,Pashto,2,1241.70105,33.2566,69.8937,KST,GRB,Zarin Kalay,2607,Gurbuz,????,Khost,????,26
23429,23430,USAID AIDVillageView,GRB-004,,0,KST-GRB-004,0,Pashto,2,1253.474976,33.2492,69.8898,KST,GRB,Samak Kotkay,2607,Gurbuz,????,Khost,????,26
23430,23431,USAID AIDVillageView,GRB-001,,0,KST-GRB-001,0,Pashto,2,1549.567993,33.1849,69.99,KST,GRB,Akbarkhan Kalay,2607,Gurbuz,????,Khost,????,26
23431,23432,USAID AIDVillageView,GRB-003,,0,KST-GRB-003,0,Pashto,2,1216.0780029999999,33.2793,69.9044,KST,GRB,Mohammad-amin Kotkay,2607,Gurbuz,????,Khost,????,26
23432,23433,CSO AIMS Villages (ACSOR),KHS-180,,0,KST-KHS-180,1987,Pashto,2,1202.047974,33.31344,69.87865,KST,KHS,Dab Kalay,2601,Khost(Matun),( ????(????,Khost,????,26
23433,23434,USAID AIDVillageView,KHS-021,,0,KST-KHS-021,0,Pashto,2,1183.5860599999999,33.3036,69.9232,KST,KHS,Woro Keli,2601,Khost(Matun),( ????(????,Khost,????,26
23434,23435,USAID AIDVillageView,TNI-016,,0,KST-TNI-016,0,Pashto,2,1244.594971,33.2602,69.8865,KST,TNI,Naj Khan Kalay,2606,Tani,???,Khost,????,26
23435,23436,CSO AIMS Villages (ACSOR),MZI-021,,0,KST-MZI-021,946,Pashto,2,1211.161987,33.31418,69.86254,KST,MZI,Degan,2605,Mandozayi,????????,Khost,????,26
23436,23437,Yale POP_MASTER,GRB-031,,0,KST-GRB-031,247,Pashto,2,1209.760986,33.2723,69.9263,KST,GRB,Mangal,2607,Gurbuz,????,Khost,????,26
23437,23438,Yale POP_MASTER,GRB-057,,0,KST-GRB-057,363,Pashto,2,1220.233032,33.2625,69.9124,KST,GRB,Zadrano Kalay,2607,Gurbuz,????,Khost,????,26
23438,23439,Yale POP_MASTER,GRB-058,District,1,KST-GRB-058,13828,Pashto,2,1206.088989,33.288000000000004,69.9127,KST,GRB,Gurbuz,2607,Gurbuz,????,Khost,????,26
23439,23440,Yale POP_MASTER,GRB-019,,0,KST-GRB-019,110,Pashto,2,1199.490967,33.2933,69.9199,KST,GRB,Haji Allah Noor Kalay,2607,Gurbuz,????,Khost,????,26
23440,23441,Yale POP_MASTER,GRB-009,,0,KST-GRB-009,320,Pashto,2,1223.633057,33.2696,69.9476,KST,GRB,Azhdano Kalay,2607,Gurbuz,????,Khost,????,26
23441,23442,Yale POP_MASTER,GRB-007,,0,KST-GRB-007,350,Pashto,2,1239.590942,33.2624,69.8897,KST,GRB,Aka Faqir Kalay,2607,Gurbuz,????,Khost,????,26
23442,23443,Yale POP_MASTER,GRB-022,,0,KST-GRB-022,158,Pashto,2,1201.926025,33.2972,69.8944,KST,GRB,Kas Kalay,2607,Gurbuz,????,Khost,????,26
23443,23444,Yale POP_MASTER,GRB-020,,0,KST-GRB-020,219,Pashto,2,1212.170044,33.2864,69.8851,KST,GRB,Jan Kalay,2607,Gurbuz,????,Khost,????,26
23444,23445,Yale POP_MASTER,GRB-035,,0,KST-GRB-035,109,Pashto,2,1154.9880369999998,33.3095,69.9446,KST,GRB,Mohammad Hassan Teka Dar,2607,Gurbuz,????,Khost,????,26
23445,23446,Yale POP_MASTER,GRB-051,,0,KST-GRB-051,698,Pashto,2,1257.26001,33.2398,69.906,KST,GRB,Tanri Ya Neyazi Khail,2607,Gurbuz,????,Khost,????,26
23446,23447,Yale POP_MASTER,GRB-030,,0,KST-GRB-030,1003,Dari,1,1226.615967,33.2761,69.882,KST,GRB,Mahrajuddin,2607,Gurbuz,????,Khost,????,26
23447,23448,Yale POP_MASTER,GRB-048,,0,KST-GRB-048,538,Pashto,2,1254.506958,33.2461,69.9207,KST,GRB,Shair Wange,2607,Gurbuz,????,Khost,????,26
23448,23449,Yale POP_MASTER,GRB-024,,0,KST-GRB-024,450,Pashto,2,1205.293945,33.2825,69.9497,KST,GRB,Khan Kalay,2607,Gurbuz,????,Khost,????,26
23449,23450,Yale POP_MASTER,GRB-036,,0,KST-GRB-036,513,Pashto,2,1199.44104,33.2754,69.9383,KST,GRB,Mohammad Sayid Gul Kalay,2607,Gurbuz,????,Khost,????,26
23450,23451,Yale POP_MASTER,GRB-029,,0,KST-GRB-029,386,Pashto,2,1231.428955,33.2644,69.9465,KST,GRB,Mahrab Kalay,2607,Gurbuz,????,Khost,????,26
23451,23452,Yale POP_MASTER,GRB-016,,0,KST-GRB-016,138,Pashto,2,1179.909058,33.2944,69.9426,KST,GRB,Ghondi Kalay,2607,Gurbuz,????,Khost,????,26
23452,23453,Yale POP_MASTER,GRB-017,,0,KST-GRB-017,77,Pashto,2,1200.881958,33.2937,69.8889,KST,GRB,Gul Marjan Kalay,2607,Gurbuz,????,Khost,????,26
23453,23454,Yale POP_MASTER,GRB-026,,0,KST-GRB-026,595,Pashto,2,1248.4780269999999,33.2471,69.8963,KST,GRB,Kharge Kalay,2607,Gurbuz,????,Khost,????,26
23454,23455,Yale POP_MASTER,GRB-047,,0,KST-GRB-047,898,Pashto,2,1185.0310060000002,33.2956,69.9327,KST,GRB,Shaikhan Kalay,2607,Gurbuz,????,Khost,????,26
23455,23456,Yale POP_MASTER,GRB-040,,0,KST-GRB-040,334,Pashto,2,1233.5720210000002,33.2601,69.8978,KST,GRB,Poul Kotaki,2607,Gurbuz,????,Khost,????,26
23456,23457,Yale POP_MASTER,GRB-045,,0,KST-GRB-045,245,Pashto,2,1203.682983,33.2854,69.9624,KST,GRB,Shahya Kalay,2607,Gurbuz,????,Khost,????,26
23457,23458,Yale POP_MASTER,GRB-046,,0,KST-GRB-046,1453,Pashto,2,1207.30603,33.2867,69.9098,KST,GRB,Shaikh Amir Kalay,2607,Gurbuz,????,Khost,????,26
23458,23459,Yale POP_MASTER,GRB-034,,0,KST-GRB-034,624,Pashto,2,1225.884033,33.2634,69.9023,KST,GRB,Mir Jan Kalay,2607,Gurbuz,????,Khost,????,26
23459,23460,Yale POP_MASTER,GRB-044,,0,KST-GRB-044,307,Pashto,2,1439.911011,33.196,69.9757,KST,GRB,Shah Wali Khan,2607,Gurbuz,????,Khost,????,26
23460,23461,Yale POP_MASTER,GRB-054,,0,KST-GRB-054,353,Pashto,2,1301.593018,33.2732,70.0044,KST,GRB,Tour Gul Kalay,2607,Gurbuz,????,Khost,????,26
23461,23462,Yale POP_MASTER,GRB-011,,0,KST-GRB-011,288,Pashto,2,1357.425049,33.2615,70.0208,KST,GRB,Bakhte Kalay,2607,Gurbuz,????,Khost,????,26
23462,23463,Yale POP_MASTER,GRB-049,,0,KST-GRB-049,407,Pashto,2,1423.6879880000001,33.2055,69.9723,KST,GRB,Shairak Zeyarat,2607,Gurbuz,????,Khost,????,26
23463,23464,Yale POP_MASTER,GRB-037,,0,KST-GRB-037,685,Pashto,2,1678.9200440000002,33.2017,70.0192,KST,GRB,Nari Kalay,2607,Gurbuz,????,Khost,????,26
23464,23465,Yale POP_MASTER,GRB-041,,0,KST-GRB-041,501,Pashto,2,1456.1639400000001,33.229,70.0079,KST,GRB,Qotub Khail,2607,Gurbuz,????,Khost,????,26
23465,23466,Yale POP_MASTER,GRB-043,,0,KST-GRB-043,344,Pashto,2,1352.412964,33.1485,69.9923,KST,GRB,Sarkhi Kalay,2607,Gurbuz,????,Khost,????,26
23466,23467,Yale POP_MASTER,GRB-018,,0,KST-GRB-018,698,Pashto,2,1349.8320310000001,33.1444,70.0125,KST,GRB,Gulak Kahil,2607,Gurbuz,????,Khost,????,26
23467,23468,Yale POP_MASTER,GRB-053,,0,KST-GRB-053,177,Pashto,2,1459.227051,33.1403,69.9544,KST,GRB,Tere Khail,2607,Gurbuz,????,Khost,????,26
23468,23469,Yale POP_MASTER,GRB-033,,0,KST-GRB-033,2722,Pashto,2,1471.022949,33.1716,70.0133,KST,GRB,Mashi Kalay,2607,Gurbuz,????,Khost,????,26
23469,23470,Yale POP_MASTER,GRB-021,,0,KST-GRB-021,278,Pashto,2,1370.0820310000001,33.15,69.9824,KST,GRB,Kaifeyat Khan,2607,Gurbuz,????,Khost,????,26
23470,23471,Yale POP_MASTER,GRB-028,,0,KST-GRB-028,390,Pashto,2,1404.2719730000001,33.1443,69.9658,KST,GRB,Lage Khail,2607,Gurbuz,????,Khost,????,26
23471,23472,Yale POP_MASTER,GRB-050,,0,KST-GRB-050,183,Pashto,2,1460.350952,33.2327,70.0195,KST,GRB,Shobdar Kalay,2607,Gurbuz,????,Khost,????,26
23472,23473,Yale POP_MASTER,GRB-042,,0,KST-GRB-042,329,Pashto,2,1225.991943,33.2836,69.8735,KST,GRB,Sailuddin,2607,Gurbuz,????,Khost,????,26
23473,23474,Yale POP_MASTER,GRB-052,,0,KST-GRB-052,1843,Pashto,2,1408.369995,33.2362,70.007,KST,GRB,Tawdi Cheni,2607,Gurbuz,????,Khost,????,26
23474,23475,Yale POP_MASTER,GRB-015,,0,KST-GRB-015,117,Pashto,2,1358.2459720000002,33.256,70.0163,KST,GRB,Darwaza Gee,2607,Gurbuz,????,Khost,????,26
23475,23476,Yale POP_MASTER,GRB-012,,0,KST-GRB-012,235,Pashto,2,1316.838013,33.2253,69.9444,KST,GRB,Bori Bar Kalay,2607,Gurbuz,????,Khost,????,26
23476,23477,Yale POP_MASTER,GRB-032,,0,KST-GRB-032,525,Pashto,2,1191.083008,33.2982,69.9701,KST,GRB,Marmana Kalay,2607,Gurbuz,????,Khost,????,26
23477,23478,Yale POP_MASTER,GRB-027,,0,KST-GRB-027,1081,Pashto,2,1360.93103,33.2576,70.0076,KST,GRB,Konde Kalay,2607,Gurbuz,????,Khost,????,26
23478,23479,Yale POP_MASTER,GRB-038,,0,KST-GRB-038,201,Pashto,2,1246.4470210000002,33.2515,69.8946,KST,GRB,Omer Khan Kalay,2607,Gurbuz,????,Khost,????,26
23479,23480,Yale POP_MASTER,GRB-013,,0,KST-GRB-013,1646,Pashto,2,1279.04895,33.234,69.9225,KST,GRB,Bori Kalay,2607,Gurbuz,????,Khost,????,26
23480,23481,Yale POP_MASTER,GRB-010,,0,KST-GRB-010,383,Pashto,2,1234.206055,33.2657,69.9524,KST,GRB,Bag Khail Kalay,2607,Gurbuz,????,Khost,????,26
23481,23482,Yale POP_MASTER,GRB-025,,0,KST-GRB-025,318,Pashto,2,1224.880981,33.2677,69.8986,KST,GRB,Khan Kot Kalay,2607,Gurbuz,????,Khost,????,26
23482,23483,Yale POP_MASTER,GRB-008,,0,KST-GRB-008,501,Pashto,2,1193.75,33.2832,69.9189,KST,GRB,Asel Kalay,2607,Gurbuz,????,Khost,????,26
23483,23484,Yale POP_MASTER,GRB-055,,0,KST-GRB-055,1297,Pashto,2,1186.8959960000002,33.2985,69.9254,KST,GRB,Worow Kalay,2607,Gurbuz,????,Khost,????,26
23484,23485,Yale POP_MASTER,KHS-167,,0,KST-KHS-167,1042,Pashto,2,1193.838989,33.3029,69.9021,KST,KHS,Wazeyan,2601,Khost(Matun),( ????(????,Khost,????,26
23485,23486,Yale POP_MASTER,KHS-113,,0,KST-KHS-113,121,Pashto,2,1197.2969970000001,33.3061,69.9733,KST,KHS,Naikam Kunda,2601,Khost(Matun),( ????(????,Khost,????,26
23486,23487,Yale POP_MASTER,KHS-093,,0,KST-KHS-093,834,Pashto,2,1199.583008,33.2865,70.0086,KST,KHS,Maidani Kalay,2601,Khost(Matun),( ????(????,Khost,????,26
23487,23488,Yale POP_MASTER,KHS-161,,0,KST-KHS-161,2343,Pashto,2,1211.624023,33.3076,69.8667,KST,KHS,Toora Wari,2601,Khost(Matun),( ????(????,Khost,????,26
23488,23489,Yale POP_MASTER,KHS-139,,0,KST-KHS-139,187,Pashto,2,1206.974976,33.2964,69.8811,KST,KHS,Sahib Zada Gan,2601,Khost(Matun),( ????(????,Khost,????,26
23489,23490,Yale POP_MASTER,KHS-160,,0,KST-KHS-160,908,Pashto,2,1192.151001,33.309,69.8804,KST,KHS,Tarkho Kalay,2601,Khost(Matun),( ????(????,Khost,????,26
23490,23491,Yale POP_MASTER,KHS-105,,0,KST-KHS-105,342,Pashto,2,1186.196045,33.3031,69.9181,KST,KHS,Mir Khan,2601,Khost(Matun),( ????(????,Khost,????,26
23491,23492,Yale POP_MASTER,KHS-134,,0,KST-KHS-134,475,Pashto,2,1177.116943,33.3104,69.9206,KST,KHS,Pozai Khail,2601,Khost(Matun),( ????(????,Khost,????,26
23492,23493,Yale POP_MASTER,KHS-026,,0,KST-KHS-026,1187,Pashto,2,1181.088013,33.3075,69.9205,KST,KHS,Ali Daye,2601,Khost(Matun),( ????(????,Khost,????,26
23493,23494,Yale POP_MASTER,KHS-099,,0,KST-KHS-099,2684,Pashto,2,1182.141968,33.3129,69.8985,KST,KHS,Mardi Khail,2601,Khost(Matun),( ????(????,Khost,????,26
23494,23495,Yale POP_MASTER,KHS-066,,0,KST-KHS-066,593,Pashto,2,1186.594971,33.3018,69.8949,KST,KHS,Khader Kalay,2601,Khost(Matun),( ????(????,Khost,????,26
23495,23496,Yale POP_MASTER,KHS-130,,0,KST-KHS-130,447,Pashto,2,1203.1779789999998,33.2888,70.0519,KST,KHS,Pasla Pala,2601,Khost(Matun),( ????(????,Khost,????,26
23496,23497,Yale POP_MASTER,KHS-055,,0,KST-KHS-055,599,Pashto,2,1141.3480220000001,33.2998,70.038,KST,KHS,Ghazi Abad,2601,Khost(Matun),( ????(????,Khost,????,26
23497,23498,Yale POP_MASTER,TNI-127,,0,KST-TNI-127,580,Pashto,2,1237.715942,33.2692,69.8719,KST,TNI,Zahir Kalay,2606,Tani,???,Khost,????,26
23498,23499,Yale POP_MASTER,TNI-129,,0,KST-TNI-129,128,Pashto,2,1245.19104,33.2551,69.8906,KST,TNI,Zaren Kalay,2606,Tani,???,Khost,????,26
23499,23500,Yale POP_MASTER,TNI-061,,0,KST-TNI-061,323,Pashto,2,1247.411011,33.2599,69.8792,KST,TNI,Lahl Mohammad Kalay,2606,Tani,???,Khost,????,26
23500,23501,Yale POP_MASTER,TNI-092,,0,KST-TNI-092,163,Pashto,2,1233.515015,33.2806,69.865,KST,TNI,Per Samid,2606,Tani,???,Khost,????,26
23501,23502,Yale POP_MASTER,TNI-110,,0,KST-TNI-110,425,Pashto,2,1226.70105,33.2885,69.8645,KST,TNI,Soni Kalay,2606,Tani,???,Khost,????,26
23502,23503,Yale POP_MASTER,KHS-072,,0,KST-KHS-072,329,Pashto,2,1285.04895,33.2792,70.0585,KST,KHS,Kharsen,2601,Khost(Matun),( ????(????,Khost,????,26
23503,23504,CCI Field Team,TZY-050,,0,KST-TZY-050,783,Pashto,2,1075.493042,33.426947,70.060864,KST,TZY,Mata Khel,2608,Terezayi,??? ????,Khost,????,26
23504,23505,USAID AIDVillageView,TZY-001,,0,KST-TZY-001,0,Pashto,2,1077.982056,33.4305,70.0574,KST,TZY,Batakhel,2608,Terezayi,??? ????,Khost,????,26
23505,23506,CCI Field Team,TZY-048,,0,KST-TZY-048,514,Pashto,2,1082.276001,33.434272,70.06015500000001,KST,TZY,Manzai,2608,Terezayi,??? ????,Khost,????,26
23506,23507,USAID AIDVillageView,KHS-014,,0,KST-KHS-014,0,Pashto,2,1066.092041,33.373000000000005,70.047,KST,KHS,Peshi Kala,2601,Khost(Matun),( ????(????,Khost,????,26
23507,23508,USAID AIDVillageView,KHS-005,,0,KST-KHS-005,0,Pashto,2,1086.3220210000002,33.3193,70.053,KST,KHS,Khargay,2601,Khost(Matun),( ????(????,Khost,????,26
23508,23509,USAID AIDVillageView,KHS-012,,0,KST-KHS-012,0,Pashto,2,1077.977051,33.3755,70.0405,KST,KHS,Merzagul,2601,Khost(Matun),( ????(????,Khost,????,26
23509,23510,CCI Field Team,TZY-086,,0,KST-TZY-086,783,Pashto,2,1070.04895,33.428000000000004,70.0591,KST,TZY,Ziray Goway,2608,Terezayi,??? ????,Khost,????,26
23510,23511,CCI Field Team,TZY-002,,0,KST-TZY-002,0,Pashto,2,1065.706055,33.437036,70.071566,KST,TZY,Koz Belawat,2608,Terezayi,??? ????,Khost,????,26
23511,23512,USAID AIDVillageView,TZY-011,,0,KST-TZY-011,0,Pashto,2,1050.547974,33.4302,70.0823,KST,TZY,Kunji Kala,2608,Terezayi,??? ????,Khost,????,26
23512,23513,CCI Field Team,TZY-032,,0,KST-TZY-032,962,Pashto,2,1056.365967,33.437294,70.07879399999999,KST,TZY,Jrobay,2608,Terezayi,??? ????,Khost,????,26
23513,23514,CSO AIMS Villages (ACSOR),TZY-078,,0,KST-TZY-078,653,Pashto,2,1061.963989,33.4582,70.1218,KST,TZY,Kotagi (1),2608,Terezayi,??? ????,Khost,????,26
23514,23515,USAID AIDVillageView,TZY-007,,0,KST-TZY-007,0,Pashto,2,1137.850952,33.3892,70.2958,KST,TZY,Kadam Tana,2608,Terezayi,??? ????,Khost,????,26
