,OBJECTID,SOURCE,VIL_UID,CENTER,CNTR_CODE,AFG_UID,POPULATION,LANGUAGE_,LANG_CODE,ELEVATION,LAT_Y,LON_X,MISTI_PROV,MISTI_DIST,VILLAGE_NA,DIST_CODE,DIST_NA_EN,DIST_NA_DA,PROV_NA_EN,PROV_NA_DA,PROV_CODE
37626,37627,USAID AIDVillageView,NJB-004,,0,KAP-NJB-004,0,Dari,1,1794.932007,35.0181,69.6049,KAP,NJB,Darrah Kalan,202,Nejrab,?????,Kapisa,??????,2
37627,37628,USAID AIDVillageView,NJB-005,,0,KAP-NJB-005,0,Dari,1,1782.2049559999998,34.986999999999995,69.6531,KAP,NJB,Dawlatkhankhel,202,Nejrab,?????,Kapisa,??????,2
37628,37629,USAID AIDVillageView,NJB-006,,0,KAP-NJB-006,0,Dari,1,1796.277954,35.0135,69.6244,KAP,NJB,Dawlatkhel,202,Nejrab,?????,Kapisa,??????,2
37629,37630,USAID AIDVillageView,NJB-009,,0,KAP-NJB-009,0,Dari,1,2396.579102,35.1051,69.668,KAP,NJB,Jondara,202,Nejrab,?????,Kapisa,??????,2
37630,37631,USAID AIDVillageView,NJB-010,,0,KAP-NJB-010,0,Dari,1,2513.959961,35.1095,69.6212,KAP,NJB,Kandi Yaka,202,Nejrab,?????,Kapisa,??????,2
37631,37632,USAID AIDVillageView,NJB-011,,0,KAP-NJB-011,0,Dari,1,1859.3659670000002,34.9956,69.6625,KAP,NJB,Kayli,202,Nejrab,?????,Kapisa,??????,2
37632,37633,USAID AIDVillageView,NJB-013,,0,KAP-NJB-013,0,Dari,1,2453.096924,35.1095,69.6676,KAP,NJB,Koras,202,Nejrab,?????,Kapisa,??????,2
37633,37634,USAID AIDVillageView,NJB-016,,0,KAP-NJB-016,0,Dari,1,1996.5639649999998,35.0593,69.6124,KAP,NJB,Malekkhel,202,Nejrab,?????,Kapisa,??????,2
37634,37635,USAID AIDVillageView,NJB-018,,0,KAP-NJB-018,0,Dari,1,2221.1521,35.084,69.6019,KAP,NJB,Nisar,202,Nejrab,?????,Kapisa,??????,2
37635,37636,USAID AIDVillageView,NJB-020,,0,KAP-NJB-020,0,Dari,1,1961.439941,35.0547,69.6158,KAP,NJB,Qarya,202,Nejrab,?????,Kapisa,??????,2
37636,37637,USAID AIDVillageView,NJB-025,,0,KAP-NJB-025,0,Dari,1,1987.5909420000003,35.0509,69.6076,KAP,NJB,Zargaran,202,Nejrab,?????,Kapisa,??????,2
37637,37638,USAID AIDVillageView,NJB-026,,0,KAP-NJB-026,0,Dari,1,2038.557983,35.0607,69.5982,KAP,NJB,Zulmkhel,202,Nejrab,?????,Kapisa,??????,2
37638,37639,CSO AIMS Villages (ACSOR),NJB-027,,0,KAP-NJB-027,230,Dari,1,2147.0979,35.0711,69.60064,KAP,NJB,Chasht Kohi (1),202,Nejrab,?????,Kapisa,??????,2
37639,37640,CSO AIMS Villages (ACSOR),NJB-028,,0,KAP-NJB-028,1005,Dari,1,2135.125977,35.078509999999994,69.64556,KAP,NJB,Chasht Kohi (2),202,Nejrab,?????,Kapisa,??????,2
37640,37641,CSO AIMS Villages (ACSOR),NJB-029,,0,KAP-NJB-029,304,Dari,1,2118.583984,35.06436,69.58492,KAP,NJB,Haidar Khail (1),202,Nejrab,?????,Kapisa,??????,2
37641,37642,CSO AIMS Villages (ACSOR),NJB-033,,0,KAP-NJB-033,858,Dari,1,1809.7709960000002,35.00441,69.62422,KAP,NJB,Pashaye (1),202,Nejrab,?????,Kapisa,??????,2
37642,37643,CSO AIMS Villages (ACSOR),NJB-035,,0,KAP-NJB-035,329,Dari,1,2632.75293,35.07881,69.70902,KAP,NJB,Qalacha,202,Nejrab,?????,Kapisa,??????,2
37643,37644,Yale POP_MASTER,NJB-036,,0,KAP-NJB-036,187,Dari,1,2030.692993,35.0448,69.6542,KAP,NJB,Ab - Chashma,202,Nejrab,?????,Kapisa,??????,2
37644,37645,Yale POP_MASTER,NJB-038,,0,KAP-NJB-038,277,Dari,1,2250.5,35.0865,69.597,KAP,NJB,Abi Khail,202,Nejrab,?????,Kapisa,??????,2
37645,37646,Yale POP_MASTER,NJB-039,,0,KAP-NJB-039,160,Dari,1,2106.0830079999996,35.04,69.6602,KAP,NJB,Ahangaran,202,Nejrab,?????,Kapisa,??????,2
37657,37658,Yale POP_MASTER,NJB-040,,0,KAP-NJB-040,112,Dari,1,2532.243896,35.06,69.7132,KAP,NJB,Ahmad Khail Pushta,202,Nejrab,?????,Kapisa,??????,2
37658,37659,Yale POP_MASTER,NJB-041,,0,KAP-NJB-041,442,Dari,1,2231.150879,35.0951,69.649,KAP,NJB,Alyen,202,Nejrab,?????,Kapisa,??????,2
37659,37660,Yale POP_MASTER,NJB-044,,0,KAP-NJB-044,367,Dari,1,2316.430908,35.0606,69.6908,KAP,NJB,Asken,202,Nejrab,?????,Kapisa,??????,2
37660,37661,Yale POP_MASTER,NJB-045,,0,KAP-NJB-045,311,Dari,1,2495.481934,35.0676,69.71300000000001,KAP,NJB,Aspa Ghenach,202,Nejrab,?????,Kapisa,??????,2
37661,37662,Yale POP_MASTER,NJB-049,,0,KAP-NJB-049,457,Dari,1,1958.488037,35.0272,69.631,KAP,NJB,Ba Khana,202,Nejrab,?????,Kapisa,??????,2
37662,37663,Yale POP_MASTER,NJB-052,,0,KAP-NJB-052,437,Pashto,2,1733.2239989999998,34.9707,69.6551,KAP,NJB,Bachi Khail Hulya,202,Nejrab,?????,Kapisa,??????,2
37663,37664,Yale POP_MASTER,NJB-053,,0,KAP-NJB-053,1030,Hazaragi,8,1897.144043,34.997,69.6707,KAP,NJB,Bachi Khail Sufla,202,Nejrab,?????,Kapisa,??????,2
37664,37665,Yale POP_MASTER,NJB-054,,0,KAP-NJB-054,402,Dari,1,1826.1510010000002,35.0244,69.61,KAP,NJB,Badakhshi,202,Nejrab,?????,Kapisa,??????,2
37665,37666,Yale POP_MASTER,NJB-055,,0,KAP-NJB-055,369,Dari,1,1953.2480469999998,35.0372,69.6443,KAP,NJB,Bagh Aman,202,Nejrab,?????,Kapisa,??????,2
37666,37667,Yale POP_MASTER,NJB-056,,0,KAP-NJB-056,413,Dari,1,2160.568115,35.0503,69.6738,KAP,NJB,Bai Khail,202,Nejrab,?????,Kapisa,??????,2
37667,37668,Yale POP_MASTER,NJB-057,,0,KAP-NJB-057,293,Dari,1,2197.0859379999997,35.051,69.6807,KAP,NJB,Baje Khail,202,Nejrab,?????,Kapisa,??????,2
37668,37669,Yale POP_MASTER,NJB-059,,0,KAP-NJB-059,127,Dari,1,2419.909912,35.0397,69.6804,KAP,NJB,Baqa Khail,202,Nejrab,?????,Kapisa,??????,2
37669,37670,Yale POP_MASTER,NJB-060,,0,KAP-NJB-060,290,Dari,1,2180.480957,35.0804,69.6015,KAP,NJB,Cha Ha,202,Nejrab,?????,Kapisa,??????,2
37670,37671,Yale POP_MASTER,NJB-061,,0,KAP-NJB-061,91,Dari,1,2056.2739260000003,35.0452,69.6587,KAP,NJB,Cha Kunda,202,Nejrab,?????,Kapisa,??????,2
37671,37672,Yale POP_MASTER,NJB-062,,0,KAP-NJB-062,611,Dari,1,1968.668945,35.0465,69.6395,KAP,NJB,Char Sofa,202,Nejrab,?????,Kapisa,??????,2
37672,37673,Yale POP_MASTER,NJB-063,,0,KAP-NJB-063,511,Dari,1,2031.640015,35.0618,69.6423,KAP,NJB,Dahi Lashi,202,Nejrab,?????,Kapisa,??????,2
37673,37674,Yale POP_MASTER,NJB-064,,0,KAP-NJB-064,696,Dari,1,1841.939941,35.0301,69.6181,KAP,NJB,Dahi Now,202,Nejrab,?????,Kapisa,??????,2
37674,37675,Yale POP_MASTER,NJB-065,,0,KAP-NJB-065,863,Dari,1,1901.8840329999998,35.0393,69.6243,KAP,NJB,Dahi Qazi,202,Nejrab,?????,Kapisa,??????,2
37675,37676,Yale POP_MASTER,NJB-066,,0,KAP-NJB-066,989,Hazaragi,8,1675.8220210000002,34.9737,69.6383,KAP,NJB,Dakri,202,Nejrab,?????,Kapisa,??????,2
37676,37677,Yale POP_MASTER,NJB-067,,0,KAP-NJB-067,806,Dari,1,1768.787964,35.0135,69.6119,KAP,NJB,Dara Kalani,202,Nejrab,?????,Kapisa,??????,2
37677,37678,Yale POP_MASTER,NJB-068,,0,KAP-NJB-068,616,Dari,1,1795.003052,35.0202,69.6094,KAP,NJB,Dil Yar,202,Nejrab,?????,Kapisa,??????,2
37678,37679,Yale POP_MASTER,NJB-071,,0,KAP-NJB-071,348,Dari,1,2167.913086,35.0657,69.57600000000001,KAP,NJB,Dost Baik Khail,202,Nejrab,?????,Kapisa,??????,2
37679,37680,Yale POP_MASTER,NJB-072,,0,KAP-NJB-072,236,Dari,1,1789.218994,35.0161,69.6167,KAP,NJB,Dowlat Baik Khail,202,Nejrab,?????,Kapisa,??????,2
37680,37681,Yale POP_MASTER,NJB-073,,0,KAP-NJB-073,1457,Hazaragi,8,1738.7559809999998,34.9806,69.6434,KAP,NJB,Dowlat Khan Khail,202,Nejrab,?????,Kapisa,??????,2
37681,37682,Yale POP_MASTER,NJB-074,,0,KAP-NJB-074,391,Dari,1,2119.4060059999997,35.0704,69.6369,KAP,NJB,Eas Kalay,202,Nejrab,?????,Kapisa,??????,2
37682,37683,Yale POP_MASTER,NJB-075,,0,KAP-NJB-075,109,Dari,1,2066.850098,35.061,69.593,KAP,NJB,Farakhshah Khail,202,Nejrab,?????,Kapisa,??????,2
37683,37684,Yale POP_MASTER,NJB-076,,0,KAP-NJB-076,718,Dari,1,1929.703979,35.0479,69.6134,KAP,NJB,Farya,202,Nejrab,?????,Kapisa,??????,2
37684,37685,Yale POP_MASTER,NJB-077,,0,KAP-NJB-077,562,Dari,1,2291.465088,35.1009,69.654,KAP,NJB,Farze,202,Nejrab,?????,Kapisa,??????,2
37685,37686,Yale POP_MASTER,NJB-079,,0,KAP-NJB-079,178,Dari,1,1963.660034,35.0477,69.6376,KAP,NJB,Gal Yan,202,Nejrab,?????,Kapisa,??????,2
37686,37687,Yale POP_MASTER,NJB-081,,0,KAP-NJB-081,384,Dari,1,2020.803955,35.0565,69.6325,KAP,NJB,Gaman Dok,202,Nejrab,?????,Kapisa,??????,2
39174,39175,Yale POP_MASTER,MRI-020,,0,KAP-MRI-020,782,Pashto,2,1379.939941,34.9398,69.4466,KAP,MRI,Dayengak,201,Mahmud-e- Raqi,????? ????,Kapisa,??????,2
39175,39176,Yale POP_MASTER,MRI-025,,0,KAP-MRI-025,1179,Pashto,2,1389.107056,34.9507,69.4228,KAP,MRI,Halyas Khail,201,Mahmud-e- Raqi,????? ????,Kapisa,??????,2
39176,39177,Yale POP_MASTER,MRI-035,,0,KAP-MRI-035,295,Pashto,2,1384.182007,34.9426,69.4305,KAP,MRI,Mayen Qoul,201,Mahmud-e- Raqi,????? ????,Kapisa,??????,2
39467,39468,USAID AIDVillageView,TG2-002,,0,KAP-TG2-002,0,Pashto,2,1292.822998,34.692,69.7133,KAP,TG2,Anjiran,205,Tagab,????,Kapisa,??????,2
39577,39578,Yale POP_MASTER,TG2-045,,0,KAP-TG2-045,190,Pashto,2,1141.998047,34.6782,69.7014,KAP,TG2,Chena,205,Tagab,????,Kapisa,??????,2
39578,39579,Yale POP_MASTER,TG2-055,,0,KAP-TG2-055,149,Pashto,2,1141.866943,34.6845,69.6773,KAP,TG2,Gado Chena,205,Tagab,????,Kapisa,??????,2
39579,39580,Yale POP_MASTER,TG2-060,,0,KAP-TG2-060,368,Pashto,2,1443.876953,34.726,69.7323,KAP,TG2,Gon,205,Tagab,????,Kapisa,??????,2
39580,39581,Yale POP_MASTER,TG2-071,,0,KAP-TG2-071,847,Pashto,2,1073.155029,34.6753,69.6887,KAP,TG2,Kam Shenkai,205,Tagab,????,Kapisa,??????,2
39581,39582,Yale POP_MASTER,TG2-087,,0,KAP-TG2-087,781,Pashto,2,1148.3480220000001,34.7027,69.6845,KAP,TG2,Lowi Shanki,205,Tagab,????,Kapisa,??????,2
39582,39583,Yale POP_MASTER,TG2-114,,0,KAP-TG2-114,156,Pashto,2,1121.671021,34.6889,69.6861,KAP,TG2,Sahib Zada Khail (1),205,Tagab,????,Kapisa,??????,2
39741,39742,USAID AIDVillageView,NJB-001,,0,KAP-NJB-001,0,Pashto,2,1566.930054,34.943000000000005,69.6076,KAP,NJB,Abdulkhel,202,Nejrab,?????,Kapisa,??????,2
39742,39743,USAID AIDVillageView,NJB-002,,0,KAP-NJB-002,0,Pashto,2,1621.3969730000001,34.9659,69.623,KAP,NJB,Afghanya,202,Nejrab,?????,Kapisa,??????,2
39743,39744,USAID AIDVillageView,NJB-017,,0,KAP-NJB-017,0,Pashto,2,1713.406982,34.9806,69.5678,KAP,NJB,Nijrab,202,Nejrab,?????,Kapisa,??????,2
39744,39745,USAID AIDVillageView,NJB-021,,0,KAP-NJB-021,0,Pashto,2,1669.077026,34.9731,69.5959,KAP,NJB,Sinza'i,202,Nejrab,?????,Kapisa,??????,2
39745,39746,USAID AIDVillageView,NJB-022,,0,KAP-NJB-022,0,Pashto,2,1662.217041,34.9868,69.5974,KAP,NJB,Toghak Doghabad,202,Nejrab,?????,Kapisa,??????,2
39746,39747,USAID AIDVillageView,NJB-023,,0,KAP-NJB-023,0,Pashto,2,1560.160034,34.9415,69.6113,KAP,NJB,Torkhel,202,Nejrab,?????,Kapisa,??????,2
39747,39748,USAID AIDVillageView,NJB-024,,0,KAP-NJB-024,0,Pashto,2,1605.239014,34.9494,69.619,KAP,NJB,Walikhankhel,202,Nejrab,?????,Kapisa,??????,2
39748,39749,CSO AIMS Villages (ACSOR),NJB-030,,0,KAP-NJB-030,1221,Pashto,2,1656.380005,34.967040000000004,69.63608,KAP,NJB,Haidar Khail (2),202,Nejrab,?????,Kapisa,??????,2
39749,39750,Yale POP_MASTER,NJB-037,,0,KAP-NJB-037,2822,Pashto,2,1576.724976,34.9491,69.6043,KAP,NJB,Abdul Khail,202,Nejrab,?????,Kapisa,??????,2
39750,39751,Yale POP_MASTER,NJB-042,,0,KAP-NJB-042,1145,Dari,1,1630.084961,34.9769,69.5793,KAP,NJB,Arbab Khail,202,Nejrab,?????,Kapisa,??????,2
39751,39752,Yale POP_MASTER,NJB-046,,0,KAP-NJB-046,1421,Pashto,2,1576.040039,34.9595,69.6007,KAP,NJB,Aspa Khail,202,Nejrab,?????,Kapisa,??????,2
39752,39753,Yale POP_MASTER,NJB-070,,0,KAP-NJB-070,919,Pashto,2,1650.355957,34.9856,69.5882,KAP,NJB,Dogh Abad,202,Nejrab,?????,Kapisa,??????,2
39753,39754,Yale POP_MASTER,NJB-078,,0,KAP-NJB-078,2280,Pashto,2,1634.748047,34.9609,69.6346,KAP,NJB,Feroz Zai,202,Nejrab,?????,Kapisa,??????,2
40337,40338,USAID AIDVillageView,KBD-001,,0,KAP-KBD-001,0,Pashai,6,2058.196045,35.1228,69.4291,KAP,KBD,Aramghay,203,Kohband,??? ???,Kapisa,??????,2
40338,40339,USAID AIDVillageView,KBD-002,,0,KAP-KBD-002,0,Pashai,6,2067.888916,35.0698,69.5006,KAP,KBD,Durnama (2),203,Kohband,??? ???,Kapisa,??????,2
40339,40340,USAID AIDVillageView,KBD-007,,0,KAP-KBD-007,0,Pashai,6,1986.9360350000002,35.1116,69.4352,KAP,KBD,Shirinkhel,203,Kohband,??? ???,Kapisa,??????,2
40340,40341,Yale POP_MASTER,KBD-009,,0,KAP-KBD-009,228,Pashai,6,1945.7840579999997,35.1042,69.4422,KAP,KBD,Ahangaran Ya Lahl Khail,203,Kohband,??? ???,Kapisa,??????,2
40341,40342,Yale POP_MASTER,KBD-010,,0,KAP-KBD-010,926,Pashai,6,1827.5419920000002,35.0997,69.429,KAP,KBD,Arab Khail,203,Kohband,??? ???,Kapisa,??????,2
40342,40343,Yale POP_MASTER,KBD-011,,0,KAP-KBD-011,354,Pashai,6,1839.6230469999998,35.1146,69.4091,KAP,KBD,Aram Gai Ya Nowroz Khail,203,Kohband,??? ???,Kapisa,??????,2
40343,40344,Yale POP_MASTER,KBD-012,,0,KAP-KBD-012,658,Pashai,6,1929.89502,35.1176,69.419,KAP,KBD,Aram Kot Hulya,203,Kohband,??? ???,Kapisa,??????,2
40344,40345,Yale POP_MASTER,KBD-013,,0,KAP-KBD-013,339,Pashai,6,1954.7950440000002,35.1209,69.4181,KAP,KBD,Aram Kot Sufla,203,Kohband,??? ???,Kapisa,??????,2
40345,40346,Yale POP_MASTER,KBD-015,,0,KAP-KBD-015,120,Pashai,6,1844.071045,35.1007,69.4322,KAP,KBD,Baki Khail,203,Kohband,??? ???,Kapisa,??????,2
40346,40347,Yale POP_MASTER,KBD-016,,0,KAP-KBD-016,170,Pashai,6,2170.27002,35.1296,69.4574,KAP,KBD,Chap Dara,203,Kohband,??? ???,Kapisa,??????,2
40347,40348,Yale POP_MASTER,KBD-019,,0,KAP-KBD-019,111,Pashai,6,2496.626953,35.1189,69.4607,KAP,KBD,Ghair Khail,203,Kohband,??? ???,Kapisa,??????,2
40348,40349,Yale POP_MASTER,KBD-020,,0,KAP-KBD-020,309,Pashai,6,1838.542969,35.1077,69.4245,KAP,KBD,Haji Khail,203,Kohband,??? ???,Kapisa,??????,2
40349,40350,Yale POP_MASTER,KBD-021,,0,KAP-KBD-021,316,Pashai,6,1991.703003,35.114000000000004,69.4255,KAP,KBD,Jaro Khail,203,Kohband,??? ???,Kapisa,??????,2
40350,40351,Yale POP_MASTER,KBD-022,,0,KAP-KBD-022,286,Pashai,6,2047.707031,35.0881,69.4358,KAP,KBD,Kacho,203,Kohband,??? ???,Kapisa,??????,2
40351,40352,Yale POP_MASTER,KBD-023,,0,KAP-KBD-023,380,Dari,1,1831.30896,35.0863,69.4477,KAP,KBD,Kham,203,Kohband,??? ???,Kapisa,??????,2
40352,40353,Yale POP_MASTER,KBD-024,,0,KAP-KBD-024,600,Pashai,6,2104.280029,35.1033,69.4643,KAP,KBD,Kotaly,203,Kohband,??? ???,Kapisa,??????,2
40353,40354,Yale POP_MASTER,KBD-026,,0,KAP-KBD-026,516,Pashai,6,2480.525879,35.119,69.4715,KAP,KBD,Malang Khail,203,Kohband,??? ???,Kapisa,??????,2
40354,40355,Yale POP_MASTER,KBD-027,,0,KAP-KBD-027,913,Pashai,6,2045.95105,35.0951,69.4843,KAP,KBD,Malikar Hulya,203,Kohband,??? ???,Kapisa,??????,2
40355,40356,Yale POP_MASTER,KBD-028,,0,KAP-KBD-028,1009,Pashai,6,1926.004028,35.086,69.4733,KAP,KBD,Malikar Sufla,203,Kohband,??? ???,Kapisa,??????,2
40356,40357,Yale POP_MASTER,KBD-030,,0,KAP-KBD-030,114,Pashai,6,1828.994995,35.1047,69.4281,KAP,KBD,Monawar Khail,203,Kohband,??? ???,Kapisa,??????,2
40357,40358,Yale POP_MASTER,KBD-031,,0,KAP-KBD-031,295,Pashai,6,2225.934082,35.1191,69.4399,KAP,KBD,Moqam Khail,203,Kohband,??? ???,Kapisa,??????,2
40358,40359,Yale POP_MASTER,KBD-032,,0,KAP-KBD-032,505,Pashai,6,2242.197021,35.0744,69.5129,KAP,KBD,Noor Ali Khail,203,Kohband,??? ???,Kapisa,??????,2
40359,40360,Yale POP_MASTER,KBD-034,,0,KAP-KBD-034,103,Pashai,6,1826.339966,35.1088,69.4155,KAP,KBD,Qala Mirza Mir,203,Kohband,??? ???,Kapisa,??????,2
40360,40361,Yale POP_MASTER,KBD-036,,0,KAP-KBD-036,138,Pashai,6,1911.165039,35.1077,69.4426,KAP,KBD,Rahmat Khail,203,Kohband,??? ???,Kapisa,??????,2
40361,40362,Yale POP_MASTER,KBD-037,,0,KAP-KBD-037,381,Pashai,6,1974.3680420000003,35.0612,69.4962,KAP,KBD,Sayid Khan Khail,203,Kohband,??? ???,Kapisa,??????,2
40362,40363,Yale POP_MASTER,KBD-038,,0,KAP-KBD-038,365,Pashai,6,2095.165039,35.0977,69.4494,KAP,KBD,Shah Madad Khail,203,Kohband,??? ???,Kapisa,??????,2
40363,40364,Yale POP_MASTER,KBD-039,,0,KAP-KBD-039,379,Pashai,6,2230.5310059999997,35.0973,69.4584,KAP,KBD,Shairam Khail,203,Kohband,??? ???,Kapisa,??????,2
40364,40365,Yale POP_MASTER,KBD-040,,0,KAP-KBD-040,378,Pashai,6,2050.0979,35.1214,69.4536,KAP,KBD,Shawaq,203,Kohband,??? ???,Kapisa,??????,2
40365,40366,Yale POP_MASTER,KBD-041,,0,KAP-KBD-041,187,Pashai,6,1915.410034,35.0935,69.4432,KAP,KBD,Shena Aka Khail,203,Kohband,??? ???,Kapisa,??????,2
40366,40367,Yale POP_MASTER,KBD-042,,0,KAP-KBD-042,1150,Pashai,6,2217.094971,35.071999999999996,69.5114,KAP,KBD,Sherin Shahy Dornama,203,Kohband,??? ???,Kapisa,??????,2
40367,40368,Yale POP_MASTER,KBD-043,,0,KAP-KBD-043,285,Pashai,6,1907.719971,35.0914,69.4514,KAP,KBD,Shofa Chay,203,Kohband,??? ???,Kapisa,??????,2
40368,40369,Yale POP_MASTER,KBD-044,,0,KAP-KBD-044,646,Pashai,6,1846.891968,35.0963,69.4346,KAP,KBD,Showani,203,Kohband,??? ???,Kapisa,??????,2
40369,40370,Yale POP_MASTER,KBD-045,,0,KAP-KBD-045,396,Pashai,6,1996.667969,35.1066,69.4539,KAP,KBD,Sorkh,203,Kohband,??? ???,Kapisa,??????,2
40370,40371,Yale POP_MASTER,KBD-046,,0,KAP-KBD-046,256,Pashai,6,2217.159912,35.0992,69.4538,KAP,KBD,Tamas Khail,203,Kohband,??? ???,Kapisa,??????,2
40371,40372,Yale POP_MASTER,KBD-047,,0,KAP-KBD-047,998,Pashai,6,1811.834961,35.0825,69.459,KAP,KBD,Turbat,203,Kohband,??? ???,Kapisa,??????,2
40372,40373,Yale POP_MASTER,KBD-048,,0,KAP-KBD-048,21018,Pashai,6,1805.7950440000002,35.1029,69.4236,KAP,KBD,Hajikhel,203,Kohband,??? ???,Kapisa,??????,2
40373,40374,Yale POP_MASTER,KBD-049,District,1,KAP-KBD-049,200,Pashai,6,1973.7519530000002,35.0893,69.4777,KAP,KBD,Koh Band,203,Kohband,??? ???,Kapisa,??????,2
40432,40433,USAID AIDVillageView,ALY-069,,0,KAP-ALY-069,0,Pashai,6,2669.729004,34.9135,69.8661,KAP,ALY,Qal'eh,206,Alasay,??? ???,Kapisa,??????,2
40433,40434,USAID AIDVillageView,ALY-065,,0,KAP-ALY-065,0,Pashai,6,2043.7590329999998,34.8884,69.7815,KAP,ALY,Jana Gul (2),206,Alasay,??? ???,Kapisa,??????,2
40434,40435,USAID AIDVillageView,ALY-068,,0,KAP-ALY-068,0,Pashai,6,2696.75708,34.9443,69.8162,KAP,ALY,Par'ush,206,Alasay,??? ???,Kapisa,??????,2
40440,40441,Yale POP_MASTER,TG2-032,,0,KAP-TG2-032,770,Pashai,6,2199.981934,34.8223,69.8284,KAP,TG2,Ala Dost Khail,205,Tagab,????,Kapisa,??????,2
40441,40442,Yale POP_MASTER,TG2-080,,0,KAP-TG2-080,123,Pashai,6,2209.633057,34.8243,69.8248,KAP,TG2,Kote (khosha),205,Tagab,????,Kapisa,??????,2
40442,40443,Yale POP_MASTER,TG2-081,,0,KAP-TG2-081,342,Pashai,6,2280.5778809999997,34.828,69.8337,KAP,TG2,Koti Delorwan,205,Tagab,????,Kapisa,??????,2
40443,40444,Yale POP_MASTER,ALY-042,,0,KAP-ALY-042,90,Pashai,6,2655.427979,34.9093,69.8574,KAP,ALY,Martan,206,Alasay,??? ???,Kapisa,??????,2
40444,40445,Yale POP_MASTER,ALY-045,,0,KAP-ALY-045,113,Pashai,6,2492.917969,34.8857,69.843,KAP,ALY,Necha Lam,206,Alasay,??? ???,Kapisa,??????,2
40445,40446,Yale POP_MASTER,ALY-048,,0,KAP-ALY-048,334,Pashai,6,2197.9729,34.8923,69.8008,KAP,ALY,Pacha Qoum,206,Alasay,??? ???,Kapisa,??????,2
40446,40447,Yale POP_MASTER,ALY-049,,0,KAP-ALY-049,631,Pashai,6,2210.197998,34.8594,69.8095,KAP,ALY,Pai Lam,206,Alasay,??? ???,Kapisa,??????,2
40447,40448,Yale POP_MASTER,ALY-051,,0,KAP-ALY-051,732,Pashai,6,2667.659912,34.9142,69.8712,KAP,ALY,Qala Nashir Wa Paitow,206,Alasay,??? ???,Kapisa,??????,2
40448,40449,Yale POP_MASTER,ALY-052,,0,KAP-ALY-052,730,Pashai,6,2385.4838870000003,34.8856,69.8324,KAP,ALY,Sabir Jal,206,Alasay,??? ???,Kapisa,??????,2
40449,40450,Yale POP_MASTER,ALY-005,,0,KAP-ALY-005,372,Pashai,6,2753.455078,34.893,69.862,KAP,ALY,Alka Khail,206,Alasay,??? ???,Kapisa,??????,2
40450,40451,Yale POP_MASTER,ALY-009,,0,KAP-ALY-009,353,Pashai,6,2483.678955,34.8714,69.82600000000001,KAP,ALY,Bashi Khail,206,Alasay,??? ???,Kapisa,??????,2
40451,40452,Yale POP_MASTER,ALY-012,,0,KAP-ALY-012,480,Pashai,6,2251.3911129999997,34.895,69.8052,KAP,ALY,Damkazawar,206,Alasay,??? ???,Kapisa,??????,2
40452,40453,Yale POP_MASTER,ALY-014,,0,KAP-ALY-014,318,Pashai,6,2503.314941,34.8876,69.8467,KAP,ALY,Dara Ta,206,Alasay,??? ???,Kapisa,??????,2
40453,40454,Yale POP_MASTER,ALY-015,,0,KAP-ALY-015,955,Pashai,6,2534.378906,34.9002,69.8584,KAP,ALY,Dawa Khail,206,Alasay,??? ???,Kapisa,??????,2
40454,40455,Yale POP_MASTER,ALY-017,,0,KAP-ALY-017,479,Pashai,6,2465.279053,34.8823,69.8408,KAP,ALY,Eail Dailak,206,Alasay,??? ???,Kapisa,??????,2
40455,40456,Yale POP_MASTER,ALY-018,,0,KAP-ALY-018,375,Pashai,6,2531.387939,34.8963,69.8487,KAP,ALY,Gachem Khanda,206,Alasay,??? ???,Kapisa,??????,2
40456,40457,Yale POP_MASTER,ALY-019,,0,KAP-ALY-019,327,Pashai,6,2589.684082,34.9019,69.8529,KAP,ALY,Gastar Khail,206,Alasay,??? ???,Kapisa,??????,2
40457,40458,Yale POP_MASTER,ALY-020,,0,KAP-ALY-020,352,Pashai,6,2350.677002,34.8774,69.8228,KAP,ALY,Gonbad,206,Alasay,??? ???,Kapisa,??????,2
40458,40459,Yale POP_MASTER,ALY-055,,0,KAP-ALY-055,144,Pashai,6,2359.665039,34.8802,69.8311,KAP,ALY,Saraye,206,Alasay,??? ???,Kapisa,??????,2
40459,40460,Yale POP_MASTER,ALY-059,,0,KAP-ALY-059,119,Pashai,6,2482.638916,34.8918,69.8467,KAP,ALY,Shata Gadar,206,Alasay,??? ???,Kapisa,??????,2
40460,40461,Yale POP_MASTER,ALY-002,,0,KAP-ALY-002,482,Pashai,6,2358.1721190000003,34.8747,69.8194,KAP,ALY,Adeyna Khail,206,Alasay,??? ???,Kapisa,??????,2
40461,40462,Yale POP_MASTER,ALY-027,,0,KAP-ALY-027,66,Pashai,6,2177.0,34.8446,69.8047,KAP,ALY,Kala Teri,206,Alasay,??? ???,Kapisa,??????,2
40462,40463,Yale POP_MASTER,ALY-029,,0,KAP-ALY-029,605,Pashai,6,2646.5629879999997,34.9052,69.8533,KAP,ALY,Kati Lam,206,Alasay,??? ???,Kapisa,??????,2
40463,40464,Yale POP_MASTER,ALY-031,,0,KAP-ALY-031,276,Pashai,6,2265.1489260000003,34.8619,69.8166,KAP,ALY,Kundah,206,Alasay,??? ???,Kapisa,??????,2
40464,40465,Yale POP_MASTER,ALY-034,,0,KAP-ALY-034,716,Pashai,6,1851.5999760000002,34.917,69.7529,KAP,ALY,Lamya,206,Alasay,??? ???,Kapisa,??????,2
40465,40466,Yale POP_MASTER,ALY-036,,0,KAP-ALY-036,105,Pashto,2,1748.480957,34.8967,69.7425,KAP,ALY,Londi Hulya,206,Alasay,??? ???,Kapisa,??????,2
40466,40467,Yale POP_MASTER,ALY-037,,0,KAP-ALY-037,118,Pashai,6,1826.56604,34.8935,69.7485,KAP,ALY,Londi Sufla,206,Alasay,??? ???,Kapisa,??????,2
40467,40468,Yale POP_MASTER,ALY-038,,0,KAP-ALY-038,685,Pashai,6,2394.136963,34.9641,69.7841,KAP,ALY,Mahsom Khail Hulya,206,Alasay,??? ???,Kapisa,??????,2
40468,40469,Yale POP_MASTER,ALY-039,,0,KAP-ALY-039,600,Pashai,6,2154.271973,34.9561,69.7793,KAP,ALY,Mahsom Khail Sufla,206,Alasay,??? ???,Kapisa,??????,2
40469,40470,Yale POP_MASTER,ALY-043,,0,KAP-ALY-043,668,Pashai,6,2049.781982,34.9508,69.7647,KAP,ALY,Miraly Khail,206,Alasay,??? ???,Kapisa,??????,2
40470,40471,Yale POP_MASTER,ALY-044,,0,KAP-ALY-044,1282,Pashai,6,2029.319946,34.8891,69.7778,KAP,ALY,Miran Khail,206,Alasay,??? ???,Kapisa,??????,2
40471,40472,Yale POP_MASTER,ALY-047,,0,KAP-ALY-047,602,Pashai,6,2337.575928,34.9504,69.7934,KAP,ALY,Now Abad,206,Alasay,??? ???,Kapisa,??????,2
40472,40473,Yale POP_MASTER,ALY-050,,0,KAP-ALY-050,500,Pashai,6,1954.9780269999999,34.9406,69.7565,KAP,ALY,Payel,206,Alasay,??? ???,Kapisa,??????,2
40473,40474,Yale POP_MASTER,ALY-053,,0,KAP-ALY-053,990,Pashto,2,1686.662964,34.9075,69.7326,KAP,ALY,Sadiqan,206,Alasay,??? ???,Kapisa,??????,2
40474,40475,Yale POP_MASTER,ALY-007,,0,KAP-ALY-007,887,Pashai,6,1785.8680420000003,34.9262,69.7403,KAP,ALY,Awala Sat,206,Alasay,??? ???,Kapisa,??????,2
40475,40476,Yale POP_MASTER,ALY-011,,0,KAP-ALY-011,770,Pashai,6,1965.1040039999998,34.9469,69.7575,KAP,ALY,Chora Khail,206,Alasay,??? ???,Kapisa,??????,2
40476,40477,Yale POP_MASTER,ALY-054,,0,KAP-ALY-054,631,Pashai,6,2288.459961,34.902,69.7912,KAP,ALY,Sar Kader,206,Alasay,??? ???,Kapisa,??????,2
40477,40478,Yale POP_MASTER,ALY-062,,0,KAP-ALY-062,1409,Pashai,6,2085.3129879999997,34.9453,69.7646,KAP,ALY,Tangi Khail,206,Alasay,??? ???,Kapisa,??????,2
40478,40479,Yale POP_MASTER,ALY-063,,0,KAP-ALY-063,204,Pashai,6,1909.312988,34.9365,69.747,KAP,ALY,Warna Kunda,206,Alasay,??? ???,Kapisa,??????,2
40479,40480,Yale POP_MASTER,ALY-023,,0,KAP-ALY-023,529,Pashai,6,2388.387939,34.969,69.7912,KAP,ALY,Jahi Khail,206,Alasay,??? ???,Kapisa,??????,2
40480,40481,Yale POP_MASTER,ALY-024,,0,KAP-ALY-024,166,Pashai,6,1741.602051,34.8992,69.7395,KAP,ALY,Jana Gul (1),206,Alasay,??? ???,Kapisa,??????,2
40481,40482,Yale POP_MASTER,ALY-025,,0,KAP-ALY-025,266,Pashai,6,1722.397949,34.9179,69.7342,KAP,ALY,Janka Sat,206,Alasay,??? ???,Kapisa,??????,2
40482,40483,Yale POP_MASTER,ALY-026,,0,KAP-ALY-026,11237,Pashai,6,2409.444092,34.9655,69.8102,KAP,ALY,Kafar Now,206,Alasay,??? ???,Kapisa,??????,2
40483,40484,Yale POP_MASTER,ALY-028,,0,KAP-ALY-028,269,Pashai,6,1698.78894,34.9129,69.7347,KAP,ALY,Kalan Sat,206,Alasay,??? ???,Kapisa,??????,2
40484,40485,Yale POP_MASTER,ALY-030,,0,KAP-ALY-030,97,Pashai,6,2026.390015,34.8842,69.7562,KAP,ALY,Kordak,206,Alasay,??? ???,Kapisa,??????,2
40719,40720,Yale POP_MASTER,NJB-082,,0,KAP-NJB-082,590,Pashto,2,1864.562012,35.0154,69.5088,KAP,NJB,Gayawa Payen,202,Nejrab,?????,Kapisa,??????,2
40720,40721,Yale POP_MASTER,NJB-083,,0,KAP-NJB-083,926,Dari,1,2170.9609379999997,35.0849,69.6476,KAP,NJB,Gelay,202,Nejrab,?????,Kapisa,??????,2
40721,40722,Yale POP_MASTER,NJB-085,,0,KAP-NJB-085,200,Dari,1,2539.9609379999997,35.0635,69.7165,KAP,NJB,Ghan - Dara,202,Nejrab,?????,Kapisa,??????,2
40722,40723,Yale POP_MASTER,NJB-087,,0,KAP-NJB-087,2461,Pashto,2,1747.241943,34.9653,69.6533,KAP,NJB,Ghayen Payen,202,Nejrab,?????,Kapisa,??????,2
40723,40724,Yale POP_MASTER,NJB-088,,0,KAP-NJB-088,141,Dari,1,1814.168945,35.0213,69.6192,KAP,NJB,Ghazi Baik Khail,202,Nejrab,?????,Kapisa,??????,2
40724,40725,Yale POP_MASTER,NJB-089,,0,KAP-NJB-089,141,Dari,1,2297.725098,35.0551,69.691,KAP,NJB,Ghazi Baik Khail,202,Nejrab,?????,Kapisa,??????,2
40725,40726,Yale POP_MASTER,NJB-090,,0,KAP-NJB-090,160,Dari,1,2118.035889,35.0407,69.6651,KAP,NJB,Ghojan,202,Nejrab,?????,Kapisa,??????,2
40726,40727,Yale POP_MASTER,NJB-091,,0,KAP-NJB-091,135,Dari,1,2150.354004,35.0446,69.6761,KAP,NJB,Ghowara,202,Nejrab,?????,Kapisa,??????,2
40727,40728,Yale POP_MASTER,NJB-092,,0,KAP-NJB-092,337,Dari,1,2102.9140629999997,35.0559,69.5938,KAP,NJB,Golko Khail,202,Nejrab,?????,Kapisa,??????,2
40728,40729,Yale POP_MASTER,NJB-094,,0,KAP-NJB-094,271,Dari,1,2106.454102,35.0489,69.6648,KAP,NJB,Haji Khail,202,Nejrab,?????,Kapisa,??????,2
40729,40730,Yale POP_MASTER,NJB-096,,0,KAP-NJB-096,595,Dari,1,2496.616943,35.1167,69.6709,KAP,NJB,Harara Ya Laysa,202,Nejrab,?????,Kapisa,??????,2
40730,40731,Yale POP_MASTER,NJB-098,,0,KAP-NJB-098,855,Dari,1,2591.839111,35.0987,69.6748,KAP,NJB,Hawara,202,Nejrab,?????,Kapisa,??????,2
40731,40732,Yale POP_MASTER,NJB-099,,0,KAP-NJB-099,399,Dari,1,2318.704102,35.0924,69.5928,KAP,NJB,Hayar Khail Hulya,202,Nejrab,?????,Kapisa,??????,2
40732,40733,Yale POP_MASTER,NJB-100,,0,KAP-NJB-100,547,Dari,1,2003.2679440000002,35.0575,69.6052,KAP,NJB,Hayar Khail Sufla,202,Nejrab,?????,Kapisa,??????,2
40733,40734,Yale POP_MASTER,NJB-102,,0,KAP-NJB-102,629,Dari,1,2091.646973,35.0664,69.6079,KAP,NJB,Ibrahim Khail,202,Nejrab,?????,Kapisa,??????,2
40734,40735,Yale POP_MASTER,NJB-104,,0,KAP-NJB-104,279,Dari,1,2076.5271,35.0493,69.6589,KAP,NJB,Jan Baba Khail,202,Nejrab,?????,Kapisa,??????,2
40735,40736,Yale POP_MASTER,NJB-106,,0,KAP-NJB-106,504,Dari,1,1752.071045,35.0059,69.612,KAP,NJB,Jar Feroz,202,Nejrab,?????,Kapisa,??????,2
40736,40737,Yale POP_MASTER,NJB-107,,0,KAP-NJB-107,199,Dari,1,1995.975952,35.041,69.6499,KAP,NJB,Jembogh,202,Nejrab,?????,Kapisa,??????,2
40737,40738,Yale POP_MASTER,NJB-108,,0,KAP-NJB-108,590,Dari,1,1711.282959,34.9965,69.6078,KAP,NJB,Jor Ghal,202,Nejrab,?????,Kapisa,??????,2
40738,40739,Yale POP_MASTER,NJB-109,,0,KAP-NJB-109,367,Dari,1,2078.324951,35.0466,69.6622,KAP,NJB,Kaka Khail,202,Nejrab,?????,Kapisa,??????,2
40739,40740,Yale POP_MASTER,NJB-110,,0,KAP-NJB-110,900,Dari,1,1854.4909670000002,35.0118,69.5642,KAP,NJB,Kalawat,202,Nejrab,?????,Kapisa,??????,2
40740,40741,Yale POP_MASTER,NJB-111,,0,KAP-NJB-111,177,Dari,1,2106.9609379999997,35.0706,69.645,KAP,NJB,Kaman Garan,202,Nejrab,?????,Kapisa,??????,2
40741,40742,Yale POP_MASTER,NJB-112,,0,KAP-NJB-112,636,Dari,1,1921.1459960000002,35.0386,69.6345,KAP,NJB,Kamsar,202,Nejrab,?????,Kapisa,??????,2
40742,40743,Yale POP_MASTER,NJB-113,,0,KAP-NJB-113,1072,Dari,1,2058.909912,35.044000000000004,69.601,KAP,NJB,Kayar,202,Nejrab,?????,Kapisa,??????,2
40743,40744,Yale POP_MASTER,NJB-114,,0,KAP-NJB-114,286,Dari,1,2051.4760739999997,35.064,69.6014,KAP,NJB,Kharo Khail,202,Nejrab,?????,Kapisa,??????,2
40744,40745,Yale POP_MASTER,NJB-115,,0,KAP-NJB-115,396,Dari,1,2113.8129879999997,35.0706,69.6072,KAP,NJB,Khorastan,202,Nejrab,?????,Kapisa,??????,2
40745,40746,Yale POP_MASTER,NJB-118,,0,KAP-NJB-118,750,Dari,1,2289.0471190000003,35.0913,69.6557,KAP,NJB,Khowja Ghaws,202,Nejrab,?????,Kapisa,??????,2
40746,40747,Yale POP_MASTER,NJB-119,,0,KAP-NJB-119,423,Dari,1,1685.677002,34.992,69.6007,KAP,NJB,Khowja Hai Payen,202,Nejrab,?????,Kapisa,??????,2
40747,40748,Yale POP_MASTER,NJB-120,,0,KAP-NJB-120,329,Dari,1,1793.3299559999998,35.003,69.6198,KAP,NJB,Khowja Hulya,202,Nejrab,?????,Kapisa,??????,2
40748,40749,Yale POP_MASTER,NJB-121,,0,KAP-NJB-121,239,Dari,1,2165.175049,35.0777,69.6056,KAP,NJB,Koh Lala,202,Nejrab,?????,Kapisa,??????,2
40749,40750,Yale POP_MASTER,NJB-125,,0,KAP-NJB-125,246,Dari,1,1747.446045,35.0104,69.6049,KAP,NJB,Lala Khail,202,Nejrab,?????,Kapisa,??????,2
40750,40751,Yale POP_MASTER,NJB-126,,0,KAP-NJB-126,279,Dari,1,2456.909912,35.065,69.7066,KAP,NJB,Lalma,202,Nejrab,?????,Kapisa,??????,2
40751,40752,Yale POP_MASTER,NJB-127,,0,KAP-NJB-127,239,Dari,1,2090.404053,35.0636,69.6333,KAP,NJB,Lek Lama,202,Nejrab,?????,Kapisa,??????,2
40752,40753,Yale POP_MASTER,NJB-128,,0,KAP-NJB-128,1026,Dari,1,2364.443115,35.0441,69.6852,KAP,NJB,Loka Khail Bala,202,Nejrab,?????,Kapisa,??????,2
40753,40754,Yale POP_MASTER,NJB-129,,0,KAP-NJB-129,416,Hazaragi,8,2534.294922,35.0403,69.6894,KAP,NJB,Loka Khail Payen,202,Nejrab,?????,Kapisa,??????,2
40754,40755,Yale POP_MASTER,NJB-130,,0,KAP-NJB-130,298,Dari,1,2367.219971,35.1057,69.6605,KAP,NJB,Loqman,202,Nejrab,?????,Kapisa,??????,2
40755,40756,Yale POP_MASTER,NJB-132,,0,KAP-NJB-132,847,Hazaragi,8,2426.4609379999997,35.1079,69.6273,KAP,NJB,Maiyana Dahi,202,Nejrab,?????,Kapisa,??????,2
40756,40757,Yale POP_MASTER,NJB-134,,0,KAP-NJB-134,348,Dari,1,2015.7919920000002,35.0319,69.6525,KAP,NJB,Matan,202,Nejrab,?????,Kapisa,??????,2
40757,40758,Yale POP_MASTER,NJB-136,,0,KAP-NJB-136,182,Dari,1,2352.284912,35.0637,69.562,KAP,NJB,Mohammad Khan Khail,202,Nejrab,?????,Kapisa,??????,2
40758,40759,Yale POP_MASTER,NJB-137,,0,KAP-NJB-137,398,Dari,1,2280.25293,35.099000000000004,69.6414,KAP,NJB,Nakhsh Cha,202,Nejrab,?????,Kapisa,??????,2
40759,40760,Yale POP_MASTER,NJB-139,,0,KAP-NJB-139,291,Dari,1,2112.834961,35.0437,69.6709,KAP,NJB,Namol,202,Nejrab,?????,Kapisa,??????,2
40760,40761,Yale POP_MASTER,NJB-140,,0,KAP-NJB-140,311,Pashai,6,1834.571045,34.9784,69.6591,KAP,NJB,Now - Jowi,202,Nejrab,?????,Kapisa,??????,2
40761,40762,Yale POP_MASTER,NJB-141,,0,KAP-NJB-141,272,Dari,1,2104.6020510000003,35.0427,69.6678,KAP,NJB,Nowa Khan,202,Nejrab,?????,Kapisa,??????,2
40762,40763,Yale POP_MASTER,NJB-142,,0,KAP-NJB-142,783,Hazaragi,8,2278.11499,35.0504,69.6912,KAP,NJB,Pajan,202,Nejrab,?????,Kapisa,??????,2
40763,40764,Yale POP_MASTER,NJB-143,,0,KAP-NJB-143,184,Dari,1,2194.248047,35.0841,69.6422,KAP,NJB,Pandoras,202,Nejrab,?????,Kapisa,??????,2
40764,40765,Yale POP_MASTER,NJB-144,,0,KAP-NJB-144,1029,Pashto,2,1723.765991,34.9938,69.6119,KAP,NJB,Paryat,202,Nejrab,?????,Kapisa,??????,2
40765,40766,Yale POP_MASTER,NJB-145,,0,KAP-NJB-145,151,Dari,1,2539.938965,35.0742,69.708,KAP,NJB,Pushta,202,Nejrab,?????,Kapisa,??????,2
40766,40767,Yale POP_MASTER,NJB-146,,0,KAP-NJB-146,428,Dari,1,1692.100952,34.997,69.5954,KAP,NJB,Qala Ghani,202,Nejrab,?????,Kapisa,??????,2
40767,40768,Yale POP_MASTER,NJB-147,,0,KAP-NJB-147,610,Pashto,2,1680.310059,34.9938,69.5937,KAP,NJB,Qala Khanjar,202,Nejrab,?????,Kapisa,??????,2
40768,40769,Yale POP_MASTER,NJB-149,,0,KAP-NJB-149,231,Dari,1,2307.594971,35.0938,69.6398,KAP,NJB,Qaro Ghash,202,Nejrab,?????,Kapisa,??????,2
40769,40770,Yale POP_MASTER,NJB-150,,0,KAP-NJB-150,332,Dari,1,2200.7771,35.0455,69.6817,KAP,NJB,Qoubad Khail,202,Nejrab,?????,Kapisa,??????,2
40770,40771,Yale POP_MASTER,NJB-151,,0,KAP-NJB-151,1177,Dari,1,1943.234009,35.0378,69.6125,KAP,NJB,Roza Khail,202,Nejrab,?????,Kapisa,??????,2
40771,40772,Yale POP_MASTER,NJB-153,,0,KAP-NJB-153,591,Dari,1,2370.121094,35.0579,69.7004,KAP,NJB,Say Dahi,202,Nejrab,?????,Kapisa,??????,2
40772,40773,Yale POP_MASTER,NJB-155,,0,KAP-NJB-155,226,Dari,1,2175.0620120000003,35.0447,69.6786,KAP,NJB,Sayedam Khail,202,Nejrab,?????,Kapisa,??????,2
40773,40774,Yale POP_MASTER,NJB-156,,0,KAP-NJB-156,858,Dari,1,1724.97998,35.001999999999995,69.6055,KAP,NJB,Shafe Khail,202,Nejrab,?????,Kapisa,??????,2
40774,40775,Yale POP_MASTER,NJB-157,,0,KAP-NJB-157,218,Dari,1,1848.614014,35.0311,69.6124,KAP,NJB,Shahka Khail,202,Nejrab,?????,Kapisa,??????,2
40775,40776,Yale POP_MASTER,NJB-158,,0,KAP-NJB-158,172,Dari,1,2208.0,35.0893,69.6458,KAP,NJB,Shai Khan,202,Nejrab,?????,Kapisa,??????,2
40776,40777,Yale POP_MASTER,NJB-159,,0,KAP-NJB-159,871,Dari,1,2436.13208,35.0904,69.6106,KAP,NJB,Shaighari,202,Nejrab,?????,Kapisa,??????,2
40777,40778,Yale POP_MASTER,NJB-160,,0,KAP-NJB-160,150,Dari,1,2212.677002,35.0655,69.5665,KAP,NJB,Shair Khan Khail,202,Nejrab,?????,Kapisa,??????,2
40778,40779,Yale POP_MASTER,NJB-161,,0,KAP-NJB-161,688,Dari,1,1774.7559809999998,35.0132,69.5988,KAP,NJB,Shairwani Bala,202,Nejrab,?????,Kapisa,??????,2
40779,40780,Yale POP_MASTER,NJB-162,,0,KAP-NJB-162,1131,Dari,1,1726.94397,35.0025,69.5875,KAP,NJB,Shairwani Payen,202,Nejrab,?????,Kapisa,??????,2
40780,40781,Yale POP_MASTER,NJB-163,,0,KAP-NJB-163,350,Dari,1,1781.56897,35.0092,69.6212,KAP,NJB,Sharif Khail,202,Nejrab,?????,Kapisa,??????,2
40781,40782,Yale POP_MASTER,NJB-165,,0,KAP-NJB-165,694,Dari,1,1998.8649899999998,35.0521,69.6403,KAP,NJB,Sour Ghayi,202,Nejrab,?????,Kapisa,??????,2
40782,40783,Yale POP_MASTER,NJB-166,,0,KAP-NJB-166,245,Dari,1,2115.128906,35.0462,69.6716,KAP,NJB,Sultan Shah Khail,202,Nejrab,?????,Kapisa,??????,2
40783,40784,Yale POP_MASTER,NJB-167,,0,KAP-NJB-167,583,Dari,1,2196.238037,35.0563,69.5869,KAP,NJB,Taghri,202,Nejrab,?????,Kapisa,??????,2
40784,40785,Yale POP_MASTER,NJB-168,,0,KAP-NJB-168,474,Dari,1,2451.055908,35.1002,69.6678,KAP,NJB,Tala,202,Nejrab,?????,Kapisa,??????,2
40785,40786,Yale POP_MASTER,NJB-169,,0,KAP-NJB-169,572,Dari,1,2415.215088,35.1044,69.6279,KAP,NJB,Tana Khail,202,Nejrab,?????,Kapisa,??????,2
40786,40787,Yale POP_MASTER,NJB-171,,0,KAP-NJB-171,1038,Dari,1,1828.253052,35.0095,69.6313,KAP,NJB,Tar Wary,202,Nejrab,?????,Kapisa,??????,2
40787,40788,Yale POP_MASTER,NJB-172,,0,KAP-NJB-172,36,Dari,1,1943.198975,35.0228,69.5374,KAP,NJB,Tarang Sara,202,Nejrab,?????,Kapisa,??????,2
40788,40789,Yale POP_MASTER,NJB-175,,0,KAP-NJB-175,567,Dari,1,1878.0290530000002,35.033,69.6111,KAP,NJB,Towache Yan,202,Nejrab,?????,Kapisa,??????,2
40789,40790,Yale POP_MASTER,NJB-176,,0,KAP-NJB-176,362,Dari,1,1976.2600100000002,35.0304,69.6419,KAP,NJB,Wamaqsar,202,Nejrab,?????,Kapisa,??????,2
40790,40791,Yale POP_MASTER,NJB-177,,0,KAP-NJB-177,600,Dari,1,1868.187012,35.0321,69.627,KAP,NJB,Wayar,202,Nejrab,?????,Kapisa,??????,2
40791,40792,Yale POP_MASTER,NJB-178,,0,KAP-NJB-178,412,Dari,1,2670.533936,35.0829,69.7165,KAP,NJB,Weshar,202,Nejrab,?????,Kapisa,??????,2
40792,40793,Yale POP_MASTER,NJB-179,,0,KAP-NJB-179,173,Dari,1,2219.6020510000003,35.0613,69.5741,KAP,NJB,Yasin Khail,202,Nejrab,?????,Kapisa,??????,2
40793,40794,Yale POP_MASTER,NJB-183,,0,KAP-NJB-183,1084,Dari,1,1954.880005,35.0461,69.627,KAP,NJB,Zenda Ghayen,202,Nejrab,?????,Kapisa,??????,2
40794,40795,Yale POP_MASTER,NJB-186,,0,KAP-NJB-186,75,Dari,1,2132.625,35.0692,69.6086,KAP,NJB,Soltan,202,Nejrab,?????,Kapisa,??????,2
40795,40796,USAID AIDVillageView,NJB-007,,0,KAP-NJB-007,0,Dari,1,1782.031006,34.9586,69.6596,KAP,NJB,Hamanag,202,Nejrab,?????,Kapisa,??????,2
40796,40797,USAID AIDVillageView,NJB-008,,0,KAP-NJB-008,0,Dari,1,2031.80603,35.0016,69.6901,KAP,NJB,Hasankhankhel,202,Nejrab,?????,Kapisa,??????,2
40797,40798,USAID AIDVillageView,NJB-015,,0,KAP-NJB-015,0,Dari,1,2364.2919920000004,35.0152,69.7178,KAP,NJB,Lokakhel,202,Nejrab,?????,Kapisa,??????,2
40798,40799,CSO AIMS Villages (ACSOR),NJB-034,,0,KAP-NJB-034,1013,Dari,1,2087.3278809999997,35.01099,69.69467,KAP,NJB,Pashaye (2),202,Nejrab,?????,Kapisa,??????,2
40799,40800,Yale POP_MASTER,NJB-043,,0,KAP-NJB-043,404,Dari,1,3149.823975,35.0623,69.7389,KAP,NJB,Ashnawa,202,Nejrab,?????,Kapisa,??????,2
40800,40801,Yale POP_MASTER,NJB-047,,0,KAP-NJB-047,452,Dari,1,2728.61499,35.0572,69.7216,KAP,NJB,Awomba,202,Nejrab,?????,Kapisa,??????,2
40801,40802,Yale POP_MASTER,NJB-048,,0,KAP-NJB-048,124,Dari,1,2673.6521,35.0575,69.7252,KAP,NJB,Ayiran,202,Nejrab,?????,Kapisa,??????,2
40802,40803,Yale POP_MASTER,NJB-069,,0,KAP-NJB-069,614,Hazaragi,8,2265.241943,35.0209,69.7145,KAP,NJB,Do - Qoumy,202,Nejrab,?????,Kapisa,??????,2
40803,40804,Yale POP_MASTER,NJB-080,,0,KAP-NJB-080,488,Dari,1,2719.4580079999996,35.0675,69.7333,KAP,NJB,Galen,202,Nejrab,?????,Kapisa,??????,2
40804,40805,Yale POP_MASTER,NJB-086,,0,KAP-NJB-086,1194,Dari,1,1912.19104,34.9548,69.6862,KAP,NJB,Ghayen Bala,202,Nejrab,?????,Kapisa,??????,2
40805,40806,Yale POP_MASTER,NJB-093,,0,KAP-NJB-093,1100,Dari,1,2171.26709,34.9983,69.6933,KAP,NJB,Gonj,202,Nejrab,?????,Kapisa,??????,2
40806,40807,Yale POP_MASTER,NJB-101,,0,KAP-NJB-101,1191,Hazaragi,8,2012.238037,34.9954,69.6814,KAP,NJB,Hussain Khan Khail,202,Nejrab,?????,Kapisa,??????,2
40807,40808,Yale POP_MASTER,NJB-103,,0,KAP-NJB-103,583,Hazaragi,8,2428.179932,35.0281,69.7244,KAP,NJB,Ibrahim Khail Dara Pachaghan Khail,202,Nejrab,?????,Kapisa,??????,2
40808,40809,Yale POP_MASTER,NJB-117,,0,KAP-NJB-117,660,Hazaragi,8,2632.4528809999997,35.036,69.7438,KAP,NJB,Khowja Ghar,202,Nejrab,?????,Kapisa,??????,2
40809,40810,Yale POP_MASTER,NJB-124,,0,KAP-NJB-124,367,Hazaragi,8,2566.549072,35.035,69.7346,KAP,NJB,Kunda,202,Nejrab,?????,Kapisa,??????,2
40810,40811,Yale POP_MASTER,NJB-135,,0,KAP-NJB-135,243,Hazaragi,8,2439.50708,35.0235,69.7278,KAP,NJB,Mir Khan Khail,202,Nejrab,?????,Kapisa,??????,2
40811,40812,Yale POP_MASTER,NJB-138,,0,KAP-NJB-138,324,Dari,1,2792.5271,35.0688,69.7389,KAP,NJB,Nal Kha,202,Nejrab,?????,Kapisa,??????,2
40812,40813,Yale POP_MASTER,NJB-164,,0,KAP-NJB-164,597,Pashai,6,2169.574951,35.0175,69.7024,KAP,NJB,Sheghar,202,Nejrab,?????,Kapisa,??????,2
40813,40814,Yale POP_MASTER,NJB-181,,0,KAP-NJB-181,1103,Hazaragi,8,2471.669922,35.0292,69.734,KAP,NJB,Zakirya Khail,202,Nejrab,?????,Kapisa,??????,2
40814,40815,Yale POP_MASTER,NJB-184,,0,KAP-NJB-184,288,Dari,1,2832.326904,35.071999999999996,69.7246,KAP,NJB,Zori,202,Nejrab,?????,Kapisa,??????,2
40815,40816,Yale POP_MASTER,ALY-032,,0,KAP-ALY-032,298,Pashai,6,2608.01001,34.9791,69.8209,KAP,ALY,Kundi,206,Alasay,??? ???,Kapisa,??????,2
40816,40817,Yale POP_MASTER,ALY-006,,0,KAP-ALY-006,512,Pashai,6,2489.958984,34.9795,69.7928,KAP,ALY,Angorog,206,Alasay,??? ???,Kapisa,??????,2
40817,40818,Yale POP_MASTER,ALY-010,,0,KAP-ALY-010,151,Pashai,6,2766.4379879999997,34.9912,69.8234,KAP,ALY,Bebe Kanak,206,Alasay,??? ???,Kapisa,??????,2
40818,40819,Yale POP_MASTER,ALY-016,,0,KAP-ALY-016,233,Pashai,6,2445.076904,34.9752,69.7933,KAP,ALY,Dowlat Zawar,206,Alasay,??? ???,Kapisa,??????,2
40819,40820,Yale POP_MASTER,ALY-057,,0,KAP-ALY-057,1118,Pashai,6,2517.552979,34.9817,69.7953,KAP,ALY,Satraj,206,Alasay,??? ???,Kapisa,??????,2
40822,40823,CSO AIMS Villages (ACSOR),HDK-006,,0,KAP-HDK-006,829,Dari,1,1506.767944,35.057359999999996,69.31367,KAP,HDK,Mir Je Khan Malik Je Khan,204,Hisa-e- Duwum-e- Kohestan,??? ??? ???????,Kapisa,??????,2
40823,40824,USAID AIDVillageView,MRI-005,,0,KAP-MRI-005,0,Dari,1,1416.047974,34.9999,69.3693,KAP,MRI,Qala-i- Naw,201,Mahmud-e- Raqi,????? ????,Kapisa,??????,2
40824,40825,USAID AIDVillageView,MRI-007,,0,KAP-MRI-007,0,Dari,1,1478.368042,35.0203,69.3576,KAP,MRI,Sidqabad (qala-i- Wazir),201,Mahmud-e- Raqi,????? ????,Kapisa,??????,2
40825,40826,CSO AIMS Villages (ACSOR),MRI-008,,0,KAP-MRI-008,336,Dari,1,1428.505005,35.00175,69.37926,KAP,MRI,Kohnna Qala,201,Mahmud-e- Raqi,????? ????,Kapisa,??????,2
40840,40841,Yale POP_MASTER,HDK-008,,0,KAP-HDK-008,1174,Dari,1,1534.110962,35.0841,69.3344,KAP,HDK,Aftab Che,204,Hisa-e- Duwum-e- Kohestan,??? ??? ???????,Kapisa,??????,2
40841,40842,Yale POP_MASTER,HDK-009,,0,KAP-HDK-009,1034,Dari,1,1522.623047,35.0696,69.3577,KAP,HDK,Arazi,204,Hisa-e- Duwum-e- Kohestan,??? ??? ???????,Kapisa,??????,2
40842,40843,Yale POP_MASTER,HDK-010,,0,KAP-HDK-010,1071,Dari,1,1511.046021,35.0589,69.3544,KAP,HDK,Arbab Khail,204,Hisa-e- Duwum-e- Kohestan,??? ??? ???????,Kapisa,??????,2
40843,40844,Yale POP_MASTER,HDK-012,,0,KAP-HDK-012,615,Dari,1,1528.6879880000001,35.0793,69.3508,KAP,HDK,Chaghche,204,Hisa-e- Duwum-e- Kohestan,??? ??? ???????,Kapisa,??????,2
40844,40845,Yale POP_MASTER,HDK-013,,0,KAP-HDK-013,775,Dari,1,1525.276001,35.0732,69.36399999999999,KAP,HDK,Dahi Bulbul Hulya,204,Hisa-e- Duwum-e- Kohestan,??? ??? ???????,Kapisa,??????,2
40845,40846,Yale POP_MASTER,HDK-014,,0,KAP-HDK-014,917,Dari,1,1537.801025,35.0856,69.3506,KAP,HDK,Dahi Mozafar,204,Hisa-e- Duwum-e- Kohestan,??? ??? ???????,Kapisa,??????,2
40846,40847,Yale POP_MASTER,HDK-015,District,1,KAP-HDK-015,1368,Dari,1,1548.618042,35.084,69.37100000000001,KAP,HDK,Dahi Now,204,Hisa-e- Duwum-e- Kohestan,??? ??? ???????,Kapisa,??????,2
40847,40848,Yale POP_MASTER,HDK-018,,0,KAP-HDK-018,456,Dari,1,1510.52002,35.0566,69.3422,KAP,HDK,Faiz Ali Khail,204,Hisa-e- Duwum-e- Kohestan,??? ??? ???????,Kapisa,??????,2
40848,40849,Yale POP_MASTER,HDK-024,,0,KAP-HDK-024,1171,Dari,1,1564.910034,35.0893,69.3733,KAP,HDK,Karaize,204,Hisa-e- Duwum-e- Kohestan,??? ??? ???????,Kapisa,??????,2
40849,40850,Yale POP_MASTER,HDK-027,,0,KAP-HDK-027,919,Dari,1,1522.540039,35.0723,69.3381,KAP,HDK,Kham Roba Hulya,204,Hisa-e- Duwum-e- Kohestan,??? ??? ???????,Kapisa,??????,2
40850,40851,Yale POP_MASTER,HDK-028,,0,KAP-HDK-028,1193,Dari,1,1510.958008,35.0635,69.3361,KAP,HDK,Kham Roba Sufla,204,Hisa-e- Duwum-e- Kohestan,??? ??? ???????,Kapisa,??????,2
40851,40852,Yale POP_MASTER,HDK-029,,0,KAP-HDK-029,207,Dari,1,1507.0860599999999,35.0598,69.3216,KAP,HDK,Malik Jai Khail,204,Hisa-e- Duwum-e- Kohestan,??? ??? ???????,Kapisa,??????,2
40852,40853,Yale POP_MASTER,HDK-031,,0,KAP-HDK-031,547,Dari,1,1504.609009,35.0546,69.3171,KAP,HDK,Mullah Zad Khail Bala,204,Hisa-e- Duwum-e- Kohestan,??? ??? ???????,Kapisa,??????,2
40853,40854,Yale POP_MASTER,HDK-034,,0,KAP-HDK-034,594,Dari,1,1514.032959,35.0619,69.3495,KAP,HDK,Nizam Khail,204,Hisa-e- Duwum-e- Kohestan,??? ??? ???????,Kapisa,??????,2
40854,40855,Yale POP_MASTER,HDK-036,,0,KAP-HDK-036,879,Dari,1,1548.838013,35.0884,69.3582,KAP,HDK,Qala Now,204,Hisa-e- Duwum-e- Kohestan,??? ??? ???????,Kapisa,??????,2
40855,40856,Yale POP_MASTER,HDK-038,,0,KAP-HDK-038,898,Dari,1,1521.369019,35.0745,69.3232,KAP,HDK,Qala Sahra Dasht,204,Hisa-e- Duwum-e- Kohestan,??? ??? ???????,Kapisa,??????,2
40856,40857,Yale POP_MASTER,HDK-041,,0,KAP-HDK-041,662,Dari,1,1494.484009,35.0472,69.3316,KAP,HDK,Qala Sayid Khan,204,Hisa-e- Duwum-e- Kohestan,??? ??? ???????,Kapisa,??????,2
40857,40858,Yale POP_MASTER,HDK-044,,0,KAP-HDK-044,676,Dari,1,1503.737061,35.0517,69.3412,KAP,HDK,Rahman Khail,204,Hisa-e- Duwum-e- Kohestan,??? ??? ???????,Kapisa,??????,2
40858,40859,Yale POP_MASTER,HDK-045,,0,KAP-HDK-045,397,Dari,1,1512.498047,35.063,69.3619,KAP,HDK,San Qoli,204,Hisa-e- Duwum-e- Kohestan,??? ??? ???????,Kapisa,??????,2
40859,40860,Yale POP_MASTER,HDK-046,,0,KAP-HDK-046,656,Dari,1,1533.899048,35.078,69.3611,KAP,HDK,Sang Bora,204,Hisa-e- Duwum-e- Kohestan,??? ??? ???????,Kapisa,??????,2
40860,40861,Yale POP_MASTER,HDK-048,,0,KAP-HDK-048,661,Dari,1,1514.0860599999999,35.0665,69.3186,KAP,HDK,Sayed Mir Khail,204,Hisa-e- Duwum-e- Kohestan,??? ??? ???????,Kapisa,??????,2
40861,40862,Yale POP_MASTER,HDK-050,,0,KAP-HDK-050,385,Dari,1,1526.6870119999999,35.0739,69.3529,KAP,HDK,Sheerak Perak,204,Hisa-e- Duwum-e- Kohestan,??? ??? ???????,Kapisa,??????,2
40862,40863,Yale POP_MASTER,HDK-052,,0,KAP-HDK-052,475,Dari,1,1501.359985,35.0559,69.3267,KAP,HDK,Taj Mohammad Khail,204,Hisa-e- Duwum-e- Kohestan,??? ??? ???????,Kapisa,??????,2
40863,40864,Yale POP_MASTER,MRI-009,,0,KAP-MRI-009,584,Dari,1,1486.6369630000002,35.0354,69.3161,KAP,MRI,Ado Khail,201,Mahmud-e- Raqi,????? ????,Kapisa,??????,2
40864,40865,Yale POP_MASTER,MRI-010,,0,KAP-MRI-010,248,Dari,1,1526.4880369999998,34.9976,69.3972,KAP,MRI,Akhunda Zada,201,Mahmud-e- Raqi,????? ????,Kapisa,??????,2
40865,40866,Yale POP_MASTER,MRI-011,,0,KAP-MRI-011,1086,Dari,1,1430.4139400000001,35.0132,69.3509,KAP,MRI,Ali Khail,201,Mahmud-e- Raqi,????? ????,Kapisa,??????,2
40866,40867,Yale POP_MASTER,MRI-012,,0,KAP-MRI-012,968,Dari,1,1424.180054,35.0107,69.3596,KAP,MRI,Ashor Khail,201,Mahmud-e- Raqi,????? ????,Kapisa,??????,2
40867,40868,Yale POP_MASTER,MRI-013,,0,KAP-MRI-013,138,Pashto,2,1418.75,35.0046,69.3617,KAP,MRI,Atahullah Khail,201,Mahmud-e- Raqi,????? ????,Kapisa,??????,2
40868,40869,Yale POP_MASTER,MRI-015,,0,KAP-MRI-015,1164,Dari,1,1533.9570310000001,35.0643,69.3914,KAP,MRI,Bajowri,201,Mahmud-e- Raqi,????? ????,Kapisa,??????,2
40869,40870,Yale POP_MASTER,MRI-016,,0,KAP-MRI-016,543,Dari,1,1412.432007,34.9958,69.3723,KAP,MRI,Baloch Khail,201,Mahmud-e- Raqi,????? ????,Kapisa,??????,2
40870,40871,Yale POP_MASTER,MRI-017,,0,KAP-MRI-017,835,Dari,1,1466.94104,35.0215,69.3306,KAP,MRI,Dado Khail,201,Mahmud-e- Raqi,????? ????,Kapisa,??????,2
40871,40872,Yale POP_MASTER,MRI-018,,0,KAP-MRI-018,1255,Dari,1,1489.234009,35.0454,69.3381,KAP,MRI,Dahi Baba Ali,201,Mahmud-e- Raqi,????? ????,Kapisa,??????,2
40872,40873,Yale POP_MASTER,MRI-019,,0,KAP-MRI-019,1174,Dari,1,1443.551025,35.0084,69.3048,KAP,MRI,Dahi Babi,201,Mahmud-e- Raqi,????? ????,Kapisa,??????,2
40873,40874,Yale POP_MASTER,MRI-021,,0,KAP-MRI-021,905,Dari,1,1497.203979,35.0442,69.3082,KAP,MRI,Dayristan Bala,201,Mahmud-e- Raqi,????? ????,Kapisa,??????,2
40874,40875,Yale POP_MASTER,MRI-022,,0,KAP-MRI-022,634,Dari,1,1478.755005,35.0346,69.3038,KAP,MRI,Dayristan Payen,201,Mahmud-e- Raqi,????? ????,Kapisa,??????,2
40875,40876,Yale POP_MASTER,MRI-023,,0,KAP-MRI-023,68,Pashto,2,1427.0939939999998,35.0061,69.3735,KAP,MRI,Faqer Takya,201,Mahmud-e- Raqi,????? ????,Kapisa,??????,2
40876,40877,Yale POP_MASTER,MRI-024,,0,KAP-MRI-024,486,Pashto,2,1485.159058,35.0322,69.3172,KAP,MRI,Ghazi Khail,201,Mahmud-e- Raqi,????? ????,Kapisa,??????,2
40877,40878,Yale POP_MASTER,MRI-026,,0,KAP-MRI-026,525,Dari,1,1444.358032,35.0102,69.3304,KAP,MRI,Hazara Ha,201,Mahmud-e- Raqi,????? ????,Kapisa,??????,2
40878,40879,Yale POP_MASTER,MRI-027,,0,KAP-MRI-027,628,Dari,1,1468.123047,35.0145,69.3168,KAP,MRI,Jam Che,201,Mahmud-e- Raqi,????? ????,Kapisa,??????,2
40879,40880,Yale POP_MASTER,MRI-028,,0,KAP-MRI-028,201,Dari,1,1486.512939,35.0414,69.3396,KAP,MRI,Kaka Khail,201,Mahmud-e- Raqi,????? ????,Kapisa,??????,2
40880,40881,Yale POP_MASTER,MRI-029,,0,KAP-MRI-029,40,Pashto,2,1701.1500239999998,35.0019,69.4303,KAP,MRI,Karaizak,201,Mahmud-e- Raqi,????? ????,Kapisa,??????,2
40881,40882,Yale POP_MASTER,MRI-030,,0,KAP-MRI-030,190,Dari,1,1454.7459720000002,35.0146,69.3348,KAP,MRI,Khanan Khail,201,Mahmud-e- Raqi,????? ????,Kapisa,??????,2
40882,40883,Yale POP_MASTER,MRI-031,,0,KAP-MRI-031,262,Dari,1,1475.3540039999998,35.0282,69.319,KAP,MRI,Khuda Yar Khail,201,Mahmud-e- Raqi,????? ????,Kapisa,??????,2
40883,40884,Yale POP_MASTER,MRI-032,,0,KAP-MRI-032,1016,Pashto,2,1492.692993,35.0262,69.3757,KAP,MRI,Kora Taz,201,Mahmud-e- Raqi,????? ????,Kapisa,??????,2
40884,40885,Yale POP_MASTER,MRI-033,,0,KAP-MRI-033,208,Dari,1,1421.964966,35.0006,69.3759,KAP,MRI,Mahmood Khail,201,Mahmud-e- Raqi,????? ????,Kapisa,??????,2
40885,40886,Yale POP_MASTER,MRI-037,,0,KAP-MRI-037,1006,Dari,1,1484.577026,35.0327,69.3296,KAP,MRI,Mullah Faqir Khail,201,Mahmud-e- Raqi,????? ????,Kapisa,??????,2
40886,40887,Yale POP_MASTER,MRI-038,,0,KAP-MRI-038,296,Dari,1,1459.390991,35.0187,69.3373,KAP,MRI,Mullah Khail,201,Mahmud-e- Raqi,????? ????,Kapisa,??????,2
40887,40888,Yale POP_MASTER,MRI-039,,0,KAP-MRI-039,468,Dari,1,1418.178955,34.9986,69.3748,KAP,MRI,Najar Ha,201,Mahmud-e- Raqi,????? ????,Kapisa,??????,2
40888,40889,Yale POP_MASTER,MRI-041,,0,KAP-MRI-041,791,Dari,1,1521.515015,35.0583,69.3844,KAP,MRI,Pacha Khail Ya Padshah Khail,201,Mahmud-e- Raqi,????? ????,Kapisa,??????,2
40889,40890,Yale POP_MASTER,MRI-043,,0,KAP-MRI-043,240,Pashto,2,1411.340942,34.9942,69.3797,KAP,MRI,Payenda Khail,201,Mahmud-e- Raqi,????? ????,Kapisa,??????,2
40890,40891,Yale POP_MASTER,MRI-044,,0,KAP-MRI-044,356,Dari,1,1464.572998,35.0273,69.3047,KAP,MRI,Qala Cha,201,Mahmud-e- Raqi,????? ????,Kapisa,??????,2
40891,40892,Yale POP_MASTER,MRI-045,,0,KAP-MRI-045,343,Dari,1,1420.5389400000001,34.9981,69.3794,KAP,MRI,Qala Now,201,Mahmud-e- Raqi,????? ????,Kapisa,??????,2
40892,40893,Yale POP_MASTER,MRI-046,,0,KAP-MRI-046,274,Dari,1,1484.11499,35.0383,69.342,KAP,MRI,Qala Safid,201,Mahmud-e- Raqi,????? ????,Kapisa,??????,2
40893,40894,Yale POP_MASTER,MRI-047,,0,KAP-MRI-047,666,Dari,1,1557.7459720000002,35.0729,69.403,KAP,MRI,Qala Sar Kari,201,Mahmud-e- Raqi,????? ????,Kapisa,??????,2
40894,40895,Yale POP_MASTER,MRI-048,,0,KAP-MRI-048,842,Dari,1,1463.866943,35.0139,69.3295,KAP,MRI,Qala Shair Khan,201,Mahmud-e- Raqi,????? ????,Kapisa,??????,2
40895,40896,Yale POP_MASTER,MRI-049,,0,KAP-MRI-049,910,Pashto,2,1437.2889400000001,35.0088,69.3191,KAP,MRI,Qazi Khail,201,Mahmud-e- Raqi,????? ????,Kapisa,??????,2
40896,40897,Yale POP_MASTER,MRI-050,,0,KAP-MRI-050,676,Pashto,2,1434.244019,35.0115,69.3703,KAP,MRI,Qoul Babor,201,Mahmud-e- Raqi,????? ????,Kapisa,??????,2
40897,40898,Yale POP_MASTER,MRI-051,,0,KAP-MRI-051,1291,Dari,1,1500.692017,35.0404,69.3659,KAP,MRI,Raig Rawan,201,Mahmud-e- Raqi,????? ????,Kapisa,??????,2
40898,40899,Yale POP_MASTER,MRI-052,,0,KAP-MRI-052,173,Dari,1,1452.293945,35.016,69.3031,KAP,MRI,Rasuol Khail,201,Mahmud-e- Raqi,????? ????,Kapisa,??????,2
40899,40900,Yale POP_MASTER,MRI-053,,0,KAP-MRI-053,363,Dari,1,1458.5219730000001,35.0132,69.334,KAP,MRI,Saifudain Khail,201,Mahmud-e- Raqi,????? ????,Kapisa,??????,2
40900,40901,Yale POP_MASTER,MRI-054,,0,KAP-MRI-054,981,Dari,1,1435.847046,35.001999999999995,69.3106,KAP,MRI,Sayyad,201,Mahmud-e- Raqi,????? ????,Kapisa,??????,2
40901,40902,Yale POP_MASTER,MRI-055,,0,KAP-MRI-055,822,Pashto,2,1471.780029,35.0194,69.3146,KAP,MRI,Shahbaz Khail,201,Mahmud-e- Raqi,????? ????,Kapisa,??????,2
40902,40903,Yale POP_MASTER,MRI-056,,0,KAP-MRI-056,738,Dari,1,1490.649048,35.0401,69.3194,KAP,MRI,Sur Ghal,201,Mahmud-e- Raqi,????? ????,Kapisa,??????,2
40903,40904,Yale POP_MASTER,MRI-057,,0,KAP-MRI-057,546,Dari,1,1474.197998,35.0263,69.3375,KAP,MRI,Wali Khail,201,Mahmud-e- Raqi,????? ????,Kapisa,??????,2
40904,40905,Yale POP_MASTER,MRI-058,,0,KAP-MRI-058,440,Dari,1,1482.427002,35.0288,69.33,KAP,MRI,Zaghger Khail,201,Mahmud-e- Raqi,????? ????,Kapisa,??????,2
40905,40906,Yale POP_MASTER,MRI-059,,0,KAP-MRI-059,1177,Pashto,2,1447.026001,35.0153,69.3788,KAP,MRI,Zerahat,201,Mahmud-e- Raqi,????? ????,Kapisa,??????,2
40906,40907,Yale POP_MASTER,MRI-060,Provincial,2,KAP-MRI-060,1200,Dari,1,1456.928955,35.0232,69.3482,KAP,MRI,Mahmud-e- Raqi,201,Mahmud-e- Raqi,????? ????,Kapisa,??????,2
40908,40909,USAID AIDVillageView,HAK-001,,0,KAP-HAK-001,0,Dari,1,1695.119995,35.1534,69.3113,KAP,HAK,Chahe Allahdad,207,Hisa-e- Awal-e- Kohestan,??? ??? ???????,Kapisa,??????,2
40909,40910,USAID AIDVillageView,HAK-002,,0,KAP-HAK-002,0,Dari,1,1597.814941,35.1147,69.3535,KAP,HAK,Dehe Kham-zargar,207,Hisa-e- Awal-e- Kohestan,??? ??? ???????,Kapisa,??????,2
40910,40911,USAID AIDVillageView,HAK-003,,0,KAP-HAK-003,0,Dari,1,1556.8530269999999,35.109,69.34,KAP,HAK,Galwanan,207,Hisa-e- Awal-e- Kohestan,??? ??? ???????,Kapisa,??????,2
40911,40912,USAID AIDVillageView,HAK-005,,0,KAP-HAK-005,0,Dari,1,1534.584961,35.0867,69.318,KAP,HAK,Gholamkhel,207,Hisa-e- Awal-e- Kohestan,??? ??? ???????,Kapisa,??????,2
40912,40913,USAID AIDVillageView,HAK-006,,0,KAP-HAK-006,0,Dari,1,1767.1779789999998,35.1461,69.3453,KAP,HAK,Gorahu,207,Hisa-e- Awal-e- Kohestan,??? ??? ???????,Kapisa,??????,2
40913,40914,USAID AIDVillageView,HAK-008,,0,KAP-HAK-008,0,Dari,1,1551.6459960000002,35.1022,69.3332,KAP,HAK,Kham Zargar,207,Hisa-e- Awal-e- Kohestan,??? ??? ???????,Kapisa,??????,2
40914,40915,USAID AIDVillageView,HAK-010,,0,KAP-HAK-010,0,Dari,1,1758.8139649999998,35.1574,69.3029,KAP,HAK,Kuhnadeh,207,Hisa-e- Awal-e- Kohestan,??? ??? ???????,Kapisa,??????,2
40915,40916,USAID AIDVillageView,HAK-011,,0,KAP-HAK-011,0,Dari,1,1601.764038,35.1101,69.3503,KAP,HAK,Kulalan,207,Hisa-e- Awal-e- Kohestan,??? ??? ???????,Kapisa,??????,2
40916,40917,USAID AIDVillageView,HAK-012,,0,KAP-HAK-012,0,Dari,1,1638.1779789999998,35.1463,69.3178,KAP,HAK,Mazullah Khel,207,Hisa-e- Awal-e- Kohestan,??? ??? ???????,Kapisa,??????,2
40917,40918,USAID AIDVillageView,HAK-013,,0,KAP-HAK-013,0,Dari,1,1548.939941,35.1131,69.292,KAP,HAK,Nahr,207,Hisa-e- Awal-e- Kohestan,??? ??? ???????,Kapisa,??????,2
40918,40919,USAID AIDVillageView,HAK-014,,0,KAP-HAK-014,0,Dari,1,1590.8029789999998,35.1275,69.3196,KAP,HAK,Naserkhankhel,207,Hisa-e- Awal-e- Kohestan,??? ??? ???????,Kapisa,??????,2
40919,40920,USAID AIDVillageView,HAK-015,,0,KAP-HAK-015,0,Dari,1,1566.189941,35.114000000000004,69.3188,KAP,HAK,Omarkhel,207,Hisa-e- Awal-e- Kohestan,??? ??? ???????,Kapisa,??????,2
40920,40921,USAID AIDVillageView,HAK-018,,0,KAP-HAK-018,0,Dari,1,1563.352051,35.1261,69.2956,KAP,HAK,Rezakohistan,207,Hisa-e- Awal-e- Kohestan,??? ??? ???????,Kapisa,??????,2
40925,40926,Yale POP_MASTER,HAK-079,,0,KAP-HAK-079,671,Pashai,6,1581.35498,35.1222,69.3262,KAP,HAK,Sai,207,Hisa-e- Awal-e- Kohestan,??? ??? ???????,Kapisa,??????,2
40926,40927,Yale POP_MASTER,HAK-080,,0,KAP-HAK-080,485,Dari,1,1569.04895,35.1111,69.2976,KAP,HAK,Sallay Khail,207,Hisa-e- Awal-e- Kohestan,??? ??? ???????,Kapisa,??????,2
40927,40928,Yale POP_MASTER,HAK-081,,0,KAP-HAK-081,638,Dari,1,1527.998047,35.0979,69.2899,KAP,HAK,Sanglakh,207,Hisa-e- Awal-e- Kohestan,??? ??? ???????,Kapisa,??????,2
40928,40929,Yale POP_MASTER,HAK-082,,0,KAP-HAK-082,604,Dari,1,1922.43103,35.1637,69.2979,KAP,HAK,Sar Band,207,Hisa-e- Awal-e- Kohestan,??? ??? ???????,Kapisa,??????,2
40929,40930,Yale POP_MASTER,HAK-083,,0,KAP-HAK-083,4311,Dari,1,1599.259033,35.1411,69.3018,KAP,HAK,Shair Khan Khail,207,Hisa-e- Awal-e- Kohestan,??? ??? ???????,Kapisa,??????,2
40930,40931,Yale POP_MASTER,HAK-084,,0,KAP-HAK-084,130,Dari,1,1563.79895,35.113,69.3135,KAP,HAK,Shair Mohammad Khail,207,Hisa-e- Awal-e- Kohestan,??? ??? ???????,Kapisa,??????,2
40931,40932,Yale POP_MASTER,HAK-085,,0,KAP-HAK-085,454,Dari,1,1595.7290039999998,35.1353,69.3046,KAP,HAK,Shash Sad Kote,207,Hisa-e- Awal-e- Kohestan,??? ??? ???????,Kapisa,??????,2
40932,40933,Yale POP_MASTER,HAK-034,,0,KAP-HAK-034,331,Dari,1,1598.005005,35.1543,69.2908,KAP,HAK,Do Abi,207,Hisa-e- Awal-e- Kohestan,??? ??? ???????,Kapisa,??????,2
40933,40934,Yale POP_MASTER,HAK-035,,0,KAP-HAK-035,306,Dari,1,1562.587036,35.1087,69.3099,KAP,HAK,Faqir Khan Khail,207,Hisa-e- Awal-e- Kohestan,??? ??? ???????,Kapisa,??????,2
40934,40935,Yale POP_MASTER,HAK-036,,0,KAP-HAK-036,726,Pashai,6,1749.592041,35.1371,69.35600000000001,KAP,HAK,Gahr Khan Khail Ya Sobhan,207,Hisa-e- Awal-e- Kohestan,??? ??? ???????,Kapisa,??????,2
40935,40936,Yale POP_MASTER,HAK-037,,0,KAP-HAK-037,219,Dari,1,1535.165039,35.0861,69.3259,KAP,HAK,Ghulam Khail,207,Hisa-e- Awal-e- Kohestan,??? ??? ???????,Kapisa,??????,2
40936,40937,Yale POP_MASTER,HAK-038,,0,KAP-HAK-038,451,Dari,1,1733.812012,35.1485,69.337,KAP,HAK,Goraw,207,Hisa-e- Awal-e- Kohestan,??? ??? ???????,Kapisa,??????,2
40937,40938,Yale POP_MASTER,HAK-039,,0,KAP-HAK-039,1196,Dari,1,1558.9279789999998,35.1075,69.3254,KAP,HAK,Gulwanan,207,Hisa-e- Awal-e- Kohestan,??? ??? ???????,Kapisa,??????,2
40938,40939,Yale POP_MASTER,HAK-040,,0,KAP-HAK-040,261,Dari,1,1555.767944,35.1065,69.3335,KAP,HAK,Hadailshah Khail,207,Hisa-e- Awal-e- Kohestan,??? ??? ???????,Kapisa,??????,2
40939,40940,Yale POP_MASTER,HAK-041,,0,KAP-HAK-041,1112,Dari,1,1537.3790279999998,35.0879,69.3115,KAP,HAK,Hamzala Khail,207,Hisa-e- Awal-e- Kohestan,??? ??? ???????,Kapisa,??????,2
40940,40941,Yale POP_MASTER,HAK-042,,0,KAP-HAK-042,120,Dari,1,1575.505005,35.1194,69.3271,KAP,HAK,Hassan Khan Khail,207,Hisa-e- Awal-e- Kohestan,??? ??? ???????,Kapisa,??????,2
40941,40942,Yale POP_MASTER,HAK-043,,0,KAP-HAK-043,987,Dari,1,1593.482056,35.1336,69.29899999999999,KAP,HAK,Hazat Khail Hulya,207,Hisa-e- Awal-e- Kohestan,??? ??? ???????,Kapisa,??????,2
40942,40943,Yale POP_MASTER,HAK-044,,0,KAP-HAK-044,259,Dari,1,1590.69104,35.1294,69.3005,KAP,HAK,Hazat Khail Payan,207,Hisa-e- Awal-e- Kohestan,??? ??? ???????,Kapisa,??????,2
40943,40944,Yale POP_MASTER,HAK-046,,0,KAP-HAK-046,432,Dari,1,1551.1679689999999,35.0997,69.3143,KAP,HAK,Jaldak Hulya,207,Hisa-e- Awal-e- Kohestan,??? ??? ???????,Kapisa,??????,2
40944,40945,Yale POP_MASTER,HAK-047,,0,KAP-HAK-047,689,Dari,1,1549.633057,35.0994,69.3188,KAP,HAK,Jaldak Sufla,207,Hisa-e- Awal-e- Kohestan,??? ??? ???????,Kapisa,??????,2
40945,40946,Yale POP_MASTER,HAK-048,,0,KAP-HAK-048,1086,Dari,1,1555.0269779999999,35.1282,69.2939,KAP,HAK,Jansar Khail,207,Hisa-e- Awal-e- Kohestan,??? ??? ???????,Kapisa,??????,2
40946,40947,Yale POP_MASTER,HAK-049,,0,KAP-HAK-049,646,Dari,1,1560.150024,35.1063,69.3073,KAP,HAK,Ka Sawa,207,Hisa-e- Awal-e- Kohestan,??? ??? ???????,Kapisa,??????,2
40947,40948,Yale POP_MASTER,HAK-050,,0,KAP-HAK-050,208,Dari,1,1580.840942,35.1186,69.33,KAP,HAK,Kanko,207,Hisa-e- Awal-e- Kohestan,??? ??? ???????,Kapisa,??????,2
40948,40949,Yale POP_MASTER,HAK-051,,0,KAP-HAK-051,124,Dari,1,1559.829956,35.1102,69.3348,KAP,HAK,Karam Khan Khail,207,Hisa-e- Awal-e- Kohestan,??? ??? ???????,Kapisa,??????,2
40949,40950,Yale POP_MASTER,HAK-052,,0,KAP-HAK-052,830,Dari,1,1566.300049,35.1072,69.3587,KAP,HAK,Karim Khail,207,Hisa-e- Awal-e- Kohestan,??? ??? ???????,Kapisa,??????,2
40950,40951,Yale POP_MASTER,HAK-054,,0,KAP-HAK-054,820,Dari,1,1707.44397,35.1569,69.2953,KAP,HAK,Kohnna Dahi,207,Hisa-e- Awal-e- Kohestan,??? ??? ???????,Kapisa,??????,2
40951,40952,Yale POP_MASTER,HAK-055,,0,KAP-HAK-055,719,Dari,1,1542.23999,35.0916,69.3121,KAP,HAK,Kulalan,207,Hisa-e- Awal-e- Kohestan,??? ??? ???????,Kapisa,??????,2
40952,40953,Yale POP_MASTER,HAK-056,,0,KAP-HAK-056,1056,Dari,1,1547.401001,35.0932,69.2982,KAP,HAK,Latif Khail,207,Hisa-e- Awal-e- Kohestan,??? ??? ???????,Kapisa,??????,2
40953,40954,Yale POP_MASTER,HAK-057,,0,KAP-HAK-057,447,Dari,1,1570.510986,35.1168,69.3193,KAP,HAK,Mohammadi Khail,207,Hisa-e- Awal-e- Kohestan,??? ??? ???????,Kapisa,??????,2
40954,40955,Yale POP_MASTER,HAK-058,,0,KAP-HAK-058,844,Dari,1,1570.026001,35.1098,69.36,KAP,HAK,Mori,207,Hisa-e- Awal-e- Kohestan,??? ??? ???????,Kapisa,??????,2
40955,40956,Yale POP_MASTER,HAK-059,,0,KAP-HAK-059,388,Dari,1,1540.067993,35.0915,69.3245,KAP,HAK,Mullah Khail,207,Hisa-e- Awal-e- Kohestan,??? ??? ???????,Kapisa,??????,2
40956,40957,Yale POP_MASTER,HAK-060,,0,KAP-HAK-060,335,Dari,1,1548.709961,35.0961,69.3117,KAP,HAK,Nabi Khail,207,Hisa-e- Awal-e- Kohestan,??? ??? ???????,Kapisa,??????,2
40957,40958,Yale POP_MASTER,HAK-061,,0,KAP-HAK-061,1156,Dari,1,1615.360962,35.1477,69.2988,KAP,HAK,Namaz Jai,207,Hisa-e- Awal-e- Kohestan,??? ??? ???????,Kapisa,??????,2
40958,40959,Yale POP_MASTER,HAK-062,,0,KAP-HAK-062,778,Dari,1,1580.952026,35.1236,69.3151,KAP,HAK,Nasir Khan Khail,207,Hisa-e- Awal-e- Kohestan,??? ??? ???????,Kapisa,??????,2
40959,40960,Yale POP_MASTER,HAK-063,,0,KAP-HAK-063,572,Dari,1,1576.178955,35.1192,69.3016,KAP,HAK,Pana Khail,207,Hisa-e- Awal-e- Kohestan,??? ??? ???????,Kapisa,??????,2
40960,40961,Yale POP_MASTER,HAK-064,,0,KAP-HAK-064,1234,Dari,1,1599.123047,35.1437,69.2945,KAP,HAK,Panja Khana,207,Hisa-e- Awal-e- Kohestan,??? ??? ???????,Kapisa,??????,2
40961,40962,Yale POP_MASTER,HAK-065,,0,KAP-HAK-065,404,Dari,1,1617.0040279999998,35.1296,69.3078,KAP,HAK,Penja Kote,207,Hisa-e- Awal-e- Kohestan,??? ??? ???????,Kapisa,??????,2
40962,40963,Yale POP_MASTER,HAK-066,,0,KAP-HAK-066,532,Dari,1,1824.266968,35.1505,69.347,KAP,HAK,Pofdam,207,Hisa-e- Awal-e- Kohestan,??? ??? ???????,Kapisa,??????,2
40963,40964,Yale POP_MASTER,HAK-067,,0,KAP-HAK-067,401,Dari,1,1553.415039,35.1066,69.3453,KAP,HAK,Poza Kham Zargar,207,Hisa-e- Awal-e- Kohestan,??? ??? ???????,Kapisa,??????,2
40964,40965,Yale POP_MASTER,HAK-068,,0,KAP-HAK-068,294,Dari,1,1557.1879880000001,35.1071,69.3154,KAP,HAK,Qadam Khail,207,Hisa-e- Awal-e- Kohestan,??? ??? ???????,Kapisa,??????,2
40965,40966,Yale POP_MASTER,HAK-069,,0,KAP-HAK-069,238,Dari,1,1639.149048,35.1425,69.3226,KAP,HAK,Qala Mir,207,Hisa-e- Awal-e- Kohestan,??? ??? ???????,Kapisa,??????,2
40966,40967,Yale POP_MASTER,HAK-071,,0,KAP-HAK-071,577,Dari,1,1575.875,35.1203,69.305,KAP,HAK,Qalandar Khan Khail,207,Hisa-e- Awal-e- Kohestan,??? ??? ???????,Kapisa,??????,2
40967,40968,Yale POP_MASTER,HAK-072,,0,KAP-HAK-072,156,Dari,1,1551.786011,35.1017,69.3474,KAP,HAK,Qar Saide Dewede,207,Hisa-e- Awal-e- Kohestan,??? ??? ???????,Kapisa,??????,2
40968,40969,Yale POP_MASTER,HAK-073,,0,KAP-HAK-073,797,Dari,1,1551.390991,35.1009,69.3382,KAP,HAK,Qar Saide Sufla,207,Hisa-e- Awal-e- Kohestan,??? ??? ???????,Kapisa,??????,2
40969,40970,Yale POP_MASTER,HAK-074,,0,KAP-HAK-074,1116,Dari,1,1555.526001,35.1055,69.3288,KAP,HAK,Qar Saidi Hulya,207,Hisa-e- Awal-e- Kohestan,??? ??? ???????,Kapisa,??????,2
40970,40971,Yale POP_MASTER,HAK-075,,0,KAP-HAK-075,274,Dari,1,1575.587036,35.1208,69.2946,KAP,HAK,Qarech Khail,207,Hisa-e- Awal-e- Kohestan,??? ??? ???????,Kapisa,??????,2
40971,40972,Yale POP_MASTER,HAK-076,,0,KAP-HAK-076,1186,Dari,1,1751.972046,35.128,69.3635,KAP,HAK,Rahmat Khan Khail Sobhan,207,Hisa-e- Awal-e- Kohestan,??? ??? ???????,Kapisa,??????,2
40972,40973,Yale POP_MASTER,HAK-078,,0,KAP-HAK-078,493,Dari,1,1579.9060060000002,35.1389,69.2941,KAP,HAK,Sabzee Khail,207,Hisa-e- Awal-e- Kohestan,??? ??? ???????,Kapisa,??????,2
40973,40974,Yale POP_MASTER,HAK-029,,0,KAP-HAK-029,338,Pashai,6,2388.653076,35.1391,69.3896,KAP,HAK,Bazar Khail Sobhan,207,Hisa-e- Awal-e- Kohestan,??? ??? ???????,Kapisa,??????,2
40974,40975,Yale POP_MASTER,HAK-030,,0,KAP-HAK-030,1042,Dari,1,1643.131958,35.1529,69.3021,KAP,HAK,Chashma Allah Dad,207,Hisa-e- Awal-e- Kohestan,??? ??? ???????,Kapisa,??????,2
40975,40976,Yale POP_MASTER,HAK-031,,0,KAP-HAK-031,474,Dari,1,1654.546021,35.1482,69.3194,KAP,HAK,Chashma Mahz Allah,207,Hisa-e- Awal-e- Kohestan,??? ??? ???????,Kapisa,??????,2
40976,40977,Yale POP_MASTER,HAK-032,,0,KAP-HAK-032,669,Dari,1,1570.9790039999998,35.1139,69.3403,KAP,HAK,Dahi Kham Zargar,207,Hisa-e- Awal-e- Kohestan,??? ??? ???????,Kapisa,??????,2
40977,40978,Yale POP_MASTER,HAK-033,,0,KAP-HAK-033,707,Dari,1,1582.3959960000002,35.1244,69.3046,KAP,HAK,Dahi Now Hazat Khail,207,Hisa-e- Awal-e- Kohestan,??? ??? ???????,Kapisa,??????,2
40978,40979,Yale POP_MASTER,HAK-023,,0,KAP-HAK-023,749,Pashai,6,1858.281006,35.1405,69.3699,KAP,HAK,Ali Mardan Khail Sobhan,207,Hisa-e- Awal-e- Kohestan,??? ??? ???????,Kapisa,??????,2
40979,40980,Yale POP_MASTER,HAK-024,,0,KAP-HAK-024,888,Dari,1,1550.537964,35.1003,69.3313,KAP,HAK,Anwar Khan Khail,207,Hisa-e- Awal-e- Kohestan,??? ??? ???????,Kapisa,??????,2
40980,40981,Yale POP_MASTER,HAK-025,,0,KAP-HAK-025,253,Dari,1,1577.509033,35.1201,69.319,KAP,HAK,Ar Ullah Khail,207,Hisa-e- Awal-e- Kohestan,??? ??? ???????,Kapisa,??????,2
40981,40982,Yale POP_MASTER,HAK-026,,0,KAP-HAK-026,909,Dari,1,1562.766968,35.1086,69.3537,KAP,HAK,Bagh Cha Lalo,207,Hisa-e- Awal-e- Kohestan,??? ??? ???????,Kapisa,??????,2
40982,40983,Yale POP_MASTER,HAK-027,,0,KAP-HAK-027,858,Dari,1,1561.26001,35.106,69.2963,KAP,HAK,Bako Kham,207,Hisa-e- Awal-e- Kohestan,??? ??? ???????,Kapisa,??????,2
40983,40984,Yale POP_MASTER,HAK-028,,0,KAP-HAK-028,693,Dari,1,1552.827026,35.1002,69.3096,KAP,HAK,Bala Kocha,207,Hisa-e- Awal-e- Kohestan,??? ??? ???????,Kapisa,??????,2
41001,41002,Yale POP_MASTER,HAK-086,,0,KAP-HAK-086,592,Dari,1,1549.185059,35.0963,69.3067,KAP,HAK,Shof Cheyan,207,Hisa-e- Awal-e- Kohestan,??? ??? ???????,Kapisa,??????,2
41002,41003,Yale POP_MASTER,HAK-087,,0,KAP-HAK-087,1094,Pashai,6,1895.18103,35.1431,69.374,KAP,HAK,Sobhan,207,Hisa-e- Awal-e- Kohestan,??? ??? ???????,Kapisa,??????,2
41003,41004,Yale POP_MASTER,HAK-088,,0,KAP-HAK-088,243,Dari,1,1563.602051,35.1112,69.3238,KAP,HAK,Sorat Baik Khail,207,Hisa-e- Awal-e- Kohestan,??? ??? ???????,Kapisa,??????,2
41004,41005,Yale POP_MASTER,HAK-089,,0,KAP-HAK-089,130,Dari,1,1565.126953,35.1123,69.3072,KAP,HAK,Sufi Khail,207,Hisa-e- Awal-e- Kohestan,??? ??? ???????,Kapisa,??????,2
41005,41006,Yale POP_MASTER,HAK-090,,0,KAP-HAK-090,438,Dari,1,1555.435059,35.104,69.3251,KAP,HAK,Tapa Malik Ha,207,Hisa-e- Awal-e- Kohestan,??? ??? ???????,Kapisa,??????,2
41006,41007,Yale POP_MASTER,HAK-091,,0,KAP-HAK-091,393,Pashai,6,1760.35498,35.1401,69.3559,KAP,HAK,Tapa Sobhan,207,Hisa-e- Awal-e- Kohestan,??? ??? ???????,Kapisa,??????,2
41007,41008,Yale POP_MASTER,HAK-092,,0,KAP-HAK-092,1122,Dari,1,1556.482056,35.1012,69.2952,KAP,HAK,Tapa Zar,207,Hisa-e- Awal-e- Kohestan,??? ??? ???????,Kapisa,??????,2
41008,41009,Yale POP_MASTER,HAK-093,,0,KAP-HAK-093,1576,Dari,1,1612.0469970000001,35.1452,69.3071,KAP,HAK,Wasi Khail,207,Hisa-e- Awal-e- Kohestan,??? ??? ???????,Kapisa,??????,2
41009,41010,Yale POP_MASTER,HAK-094,,0,KAP-HAK-094,316,Dari,1,1568.578979,35.1156,69.307,KAP,HAK,Zobid Khail,207,Hisa-e- Awal-e- Kohestan,??? ??? ???????,Kapisa,??????,2
41010,41011,Yale POP_MASTER,HAK-095,,0,KAP-HAK-095,54407,Dari,1,1584.612061,35.1357,69.2976,KAP,HAK,Ezzatkhel,207,Hisa-e- Awal-e- Kohestan,??? ??? ???????,Kapisa,??????,2
41011,41012,Yale POP_MASTER,HAK-096,District,1,KAP-HAK-096,1000,Dari,1,1598.0040279999998,35.1402,69.3026,KAP,HAK,Hesa-e-awale Kohestan,207,Hisa-e- Awal-e- Kohestan,??? ??? ???????,Kapisa,??????,2
41012,41013,Yale POP_MASTER,HDK-011,,0,KAP-HDK-011,276,Dari,1,1565.348999,35.0965,69.3631,KAP,HDK,Butta Zar,204,Hisa-e- Duwum-e- Kohestan,??? ??? ???????,Kapisa,??????,2
41013,41014,Yale POP_MASTER,HDK-016,,0,KAP-HDK-016,384,Dari,1,1541.189941,35.0896,69.3447,KAP,HDK,Dahi Payek,204,Hisa-e- Duwum-e- Kohestan,??? ??? ???????,Kapisa,??????,2
41014,41015,Yale POP_MASTER,HDK-030,,0,KAP-HDK-030,1134,Dari,1,1540.313965,35.0891,69.3328,KAP,HDK,Mullah Khail Sufla,204,Hisa-e- Duwum-e- Kohestan,??? ??? ???????,Kapisa,??????,2
41015,41016,Yale POP_MASTER,HDK-035,,0,KAP-HDK-035,810,Dari,1,1596.512939,35.1046,69.3718,KAP,HDK,Poul Moghlan,204,Hisa-e- Duwum-e- Kohestan,??? ??? ???????,Kapisa,??????,2
41016,41017,Yale POP_MASTER,HDK-039,,0,KAP-HDK-039,836,Dari,1,1528.939941,35.0813,69.3186,KAP,HDK,Qala Sahraye Ashtor Garam Ya Lala Shah Khail,204,Hisa-e- Duwum-e- Kohestan,??? ??? ???????,Kapisa,??????,2
41017,41018,Yale POP_MASTER,HDK-042,,0,KAP-HDK-042,177,Dari,1,1541.588013,35.0924,69.3456,KAP,HDK,Qalander Khail,204,Hisa-e- Duwum-e- Kohestan,??? ??? ???????,Kapisa,??????,2
41018,41019,Yale POP_MASTER,HDK-043,,0,KAP-HDK-043,540,Dari,1,1560.880981,35.0995,69.3589,KAP,HDK,Qoul Jamal,204,Hisa-e- Duwum-e- Kohestan,??? ??? ???????,Kapisa,??????,2
41019,41020,Yale POP_MASTER,HDK-053,,0,KAP-HDK-053,483,Dari,1,1544.77002,35.0916,69.3348,KAP,HDK,Tal Shahida Sufla,204,Hisa-e- Duwum-e- Kohestan,??? ??? ???????,Kapisa,??????,2
41020,41021,Yale POP_MASTER,HDK-054,,0,KAP-HDK-054,909,Dari,1,1543.108032,35.0945,69.3316,KAP,HDK,Tal Shohada Hulya,204,Hisa-e- Duwum-e- Kohestan,??? ??? ???????,Kapisa,??????,2
41021,41022,USAID AIDVillageView,NJB-014,,0,KAP-NJB-014,0,Dari,1,2673.924072,35.1264,69.6173,KAP,NJB,Lambar,202,Nejrab,?????,Kapisa,??????,2
41022,41023,CSO AIMS Villages (ACSOR),NJB-031,,0,KAP-NJB-031,133,Dari,1,2451.4060059999997,35.08723,69.55781,KAP,NJB,Kundi (1),202,Nejrab,?????,Kapisa,??????,2
41023,41024,CSO AIMS Villages (ACSOR),NJB-032,,0,KAP-NJB-032,480,Dari,1,2056.375,35.03985,69.52162,KAP,NJB,Kundi (2),202,Nejrab,?????,Kapisa,??????,2
41024,41025,USAID AIDVillageView,KBD-003,,0,KAP-KBD-003,0,Dari,1,1932.050049,35.0501,69.4721,KAP,KBD,Kundali,203,Kohband,??? ???,Kapisa,??????,2
41025,41026,USAID AIDVillageView,KBD-005,,0,KAP-KBD-005,0,Dari,1,1719.222046,35.1007,69.4047,KAP,KBD,Qal'a Mashrab,203,Kohband,??? ???,Kapisa,??????,2
41026,41027,Yale POP_MASTER,NJB-050,,0,KAP-NJB-050,540,Dari,1,2324.14209,35.0715,69.5609,KAP,NJB,Baba Easar,202,Nejrab,?????,Kapisa,??????,2
41027,41028,Yale POP_MASTER,NJB-051,,0,KAP-NJB-051,502,Dari,1,2620.97998,35.0922,69.5623,KAP,NJB,Babay Khail,202,Nejrab,?????,Kapisa,??????,2
41028,41029,Yale POP_MASTER,NJB-058,,0,KAP-NJB-058,218,Dari,1,2293.985107,35.0742,69.5637,KAP,NJB,Bala Dahi,202,Nejrab,?????,Kapisa,??????,2
41029,41030,Yale POP_MASTER,NJB-084,,0,KAP-NJB-084,1123,Hazaragi,8,2563.737061,35.117,69.6193,KAP,NJB,Ghajo Lan,202,Nejrab,?????,Kapisa,??????,2
41030,41031,Yale POP_MASTER,NJB-095,,0,KAP-NJB-095,312,Dari,1,2783.604004,35.0854,69.553,KAP,NJB,Hamayoun Khail,202,Nejrab,?????,Kapisa,??????,2
41031,41032,Yale POP_MASTER,NJB-097,,0,KAP-NJB-097,100,Pashai,6,1994.5959469999998,35.0336,69.52,KAP,NJB,Hashor Khail,202,Nejrab,?????,Kapisa,??????,2
41032,41033,Yale POP_MASTER,NJB-116,,0,KAP-NJB-116,367,Pashai,6,2014.8649899999998,35.035,69.5238,KAP,NJB,Khowja Ahmad Wali,202,Nejrab,?????,Kapisa,??????,2
41033,41034,Yale POP_MASTER,NJB-123,,0,KAP-NJB-123,255,Hazaragi,8,2546.709961,35.1111,69.592,KAP,NJB,Kow- Wajmem,202,Nejrab,?????,Kapisa,??????,2
41034,41035,Yale POP_MASTER,NJB-133,,0,KAP-NJB-133,319,Pashai,6,1933.0880129999998,35.025999999999996,69.5144,KAP,NJB,Marga,202,Nejrab,?????,Kapisa,??????,2
41035,41036,Yale POP_MASTER,NJB-152,,0,KAP-NJB-152,293,Dari,1,2473.634033,35.0983,69.5822,KAP,NJB,Sar Ghoue,202,Nejrab,?????,Kapisa,??????,2
41036,41037,Yale POP_MASTER,NJB-174,,0,KAP-NJB-174,232,Dari,1,2582.433105,35.0897,69.5532,KAP,NJB,Toman Khail,202,Nejrab,?????,Kapisa,??????,2
41037,41038,Yale POP_MASTER,MRI-034,,0,KAP-MRI-034,595,Pashai,6,1562.32605,35.046,69.4184,KAP,MRI,Mangal,201,Mahmud-e- Raqi,????? ????,Kapisa,??????,2
41038,41039,Yale POP_MASTER,MRI-040,,0,KAP-MRI-040,357,Dari,1,1607.48999,35.051,69.4357,KAP,MRI,Nowabad Sar Jowi Wa Mangalyan,201,Mahmud-e- Raqi,????? ????,Kapisa,??????,2
41039,41040,Yale POP_MASTER,MRI-042,,0,KAP-MRI-042,1191,Pashai,6,1557.139038,35.0518,69.4163,KAP,MRI,Pashye,201,Mahmud-e- Raqi,????? ????,Kapisa,??????,2
41040,41041,Yale POP_MASTER,KBD-014,,0,KAP-KBD-014,1203,Pashai,6,1919.781006,35.0603,69.4883,KAP,KBD,Bai Khail Ya Dornama,203,Kohband,??? ???,Kapisa,??????,2
41041,41042,Yale POP_MASTER,KBD-017,,0,KAP-KBD-017,132,Dari,1,1742.6779789999998,35.0328,69.4557,KAP,KBD,Char Maghz Dara,203,Kohband,??? ???,Kapisa,??????,2
41042,41043,Yale POP_MASTER,KBD-018,,0,KAP-KBD-018,423,Pashai,6,1935.6469730000001,35.1235,69.4034,KAP,KBD,Dozd Dara Ya Zarghonat,203,Kohband,??? ???,Kapisa,??????,2
41043,41044,Yale POP_MASTER,KBD-025,,0,KAP-KBD-025,55,Pashai,6,1828.0830079999998,35.0484,69.4662,KAP,KBD,Lonyar,203,Kohband,??? ???,Kapisa,??????,2
41044,41045,Yale POP_MASTER,KBD-029,,0,KAP-KBD-029,1387,Pashai,6,2116.697998,35.0543,69.5014,KAP,KBD,Mir Ali Khail Ya Dornama,203,Kohband,??? ???,Kapisa,??????,2
41045,41046,Yale POP_MASTER,KBD-033,,0,KAP-KBD-033,436,Pashai,6,1684.9790039999998,35.096,69.4026,KAP,KBD,Qala Atah Khan,203,Kohband,??? ???,Kapisa,??????,2
41046,41047,Yale POP_MASTER,KBD-035,,0,KAP-KBD-035,39,Pashai,6,1737.113037,35.1099,69.3988,KAP,KBD,Qala Moshraf,203,Kohband,??? ???,Kapisa,??????,2
41622,41623,USAID AIDVillageView,NJB-012,,0,KAP-NJB-012,0,Dari,1,2676.180908,35.1164,69.6921,KAP,NJB,Kherok,202,Nejrab,?????,Kapisa,??????,2
41820,41821,USAID AIDVillageView,HAK-004,,0,KAP-HAK-004,0,Dari,1,1544.100952,35.0904,69.2972,KAP,HAK,Ghafarkhel,207,Hisa-e- Awal-e- Kohestan,??? ??? ???????,Kapisa,??????,2
41821,41822,USAID AIDVillageView,HAK-022,,0,KAP-HAK-022,0,Dari,1,1543.157959,35.0902,69.3001,KAP,HAK,Ushtur Giram,207,Hisa-e- Awal-e- Kohestan,??? ??? ???????,Kapisa,??????,2
41822,41823,CSO AIMS Villages (ACSOR),HDK-007,,0,KAP-HDK-007,531,Dari,1,1521.338013,35.070890000000006,69.30933,KAP,HDK,Murad Khoja,204,Hisa-e- Duwum-e- Kohestan,??? ??? ???????,Kapisa,??????,2
41877,41878,Yale POP_MASTER,HAK-070,,0,KAP-HAK-070,614,Dari,1,1545.880005,35.0919,69.292,KAP,HAK,Qala Sahra Tapa Zar,207,Hisa-e- Awal-e- Kohestan,??? ??? ???????,Kapisa,??????,2
41879,41880,Yale POP_MASTER,HDK-017,,0,KAP-HDK-017,504,Dari,1,1483.680054,35.0431,69.2996,KAP,HDK,Dorbafan,204,Hisa-e- Duwum-e- Kohestan,??? ??? ???????,Kapisa,??????,2
41880,41881,Yale POP_MASTER,HDK-019,,0,KAP-HDK-019,994,Dari,1,1527.69104,35.0774,69.2917,KAP,HDK,Jamal Agha Bala,204,Hisa-e- Duwum-e- Kohestan,??? ??? ???????,Kapisa,??????,2
41881,41882,Yale POP_MASTER,HDK-020,,0,KAP-HDK-020,554,Dari,1,1518.303955,35.0691,69.2902,KAP,HDK,Jamal Agha Hulya Qourban Khail,204,Hisa-e- Duwum-e- Kohestan,??? ??? ???????,Kapisa,??????,2
41882,41883,Yale POP_MASTER,HDK-021,,0,KAP-HDK-021,1163,Dari,1,1505.472046,35.0757,69.2835,KAP,HDK,Jamal Agha Payen,204,Hisa-e- Duwum-e- Kohestan,??? ??? ???????,Kapisa,??????,2
41883,41884,Yale POP_MASTER,HDK-022,,0,KAP-HDK-022,453,Dari,1,1494.775024,35.0638,69.2841,KAP,HDK,Jamal Agha Payen Qala Dara Khail,204,Hisa-e- Duwum-e- Kohestan,??? ??? ???????,Kapisa,??????,2
41884,41885,Yale POP_MASTER,HDK-023,,0,KAP-HDK-023,1334,Dari,1,1476.267944,35.0374,69.2912,KAP,HDK,Kalota Afghania,204,Hisa-e- Duwum-e- Kohestan,??? ??? ???????,Kapisa,??????,2
41885,41886,Yale POP_MASTER,HDK-025,,0,KAP-HDK-025,1180,Dari,1,1481.322998,35.0446,69.2954,KAP,HDK,Keshketan Hulya,204,Hisa-e- Duwum-e- Kohestan,??? ??? ???????,Kapisa,??????,2
41886,41887,Yale POP_MASTER,HDK-026,,0,KAP-HDK-026,926,Dari,1,1480.900024,35.042,69.2942,KAP,HDK,Keshketan Sufla,204,Hisa-e- Duwum-e- Kohestan,??? ??? ???????,Kapisa,??????,2
41887,41888,Yale POP_MASTER,HDK-032,,0,KAP-HDK-032,742,Dari,1,1503.4610599999999,35.0515,69.3065,KAP,HDK,Mullah Zad Khail Payen,204,Hisa-e- Duwum-e- Kohestan,??? ??? ???????,Kapisa,??????,2
41888,41889,Yale POP_MASTER,HDK-033,,0,KAP-HDK-033,1191,Pashai,6,1511.746948,35.0616,69.3112,KAP,HDK,Murad Khowja Char Asiayab,204,Hisa-e- Duwum-e- Kohestan,??? ??? ???????,Kapisa,??????,2
41889,41890,Yale POP_MASTER,HDK-037,,0,KAP-HDK-037,387,Dari,1,1483.780029,35.0492,69.2845,KAP,HDK,Qala Raigi,204,Hisa-e- Duwum-e- Kohestan,??? ??? ???????,Kapisa,??????,2
41890,41891,Yale POP_MASTER,HDK-040,,0,KAP-HDK-040,559,Dari,1,1508.899048,35.0605,69.2949,KAP,HDK,Qala Sahraye Jamal Agha,204,Hisa-e- Duwum-e- Kohestan,??? ??? ???????,Kapisa,??????,2
41891,41892,Yale POP_MASTER,HDK-047,,0,KAP-HDK-047,1365,Uzbek,3,1509.310059,35.0815,69.2851,KAP,HDK,Sar Band Sufla,204,Hisa-e- Duwum-e- Kohestan,??? ??? ???????,Kapisa,??????,2
41892,41893,Yale POP_MASTER,HDK-049,,0,KAP-HDK-049,844,Dari,1,1522.449951,35.07,69.2979,KAP,HDK,Sefatulla Khail,204,Hisa-e- Duwum-e- Kohestan,??? ??? ???????,Kapisa,??????,2
41893,41894,Yale POP_MASTER,HDK-051,,0,KAP-HDK-051,226,Dari,1,1501.740967,35.0724,69.2867,KAP,HDK,Ta Pushta Jamal Agha Lab Darya,204,Hisa-e- Duwum-e- Kohestan,??? ??? ???????,Kapisa,??????,2
41894,41895,Yale POP_MASTER,HDK-055,,0,KAP-HDK-055,861,Dari,1,1530.862061,35.0798,69.3009,KAP,HDK,Toghak (haji Mirza Mohammad Halam),204,Hisa-e- Duwum-e- Kohestan,??? ??? ???????,Kapisa,??????,2
41895,41896,Yale POP_MASTER,HDK-056,,0,KAP-HDK-056,638,Dari,1,1508.584961,35.0582,69.3033,KAP,HDK,Yaro Khail Jamal Agha Payen,204,Hisa-e- Duwum-e- Kohestan,??? ??? ???????,Kapisa,??????,2
41896,41897,Yale POP_MASTER,MRI-036,,0,KAP-MRI-036,1138,Pashto,2,1468.781982,35.0291,69.2952,KAP,MRI,Mohammad Omer Khail,201,Mahmud-e- Raqi,????? ????,Kapisa,??????,2
44267,44268,USAID AIDVillageView,HAK-007,,0,KAP-HAK-007,0,Dari,1,2321.381104,35.1745,69.3224,KAP,HAK,Hesar,207,Hisa-e- Awal-e- Kohestan,??? ??? ???????,Kapisa,??????,2
44268,44269,USAID AIDVillageView,HAK-009,,0,KAP-HAK-009,0,Dari,1,2412.782959,35.172,69.3457,KAP,HAK,Khamba,207,Hisa-e- Awal-e- Kohestan,??? ??? ???????,Kapisa,??????,2
44276,44277,Yale POP_MASTER,HAK-045,,0,KAP-HAK-045,77,Dari,1,2278.545898,35.1734,69.3277,KAP,HAK,Hessar,207,Hisa-e- Awal-e- Kohestan,??? ??? ???????,Kapisa,??????,2
44277,44278,Yale POP_MASTER,HAK-053,,0,KAP-HAK-053,318,Dari,1,2291.01709,35.1725,69.3397,KAP,HAK,Khamba,207,Hisa-e- Awal-e- Kohestan,??? ??? ???????,Kapisa,??????,2
44278,44279,Yale POP_MASTER,HAK-077,,0,KAP-HAK-077,284,Dari,1,2279.701904,35.1782,69.3279,KAP,HAK,Rubat,207,Hisa-e- Awal-e- Kohestan,??? ??? ???????,Kapisa,??????,2
44323,44324,Yale POP_MASTER,NJB-105,,0,KAP-NJB-105,98,Pashto,2,1438.251953,34.931999999999995,69.546,KAP,NJB,Jangal Bagh,202,Nejrab,?????,Kapisa,??????,2
44324,44325,Yale POP_MASTER,NJB-122,,0,KAP-NJB-122,542,Pashto,2,1573.112061,34.9558,69.5868,KAP,NJB,Kormaye,202,Nejrab,?????,Kapisa,??????,2
44325,44326,Yale POP_MASTER,NJB-131,,0,KAP-NJB-131,1130,Pashai,6,1578.541992,34.9636,69.5882,KAP,NJB,Magh Dod Khail,202,Nejrab,?????,Kapisa,??????,2
44326,44327,Yale POP_MASTER,NJB-154,,0,KAP-NJB-154,1034,Pashto,2,1658.912964,34.9804,69.6008,KAP,NJB,Sayabat,202,Nejrab,?????,Kapisa,??????,2
44327,44328,Yale POP_MASTER,NJB-170,,0,KAP-NJB-170,236,Pashto,2,1582.267944,34.9581,69.5807,KAP,NJB,Tapa Ahmad Baik,202,Nejrab,?????,Kapisa,??????,2
44328,44329,Yale POP_MASTER,NJB-173,,0,KAP-NJB-173,675,Dari,1,1669.796021,34.9895,69.5832,KAP,NJB,Toghak,202,Nejrab,?????,Kapisa,??????,2
44329,44330,Yale POP_MASTER,NJB-180,,0,KAP-NJB-180,1306,Pashto,2,1619.468018,34.9767,69.5869,KAP,NJB,Yasin Zai,202,Nejrab,?????,Kapisa,??????,2
44330,44331,Yale POP_MASTER,NJB-182,,0,KAP-NJB-182,1551,Dari,1,1658.485962,34.9678,69.5751,KAP,NJB,Zar-shoy,202,Nejrab,?????,Kapisa,??????,2
44331,44332,Yale POP_MASTER,NJB-185,District,1,KAP-NJB-185,18966,Dari,1,1660.682983,34.9794,69.5721,KAP,NJB,Nejrab,202,Nejrab,?????,Kapisa,??????,2
44332,44333,Yale POP_MASTER,TG2-073,,0,KAP-TG2-073,153,Pashto,2,1486.055054,34.9356,69.6163,KAP,TG2,Karaiz,205,Tagab,????,Kapisa,??????,2
44333,44334,Yale POP_MASTER,TG2-079,,0,KAP-TG2-079,805,Pashto,2,1438.4019779999999,34.9311,69.6217,KAP,TG2,Kora,205,Tagab,????,Kapisa,??????,2
44335,44336,USAID AIDVillageView,TG2-001,,0,KAP-TG2-001,0,Pashto,2,1376.600952,34.8963,69.6331,KAP,TG2,Adinkhel,205,Tagab,????,Kapisa,??????,2
44336,44337,USAID AIDVillageView,TG2-003,,0,KAP-TG2-003,0,Pashto,2,1336.29895,34.8245,69.6754,KAP,TG2,Azadkhankhel,205,Tagab,????,Kapisa,??????,2
44337,44338,USAID AIDVillageView,TG2-007,,0,KAP-TG2-007,0,Pashto,2,1385.532959,34.9042,69.6285,KAP,TG2,Gorwandyan,205,Tagab,????,Kapisa,??????,2
44338,44339,USAID AIDVillageView,TG2-010,,0,KAP-TG2-010,0,Pashto,2,1415.285034,34.8117,69.6927,KAP,TG2,Loy Naw,205,Tagab,????,Kapisa,??????,2
44339,44340,USAID AIDVillageView,TG2-011,,0,KAP-TG2-011,0,Pashto,2,1364.6030269999999,34.8746,69.6682,KAP,TG2,Manokhel,205,Tagab,????,Kapisa,??????,2
44340,44341,USAID AIDVillageView,TG2-012,,0,KAP-TG2-012,0,Pashto,2,1279.975952,34.7333,69.6607,KAP,TG2,Moghulkhel,205,Tagab,????,Kapisa,??????,2
44341,44342,USAID AIDVillageView,TG2-013,,0,KAP-TG2-013,0,Pashto,2,1281.23999,34.8015,69.6658,KAP,TG2,Nawrozkhel,205,Tagab,????,Kapisa,??????,2
44342,44343,USAID AIDVillageView,TG2-016,,0,KAP-TG2-016,0,Pashto,2,1363.735962,34.8918,69.6367,KAP,TG2,Qal`eh-ye Saleh,205,Tagab,????,Kapisa,??????,2
44343,44344,USAID AIDVillageView,TG2-017,,0,KAP-TG2-017,0,Pashto,2,1303.260986,34.8205,69.6573,KAP,TG2,Sehpadar,205,Tagab,????,Kapisa,??????,2
44344,44345,USAID AIDVillageView,TG2-018,,0,KAP-TG2-018,0,Pashto,2,1352.907959,34.8812,69.6536,KAP,TG2,Sinza'i (1),205,Tagab,????,Kapisa,??????,2
44345,44346,USAID AIDVillageView,TG2-019,,0,KAP-TG2-019,0,Pashto,2,1316.579956,34.8503,69.6596,KAP,TG2,Sinza'i (2),205,Tagab,????,Kapisa,??????,2
44346,44347,USAID AIDVillageView,TG2-020,,0,KAP-TG2-020,0,Pashto,2,1349.93396,34.8422,69.6742,KAP,TG2,Sufyan,205,Tagab,????,Kapisa,??????,2
44347,44348,CSO AIMS Villages (ACSOR),TG2-021,,0,KAP-TG2-021,417,Pashto,2,1276.119995,34.795159999999996,69.66849,KAP,TG2,Aka Khail (1),205,Tagab,????,Kapisa,??????,2
44348,44349,CSO AIMS Villages (ACSOR),TG2-022,,0,KAP-TG2-022,870,Pashto,2,1386.045044,34.838640000000005,69.68738,KAP,TG2,Aka Khail (2),205,Tagab,????,Kapisa,??????,2
44349,44350,CSO AIMS Villages (ACSOR),TG2-023,,0,KAP-TG2-023,350,Pashto,2,1439.880981,34.83828,69.70474,KAP,TG2,Badar Khail,205,Tagab,????,Kapisa,??????,2
44350,44351,CSO AIMS Villages (ACSOR),TG2-024,,0,KAP-TG2-024,876,Pashto,2,1394.22998,34.832359999999994,69.6939,KAP,TG2,Bahder Khail,205,Tagab,????,Kapisa,??????,2
44351,44352,CSO AIMS Villages (ACSOR),TG2-025,,0,KAP-TG2-025,457,Pashto,2,1294.380005,34.81259,69.6582,KAP,TG2,Khoshal Khail (1),205,Tagab,????,Kapisa,??????,2
44352,44353,CSO AIMS Villages (ACSOR),TG2-026,,0,KAP-TG2-026,989,Pashto,2,1258.371948,34.76116,69.65833,KAP,TG2,Khoshal Khail (2),205,Tagab,????,Kapisa,??????,2
44353,44354,CSO AIMS Villages (ACSOR),TG2-027,,0,KAP-TG2-027,343,Pashto,2,1347.672974,34.87863,69.64284,KAP,TG2,Omer Khail (1),205,Tagab,????,Kapisa,??????,2
44354,44355,CSO AIMS Villages (ACSOR),TG2-028,,0,KAP-TG2-028,1140,Pashto,2,1235.902954,34.765809999999995,69.66469000000001,KAP,TG2,Omer Khail (2),205,Tagab,????,Kapisa,??????,2
44355,44356,Yale POP_MASTER,TG2-030,,0,KAP-TG2-030,1646,Pashto,2,1357.5,34.8824,69.6569,KAP,TG2,Adi Zai Sayid Khail,205,Tagab,????,Kapisa,??????,2
44356,44357,Yale POP_MASTER,TG2-031,,0,KAP-TG2-031,961,Pashto,2,1299.75,34.8183,69.6571,KAP,TG2,Akhter Baba Khail Say Padar,205,Tagab,????,Kapisa,??????,2
44357,44358,Yale POP_MASTER,TG2-033,,0,KAP-TG2-033,817,Pashto,2,1392.4379880000001,34.8439,69.6897,KAP,TG2,Almas Khail,205,Tagab,????,Kapisa,??????,2
44358,44359,Yale POP_MASTER,TG2-035,,0,KAP-TG2-035,435,Pashto,2,1324.52002,34.8521,69.6514,KAP,TG2,Anar Jowi Hulya,205,Tagab,????,Kapisa,??????,2
44359,44360,Yale POP_MASTER,TG2-036,,0,KAP-TG2-036,654,Pashto,2,1311.501953,34.8472,69.6528,KAP,TG2,Anar Jowi Sufla,205,Tagab,????,Kapisa,??????,2
44360,44361,Yale POP_MASTER,TG2-037,,0,KAP-TG2-037,603,Pashto,2,1335.698975,34.8672,69.6604,KAP,TG2,Angeyan,205,Tagab,????,Kapisa,??????,2
44361,44362,Yale POP_MASTER,TG2-038,,0,KAP-TG2-038,214,Pashto,2,1187.352051,34.7237,69.6703,KAP,TG2,Anzeran,205,Tagab,????,Kapisa,??????,2
44362,44363,Yale POP_MASTER,TG2-039,,0,KAP-TG2-039,750,Pashto,2,1389.302002,34.8893,69.6696,KAP,TG2,Ashraf Khail Ya Mira Khail,205,Tagab,????,Kapisa,??????,2
44363,44364,Yale POP_MASTER,TG2-040,,0,KAP-TG2-040,664,Pashto,2,1245.837036,34.7753,69.6651,KAP,TG2,Baba Khail,205,Tagab,????,Kapisa,??????,2
44364,44365,Yale POP_MASTER,TG2-041,,0,KAP-TG2-041,574,Pashto,2,1438.600952,34.8447,69.7032,KAP,TG2,Baber Khoja,205,Tagab,????,Kapisa,??????,2
44365,44366,Yale POP_MASTER,TG2-042,,0,KAP-TG2-042,875,Pashto,2,1449.0860599999999,34.8322,69.7051,KAP,TG2,Bara Ka,205,Tagab,????,Kapisa,??????,2
44366,44367,Yale POP_MASTER,TG2-043,,0,KAP-TG2-043,324,Pashto,2,1263.071045,34.7911,69.6633,KAP,TG2,Bayesh Khail,205,Tagab,????,Kapisa,??????,2
44367,44368,Yale POP_MASTER,TG2-046,,0,KAP-TG2-046,65,Pashto,2,1402.703979,34.764,69.7181,KAP,TG2,Chenari,205,Tagab,????,Kapisa,??????,2
44368,44369,Yale POP_MASTER,TG2-047,,0,KAP-TG2-047,55,Pashto,2,1376.483032,34.8222,69.6921,KAP,TG2,Cheni Ghondi,205,Tagab,????,Kapisa,??????,2
44369,44370,Yale POP_MASTER,TG2-049,,0,KAP-TG2-049,261,Pashto,2,1490.967041,34.7817,69.7212,KAP,TG2,Daram Daram,205,Tagab,????,Kapisa,??????,2
44370,44371,Yale POP_MASTER,TG2-051,,0,KAP-TG2-051,458,Pashto,2,1358.2969970000001,34.8728,69.6391,KAP,TG2,Dodan Jowibar,205,Tagab,????,Kapisa,??????,2
44371,44372,Yale POP_MASTER,TG2-054,,0,KAP-TG2-054,860,Pashto,2,1369.374023,34.8341,69.6831,KAP,TG2,Gada Khail,205,Tagab,????,Kapisa,??????,2
44372,44373,Yale POP_MASTER,TG2-056,,0,KAP-TG2-056,1089,Pashto,2,1331.4219970000001,34.8411,69.6652,KAP,TG2,Ghani Khail,205,Tagab,????,Kapisa,??????,2
44373,44374,Yale POP_MASTER,TG2-057,,0,KAP-TG2-057,880,Pashto,2,1358.43396,34.8384,69.6765,KAP,TG2,Ghayrat Khail,205,Tagab,????,Kapisa,??????,2
44374,44375,Yale POP_MASTER,TG2-058,,0,KAP-TG2-058,1122,Pashto,2,1177.920044,34.7156,69.6738,KAP,TG2,Ghazi Khan Khail,205,Tagab,????,Kapisa,??????,2
44375,44376,Yale POP_MASTER,TG2-059,,0,KAP-TG2-059,180,Pashto,2,1349.227051,34.8178,69.6801,KAP,TG2,Gobangro,205,Tagab,????,Kapisa,??????,2
44376,44377,Yale POP_MASTER,TG2-061,,0,KAP-TG2-061,350,Pashto,2,1417.005981,34.9246,69.6237,KAP,TG2,Habad Khail,205,Tagab,????,Kapisa,??????,2
44377,44378,Yale POP_MASTER,TG2-062,,0,KAP-TG2-062,1007,Pashto,2,1281.717041,34.8028,69.6598,KAP,TG2,Habash Khail,205,Tagab,????,Kapisa,??????,2
44378,44379,Yale POP_MASTER,TG2-063,,0,KAP-TG2-063,898,Pashto,2,1307.686035,34.8135,69.6501,KAP,TG2,Habash Khail Ya Nowabad Habash Khail,205,Tagab,????,Kapisa,??????,2
44379,44380,Yale POP_MASTER,TG2-064,,0,KAP-TG2-064,389,Pashto,2,1471.890015,34.9125,69.6203,KAP,TG2,Hada Landa Khail,205,Tagab,????,Kapisa,??????,2
44380,44381,Yale POP_MASTER,TG2-065,,0,KAP-TG2-065,961,Pashto,2,1341.2290039999998,34.8715,69.6577,KAP,TG2,Hamza Khail,205,Tagab,????,Kapisa,??????,2
44381,44382,Yale POP_MASTER,TG2-066,,0,KAP-TG2-066,871,Pashto,2,1426.80603,34.8297,69.7003,KAP,TG2,Haybat Khail,205,Tagab,????,Kapisa,??????,2
44382,44383,Yale POP_MASTER,TG2-067,,0,KAP-TG2-067,812,Pashto,2,1354.255981,34.8842,69.6407,KAP,TG2,Jalow Khail,205,Tagab,????,Kapisa,??????,2
44383,44384,Yale POP_MASTER,TG2-068,,0,KAP-TG2-068,689,Pashto,2,1299.704956,34.8097,69.6509,KAP,TG2,Jangalyan,205,Tagab,????,Kapisa,??????,2
44384,44385,Yale POP_MASTER,TG2-069,,0,KAP-TG2-069,853,Pashto,2,1341.017944,34.8677,69.6429,KAP,TG2,Jowi Bar,205,Tagab,????,Kapisa,??????,2
44385,44386,Yale POP_MASTER,TG2-074,,0,KAP-TG2-074,1036,Pashto,2,1313.741943,34.841,69.6532,KAP,TG2,Karam Khail,205,Tagab,????,Kapisa,??????,2
44386,44387,Yale POP_MASTER,TG2-075,,0,KAP-TG2-075,960,Pashto,2,1372.889038,34.8888,69.6581,KAP,TG2,Kariaz Mira Khail,205,Tagab,????,Kapisa,??????,2
44387,44388,Yale POP_MASTER,TG2-076,,0,KAP-TG2-076,329,Pashto,2,1315.8959960000002,34.8233,69.6618,KAP,TG2,Khal Mohammad Say Padar,205,Tagab,????,Kapisa,??????,2
44388,44389,Yale POP_MASTER,TG2-077,,0,KAP-TG2-077,762,Pashto,2,1410.608032,34.8862,69.6773,KAP,TG2,Khalil Khail,205,Tagab,????,Kapisa,??????,2
44389,44390,Yale POP_MASTER,TG2-082,,0,KAP-TG2-082,870,Pashto,2,1429.921021,34.8359,69.7032,KAP,TG2,Laghmani,205,Tagab,????,Kapisa,??????,2
44390,44391,Yale POP_MASTER,TG2-083,,0,KAP-TG2-083,1123,Pashto,2,1400.2929689999999,34.9172,69.6239,KAP,TG2,Landa Khail Awal,205,Tagab,????,Kapisa,??????,2
44391,44392,Yale POP_MASTER,TG2-084,,0,KAP-TG2-084,1585,Pashto,2,1400.31897,34.9137,69.6305,KAP,TG2,Landa Khail Duwum,205,Tagab,????,Kapisa,??????,2
44392,44393,Yale POP_MASTER,TG2-085,,0,KAP-TG2-085,661,Pashto,2,1421.295044,34.8388,69.6999,KAP,TG2,Lowi Jamaht,205,Tagab,????,Kapisa,??????,2
44393,44394,Yale POP_MASTER,TG2-086,,0,KAP-TG2-086,487,Dari,1,1450.767944,34.8341,69.7073,KAP,TG2,Lowi Kalay,205,Tagab,????,Kapisa,??????,2
44394,44395,Yale POP_MASTER,TG2-088,,0,KAP-TG2-088,1040,Pashto,2,1333.525024,34.8713,69.654,KAP,TG2,Malikan Jowi Bar,205,Tagab,????,Kapisa,??????,2
44395,44396,Yale POP_MASTER,TG2-089,,0,KAP-TG2-089,10,Pashto,2,1344.639038,34.8535,69.6469,KAP,TG2,Markaz Wolluswaly Tagab,205,Tagab,????,Kapisa,??????,2
44396,44397,Yale POP_MASTER,TG2-090,,0,KAP-TG2-090,378,Pashto,2,1376.909058,34.8857,69.6644,KAP,TG2,Masood Khail,205,Tagab,????,Kapisa,??????,2
44397,44398,Yale POP_MASTER,TG2-093,,0,KAP-TG2-093,230,Pashto,2,1193.321045,34.7313,69.6683,KAP,TG2,Mir Khail,205,Tagab,????,Kapisa,??????,2
44398,44399,Yale POP_MASTER,TG2-094,,0,KAP-TG2-094,712,Pashto,2,1306.644043,34.8346,69.6514,KAP,TG2,Mohib Khail Mashowani,205,Tagab,????,Kapisa,??????,2
44399,44400,Yale POP_MASTER,TG2-095,,0,KAP-TG2-095,543,Pashto,2,1304.0939939999998,34.8321,69.6519,KAP,TG2,Moshwani,205,Tagab,????,Kapisa,??????,2
44400,44401,Yale POP_MASTER,TG2-096,,0,KAP-TG2-096,577,Pashto,2,1204.071045,34.7393,69.6642,KAP,TG2,Mughol Khail,205,Tagab,????,Kapisa,??????,2
44401,44402,Yale POP_MASTER,TG2-097,,0,KAP-TG2-097,552,Pashto,2,1323.725952,34.8617,69.6613,KAP,TG2,Mullah Khail Angeyan,205,Tagab,????,Kapisa,??????,2
44402,44403,Yale POP_MASTER,TG2-098,,0,KAP-TG2-098,589,Pashto,2,1328.4790039999998,34.8613,69.6531,KAP,TG2,Mullah Khail Jowi Bar,205,Tagab,????,Kapisa,??????,2
44403,44404,Yale POP_MASTER,TG2-099,,0,KAP-TG2-099,476,Pashto,2,1467.357056,34.8441,69.6979,KAP,TG2,Mullah Khail Sufiyan Sanjar Khail,205,Tagab,????,Kapisa,??????,2
44404,44405,Yale POP_MASTER,TG2-101,,0,KAP-TG2-101,370,Pashto,2,1266.9959720000002,34.7091,69.6672,KAP,TG2,Neyaz Khail (1),205,Tagab,????,Kapisa,??????,2
44405,44406,Yale POP_MASTER,TG2-102,,0,KAP-TG2-102,899,Pashto,2,1214.584961,34.7493,69.6638,KAP,TG2,Neyazi Khail (2),205,Tagab,????,Kapisa,??????,2
44406,44407,Yale POP_MASTER,TG2-103,,0,KAP-TG2-103,563,Pashto,2,1206.685059,34.7181,69.6697,KAP,TG2,Nizam Khail,205,Tagab,????,Kapisa,??????,2
44407,44408,Yale POP_MASTER,TG2-104,,0,KAP-TG2-104,456,Pashto,2,1346.744995,34.8468,69.6436,KAP,TG2,Nowabad Anar Jowi,205,Tagab,????,Kapisa,??????,2
44408,44409,Yale POP_MASTER,TG2-105,,0,KAP-TG2-105,549,Pashto,2,1380.932007,34.7823,69.7002,KAP,TG2,Pak Chena,205,Tagab,????,Kapisa,??????,2
44409,44410,Yale POP_MASTER,TG2-106,,0,KAP-TG2-106,709,Pashto,2,1329.9279789999998,34.8158,69.6722,KAP,TG2,Pasha Garay,205,Tagab,????,Kapisa,??????,2
44410,44411,Yale POP_MASTER,TG2-107,,0,KAP-TG2-107,998,Pashto,2,1220.833008,34.7403,69.6715,KAP,TG2,Payenda Khail,205,Tagab,????,Kapisa,??????,2
44411,44412,Yale POP_MASTER,TG2-108,,0,KAP-TG2-108,453,Pashto,2,1327.057983,34.7988,69.6507,KAP,TG2,Qala Amir Ya Nowroz Khail,205,Tagab,????,Kapisa,??????,2
44412,44413,Yale POP_MASTER,TG2-110,,0,KAP-TG2-110,679,Pashto,2,1394.067993,34.9074,69.6367,KAP,TG2,Qala Sallay Ya Akhund Zada Gan,205,Tagab,????,Kapisa,??????,2
44413,44414,Yale POP_MASTER,TG2-111,,0,KAP-TG2-111,384,Pashto,2,1349.9470210000002,34.87,69.6684,KAP,TG2,Qala Wali,205,Tagab,????,Kapisa,??????,2
44414,44415,Yale POP_MASTER,TG2-112,,0,KAP-TG2-112,270,Pashto,2,1332.156982,34.8269,69.6696,KAP,TG2,Qazeyan,205,Tagab,????,Kapisa,??????,2
44415,44416,Yale POP_MASTER,TG2-113,,0,KAP-TG2-113,575,Pashto,2,1322.762939,34.8452,69.661,KAP,TG2,Qour Ghal,205,Tagab,????,Kapisa,??????,2
44416,44417,Yale POP_MASTER,TG2-116,,0,KAP-TG2-116,1000,Pashto,2,1314.7719730000001,34.8188,69.6649,KAP,TG2,Salam Khail,205,Tagab,????,Kapisa,??????,2
44417,44418,Yale POP_MASTER,TG2-117,,0,KAP-TG2-117,1150,Pashto,2,1319.3220210000002,34.8526,69.6562,KAP,TG2,Sanze Sufla,205,Tagab,????,Kapisa,??????,2
44418,44419,Yale POP_MASTER,TG2-118,,0,KAP-TG2-118,370,Pashto,2,1324.1639400000001,34.8572,69.6578,KAP,TG2,Sediq Khail,205,Tagab,????,Kapisa,??????,2
44419,44420,Yale POP_MASTER,TG2-119,,0,KAP-TG2-119,474,Pashto,2,1342.8439939999998,34.8783,69.6502,KAP,TG2,Senzai Hulya,205,Tagab,????,Kapisa,??????,2
44420,44421,Yale POP_MASTER,TG2-121,,0,KAP-TG2-121,475,Pashto,2,1333.787964,34.804,69.6498,KAP,TG2,Shahbaz Khail,205,Tagab,????,Kapisa,??????,2
44421,44422,Yale POP_MASTER,TG2-122,,0,KAP-TG2-122,426,Pashto,2,1306.218018,34.8134,69.6633,KAP,TG2,Shahi Khail,205,Tagab,????,Kapisa,??????,2
44422,44423,Yale POP_MASTER,TG2-123,,0,KAP-TG2-123,459,Pashto,2,1306.764038,34.8243,69.6572,KAP,TG2,Shahr Zada Khail Say Padar,205,Tagab,????,Kapisa,??????,2
44423,44424,Yale POP_MASTER,TG2-125,,0,KAP-TG2-125,355,Pashto,2,1305.036987,34.8171,69.6505,KAP,TG2,Shair Khail,205,Tagab,????,Kapisa,??????,2
44424,44425,Yale POP_MASTER,TG2-126,,0,KAP-TG2-126,575,Pashto,2,1262.649048,34.7828,69.6674,KAP,TG2,Shaloti,205,Tagab,????,Kapisa,??????,2
44425,44426,Yale POP_MASTER,TG2-127,,0,KAP-TG2-127,1048,Pashto,2,1209.970947,34.7345,69.6731,KAP,TG2,Shaloti Nowroz Khail,205,Tagab,????,Kapisa,??????,2
44426,44427,Yale POP_MASTER,TG2-129,,0,KAP-TG2-129,423,Pashto,2,1391.686035,34.8852,69.6726,KAP,TG2,Sharif Khail,205,Tagab,????,Kapisa,??????,2
44427,44428,Yale POP_MASTER,TG2-131,,0,KAP-TG2-131,699,Pashto,2,1579.755981,34.8041,69.6428,KAP,TG2,Shatori,205,Tagab,????,Kapisa,??????,2
44428,44429,Yale POP_MASTER,TG2-132,,0,KAP-TG2-132,31,Pashto,2,1342.467041,34.7826,69.5874,KAP,TG2,Shenwari,205,Tagab,????,Kapisa,??????,2
44429,44430,Yale POP_MASTER,TG2-133,,0,KAP-TG2-133,897,Pashto,2,1362.876953,34.8238,69.6881,KAP,TG2,Sultan Khail,205,Tagab,????,Kapisa,??????,2
44430,44431,Yale POP_MASTER,TG2-134,,0,KAP-TG2-134,395,Pashto,2,1414.772949,34.92,69.6297,KAP,TG2,Tajek,205,Tagab,????,Kapisa,??????,2
44431,44432,Yale POP_MASTER,TG2-135,,0,KAP-TG2-135,38,Pashto,2,1369.2089839999999,34.7387,69.7148,KAP,TG2,Tanorak,205,Tagab,????,Kapisa,??????,2
44432,44433,Yale POP_MASTER,TG2-136,,0,KAP-TG2-136,1240,Pashto,2,1378.900024,34.8775,69.67,KAP,TG2,Teter Khail,205,Tagab,????,Kapisa,??????,2
44433,44434,Yale POP_MASTER,TG2-137,,0,KAP-TG2-137,431,Pashto,2,1345.027954,34.8755,69.6482,KAP,TG2,Wakil Khail Jowi Bar,205,Tagab,????,Kapisa,??????,2
44434,44435,Yale POP_MASTER,TG2-139,,0,KAP-TG2-139,892,Pashto,2,1222.3320310000001,34.7542,69.6644,KAP,TG2,Wali Khail,205,Tagab,????,Kapisa,??????,2
44435,44436,Yale POP_MASTER,TG2-140,,0,KAP-TG2-140,489,Pashto,2,1305.411011,34.8041,69.6702,KAP,TG2,Zangi Baba,205,Tagab,????,Kapisa,??????,2
44436,44437,Yale POP_MASTER,TG2-141,District,1,KAP-TG2-141,600,Pashto,2,1331.397949,34.8555,69.6507,KAP,TG2,Tagab,205,Tagab,????,Kapisa,??????,2
44445,44446,USAID AIDVillageView,TG2-009,,0,KAP-TG2-009,0,Pashto,2,1830.3570559999998,34.8357,69.7607,KAP,TG2,Khan Doda-i-bala,205,Tagab,????,Kapisa,??????,2
44446,44447,USAID AIDVillageView,TG2-014,,0,KAP-TG2-014,0,Pashto,2,1503.359985,34.8806,69.6919,KAP,TG2,Nyazkhel,205,Tagab,????,Kapisa,??????,2
44447,44448,USAID AIDVillageView,ALY-066,,0,KAP-ALY-066,0,Pashto,2,1518.727051,34.8863,69.709,KAP,ALY,Laka Khail (2),206,Alasay,??? ???,Kapisa,??????,2
44448,44449,CSO AIMS Villages (ACSOR),ALY-001,,0,KAP-ALY-001,411,Pashto,2,1494.811035,34.882670000000005,69.69972,KAP,ALY,Dawan Khail,206,Alasay,??? ???,Kapisa,??????,2
44449,44450,Yale POP_MASTER,NJB-148,,0,KAP-NJB-148,134,Dari,1,2353.405029,34.9393,69.6786,KAP,NJB,Qala Malik Ha,202,Nejrab,?????,Kapisa,??????,2
44457,44458,Yale POP_MASTER,TG2-029,,0,KAP-TG2-029,282,Pashto,2,1459.654053,34.8433,69.7102,KAP,TG2,Abdul Qahar Khail,205,Tagab,????,Kapisa,??????,2
44458,44459,Yale POP_MASTER,TG2-034,,0,KAP-TG2-034,167,Pashto,2,1898.2840579999997,34.8287,69.7667,KAP,TG2,Anar Buta,205,Tagab,????,Kapisa,??????,2
44459,44460,Yale POP_MASTER,TG2-044,,0,KAP-TG2-044,165,Pashto,2,1897.0069579999997,34.8577,69.762,KAP,TG2,Char Mawa,205,Tagab,????,Kapisa,??????,2
44460,44461,Yale POP_MASTER,TG2-048,,0,KAP-TG2-048,492,Pashto,2,1493.172974,34.853,69.7178,KAP,TG2,Dahi Menje,205,Tagab,????,Kapisa,??????,2
44461,44462,Yale POP_MASTER,TG2-050,,0,KAP-TG2-050,44,Pashai,6,2091.26001,34.8187,69.808,KAP,TG2,Deza,205,Tagab,????,Kapisa,??????,2
44462,44463,Yale POP_MASTER,TG2-052,,0,KAP-TG2-052,403,Pashai,6,1481.18103,34.8828,69.6954,KAP,TG2,Dowzgaran,205,Tagab,????,Kapisa,??????,2
44463,44464,Yale POP_MASTER,TG2-053,,0,KAP-TG2-053,266,Pashto,2,1488.2459720000002,34.8572,69.7106,KAP,TG2,Faqir Sahib,205,Tagab,????,Kapisa,??????,2
44464,44465,Yale POP_MASTER,TG2-070,,0,KAP-TG2-070,1210,Pashto,2,1428.2769779999999,34.8804,69.6833,KAP,TG2,Kakar,205,Tagab,????,Kapisa,??????,2
44465,44466,Yale POP_MASTER,TG2-072,,0,KAP-TG2-072,306,Pashto,2,1924.5179440000002,34.8133,69.7927,KAP,TG2,Kamush,205,Tagab,????,Kapisa,??????,2
44466,44467,Yale POP_MASTER,TG2-078,,0,KAP-TG2-078,321,Balochi,5,1619.581055,34.8449,69.7398,KAP,TG2,Khan Dooda,205,Tagab,????,Kapisa,??????,2
44467,44468,Yale POP_MASTER,TG2-091,,0,KAP-TG2-091,467,Dari,1,1520.342041,34.8475,69.7251,KAP,TG2,Meya Khail,205,Tagab,????,Kapisa,??????,2
44468,44469,Yale POP_MASTER,TG2-092,,0,KAP-TG2-092,671,Pashto,2,1482.130005,34.8449,69.7156,KAP,TG2,Meya Sahib,205,Tagab,????,Kapisa,??????,2
44469,44470,Yale POP_MASTER,TG2-100,,0,KAP-TG2-100,76,Pashto,2,1934.296997,34.8114,69.7762,KAP,TG2,Neyalan,205,Tagab,????,Kapisa,??????,2
44470,44471,Yale POP_MASTER,TG2-109,,0,KAP-TG2-109,311,Pashto,2,1505.593018,34.839,69.7155,KAP,TG2,Qala Dasht,205,Tagab,????,Kapisa,??????,2
44471,44472,Yale POP_MASTER,TG2-115,,0,KAP-TG2-115,295,Pashai,6,1523.80896,34.8783,69.7028,KAP,TG2,Sahib Zada Khail (2),205,Tagab,????,Kapisa,??????,2
44472,44473,Yale POP_MASTER,TG2-120,,0,KAP-TG2-120,1284,Pashto,2,1429.454956,34.8868,69.683,KAP,TG2,Shah Kot,205,Tagab,????,Kapisa,??????,2
44473,44474,Yale POP_MASTER,TG2-124,,0,KAP-TG2-124,186,Dari,1,1961.060059,34.8103,69.7858,KAP,TG2,Shair Gama,205,Tagab,????,Kapisa,??????,2
44474,44475,Yale POP_MASTER,TG2-128,,0,KAP-TG2-128,754,Pashto,2,1473.874023,34.8498,69.7138,KAP,TG2,Shani Khail,205,Tagab,????,Kapisa,??????,2
44475,44476,Yale POP_MASTER,TG2-130,,0,KAP-TG2-130,352,Pashai,6,1555.188965,34.8775,69.7072,KAP,TG2,Sharo Khail,205,Tagab,????,Kapisa,??????,2
44476,44477,Yale POP_MASTER,TG2-138,,0,KAP-TG2-138,1007,Pashai,6,2150.423096,34.8189,69.8184,KAP,TG2,Wali Baig Khail,205,Tagab,????,Kapisa,??????,2
44477,44478,Yale POP_MASTER,ALY-033,,0,KAP-ALY-033,623,Turkmen,4,1499.114014,34.8864,69.7021,KAP,ALY,Laka Khail (1),206,Alasay,??? ???,Kapisa,??????,2
44478,44479,Yale POP_MASTER,ALY-035,,0,KAP-ALY-035,703,Pashai,6,1538.444946,34.8982,69.703,KAP,ALY,Layj,206,Alasay,??? ???,Kapisa,??????,2
44479,44480,Yale POP_MASTER,ALY-040,,0,KAP-ALY-040,545,Pashai,6,1572.031982,34.9025,69.7096,KAP,ALY,Mala Khail,206,Alasay,??? ???,Kapisa,??????,2
44480,44481,Yale POP_MASTER,ALY-041,,0,KAP-ALY-041,313,Pashai,6,1600.0,34.8938,69.7203,KAP,ALY,Markaz Wolluswaly Alasay,206,Alasay,??? ???,Kapisa,??????,2
44481,44482,Yale POP_MASTER,ALY-046,,0,KAP-ALY-046,17,Pashai,6,1656.202026,34.8788,69.7126,KAP,ALY,Noor Machena,206,Alasay,??? ???,Kapisa,??????,2
44482,44483,Yale POP_MASTER,ALY-004,,0,KAP-ALY-004,773,Pashto,2,1673.685059,34.899,69.7304,KAP,ALY,Ala Shah Khail,206,Alasay,??? ???,Kapisa,??????,2
44483,44484,Yale POP_MASTER,ALY-008,,0,KAP-ALY-008,1104,Pashai,6,1617.272949,34.8993,69.7234,KAP,ALY,Bahder Khail,206,Alasay,??? ???,Kapisa,??????,2
44484,44485,Yale POP_MASTER,ALY-013,,0,KAP-ALY-013,864,Pashai,6,1545.390015,34.8926,69.7109,KAP,ALY,Dar Wali,206,Alasay,??? ???,Kapisa,??????,2
44485,44486,Yale POP_MASTER,ALY-056,,0,KAP-ALY-056,102,Pashai,6,1659.5939939999998,34.9147,69.7077,KAP,ALY,Sarnagab,206,Alasay,??? ???,Kapisa,??????,2
44486,44487,Yale POP_MASTER,ALY-058,,0,KAP-ALY-058,736,Dari,1,1617.530029,34.9063,69.7172,KAP,ALY,Shairka Khail,206,Alasay,??? ???,Kapisa,??????,2
44487,44488,Yale POP_MASTER,ALY-060,,0,KAP-ALY-060,925,Pashai,6,1505.462036,34.8949,69.6982,KAP,ALY,Sultan Khail,206,Alasay,??? ???,Kapisa,??????,2
44488,44489,Yale POP_MASTER,ALY-061,,0,KAP-ALY-061,403,Turkmen,4,1462.753052,34.8953,69.6898,KAP,ALY,Tambal Khail,206,Alasay,??? ???,Kapisa,??????,2
44489,44490,Yale POP_MASTER,ALY-064,District,1,KAP-ALY-064,12112,Pashai,6,1597.77002,34.8953,69.7213,KAP,ALY,Alasay,206,Alasay,??? ???,Kapisa,??????,2
44490,44491,Yale POP_MASTER,ALY-003,,0,KAP-ALY-003,664,Pashai,6,1499.378052,34.8915,69.6988,KAP,ALY,Akraje,206,Alasay,??? ???,Kapisa,??????,2
44491,44492,Yale POP_MASTER,ALY-021,,0,KAP-ALY-021,54,Pashai,6,1471.588013,34.8903,69.6922,KAP,ALY,Hashim Khail,206,Alasay,??? ???,Kapisa,??????,2
44492,44493,Yale POP_MASTER,ALY-022,,0,KAP-ALY-022,396,Pashai,6,1546.416992,34.8961,69.7076,KAP,ALY,Jahfar Khail,206,Alasay,??? ???,Kapisa,??????,2
44496,44497,Yale POP_MASTER,MRI-014,,0,KAP-MRI-014,189,Dari,1,1398.644043,34.9667,69.4079,KAP,MRI,Baba Qashqar Wali,201,Mahmud-e- Raqi,????? ????,Kapisa,??????,2
