,OBJECTID,SOURCE,VIL_UID,CENTER,CNTR_CODE,AFG_UID,POPULATION,LANGUAGE_,LANG_CODE,ELEVATION,LAT_Y,LON_X,MISTI_PROV,MISTI_DIST,VILLAGE_NA,DIST_CODE,DIST_NA_EN,DIST_NA_DA,PROV_NA_EN,PROV_NA_DA,PROV_CODE
29837,29838,USAID AIDVillageView,YGQ-006,,0,TKR-YGQ-006,0,Pashto,2,466.7939148,37.4534,69.6116,TKR,YGQ,Umar Khel (1),1611,Yangi Qala,???? ????,Takhar,????,16
29838,29839,CSO AIMS Villages (ACSOR),YGQ-008,,0,TKR-YGQ-008,81,Pashto,2,497.158905,37.54039,69.65754,TKR,YGQ,Pahlawan Kandhari,1611,Yangi Qala,???? ????,Takhar,????,16
29839,29840,CSO AIMS Villages (ACSOR),YGQ-011,,0,TKR-YGQ-011,63,Pashto,2,503.803894,37.552659999999996,69.67673,TKR,YGQ,Yatem Tepa Kandhari,1611,Yangi Qala,???? ????,Takhar,????,16
29840,29841,Yale POP_MASTER,YGQ-013,,0,TKR-YGQ-013,266,Pashto,2,467.92761229999996,37.4763,69.6096,TKR,YGQ,Alam Jaar,1611,Yangi Qala,???? ????,Takhar,????,16
29841,29842,Yale POP_MASTER,YGQ-014,,0,TKR-YGQ-014,440,Uzbek,3,467.94738770000004,37.4731,69.6172,TKR,YGQ,Alam Jaar Jangal,1611,Yangi Qala,???? ????,Takhar,????,16
29842,29843,Yale POP_MASTER,YGQ-015,,0,TKR-YGQ-015,312,Uzbek,3,472.72808839999993,37.4885,69.625,TKR,YGQ,Arab Hai Jangal,1611,Yangi Qala,???? ????,Takhar,????,16
29843,29844,Yale POP_MASTER,YGQ-019,,0,TKR-YGQ-019,768,Other,9,474.5698853,37.4661,69.6189,TKR,YGQ,Boryah Baaf,1611,Yangi Qala,???? ????,Takhar,????,16
29844,29845,Yale POP_MASTER,YGQ-022,,0,TKR-YGQ-022,386,Pashto,2,472.2232056,37.4933,69.6205,TKR,YGQ,Eashan Abad,1611,Yangi Qala,???? ????,Takhar,????,16
29845,29846,Yale POP_MASTER,YGQ-023,,0,TKR-YGQ-023,416,Uzbek,3,468.59899900000005,37.4837,69.6109,TKR,YGQ,Hassan Gozar Eashan Abad,1611,Yangi Qala,???? ????,Takhar,????,16
29846,29847,Yale POP_MASTER,YGQ-025,,0,TKR-YGQ-025,190,Hazaragi,8,469.2333984,37.468,69.6122,TKR,YGQ,Hussain Bahi Jangal,1611,Yangi Qala,???? ????,Takhar,????,16
29847,29848,Yale POP_MASTER,YGQ-028,,0,TKR-YGQ-028,1174,Uzbek,3,524.6445923,37.506,69.679,TKR,YGQ,Jar Bashi,1611,Yangi Qala,???? ????,Takhar,????,16
29848,29849,Yale POP_MASTER,YGQ-029,,0,TKR-YGQ-029,540,Uzbek,3,492.03698729999996,37.518,69.6719,TKR,YGQ,Jar Bashi Baloch Hai Jaar Bashi,1611,Yangi Qala,???? ????,Takhar,????,16
29849,29850,Yale POP_MASTER,YGQ-031,,0,TKR-YGQ-031,454,Uzbek,3,515.8494263,37.4968,69.6573,TKR,YGQ,Kaldayesh,1611,Yangi Qala,???? ????,Takhar,????,16
29850,29851,Yale POP_MASTER,YGQ-032,,0,TKR-YGQ-032,448,Dari,1,502.649292,37.4614,69.6448,TKR,YGQ,Kalfagani,1611,Yangi Qala,???? ????,Takhar,????,16
29851,29852,Yale POP_MASTER,YGQ-033,,0,TKR-YGQ-033,535,Uzbek,3,476.1308899,37.4955,69.6286,TKR,YGQ,Kandhari Jangal,1611,Yangi Qala,???? ????,Takhar,????,16
29852,29853,Yale POP_MASTER,YGQ-037,,0,TKR-YGQ-037,1112,Uzbek,3,485.0763855000001,37.4841,69.6372,TKR,YGQ,Khoja Hafeez,1611,Yangi Qala,???? ????,Takhar,????,16
29853,29854,Yale POP_MASTER,YGQ-040,,0,TKR-YGQ-040,123,Pashto,2,479.678894,37.5033,69.6301,TKR,YGQ,Momen Abad Qazi Shoukur,1611,Yangi Qala,???? ????,Takhar,????,16
29854,29855,Yale POP_MASTER,YGQ-046,,0,TKR-YGQ-046,424,Uzbek,3,497.1256103999999,37.4808,69.6467,TKR,YGQ,Now Abad Khoja Hafeez,1611,Yangi Qala,???? ????,Takhar,????,16
29855,29856,Yale POP_MASTER,YGQ-047,,0,TKR-YGQ-047,376,Uzbek,3,520.1334228999999,37.5153,69.6903,TKR,YGQ,Now Abad Moghul Jar Bashi,1611,Yangi Qala,???? ????,Takhar,????,16
29856,29857,Yale POP_MASTER,YGQ-049,,0,TKR-YGQ-049,327,Pashto,2,468.523407,37.446999999999996,69.6226,TKR,YGQ,Now Abad Talajat,1611,Yangi Qala,???? ????,Takhar,????,16
29857,29858,Yale POP_MASTER,YGQ-051,,0,TKR-YGQ-051,427,Pashto,2,466.0515137,37.4709,69.6048,TKR,YGQ,Omer Khail Jangal,1611,Yangi Qala,???? ????,Takhar,????,16
29858,29859,Yale POP_MASTER,YGQ-052,,0,TKR-YGQ-052,1094,Uzbek,3,493.1669006,37.4502,69.6404,TKR,YGQ,Pai Shahfi,1611,Yangi Qala,???? ????,Takhar,????,16
29859,29860,Yale POP_MASTER,YGQ-053,,0,TKR-YGQ-053,463,Dari,1,469.0643921,37.4875,69.6076,TKR,YGQ,Passta,1611,Yangi Qala,???? ????,Takhar,????,16
29860,29861,Yale POP_MASTER,YGQ-055,,0,TKR-YGQ-055,394,Dari,1,462.01959230000006,37.4663,69.5994,TKR,YGQ,Safi Hai Jangal,1611,Yangi Qala,???? ????,Takhar,????,16
29861,29862,Yale POP_MASTER,YGQ-056,,0,TKR-YGQ-056,351,Pashto,2,462.71380619999996,37.4531,69.6021,TKR,YGQ,Safiyan,1611,Yangi Qala,???? ????,Takhar,????,16
29862,29863,Yale POP_MASTER,YGQ-058,,0,TKR-YGQ-058,355,Hazaragi,8,492.8200989,37.4696,69.6443,TKR,YGQ,Talaqani,1611,Yangi Qala,???? ????,Takhar,????,16
29863,29864,Yale POP_MASTER,YGQ-060,,0,TKR-YGQ-060,745,Dari,1,480.61428830000006,37.5027,69.6426,TKR,YGQ,Toghai Qeshlaq,1611,Yangi Qala,???? ????,Takhar,????,16
29864,29865,Yale POP_MASTER,YGQ-061,,0,TKR-YGQ-061,1067,Uzbek,3,494.7652893,37.4376,69.622,TKR,YGQ,Zard Kamar,1611,Yangi Qala,???? ????,Takhar,????,16
29865,29866,Yale POP_MASTER,YGQ-062,District,1,TKR-YGQ-062,4100,Uzbek,3,472.77209469999997,37.4653,69.6125,TKR,YGQ,Yangi Qala,1611,Yangi Qala,???? ????,Takhar,????,16
29866,29867,Yale POP_MASTER,DRQ-012,,0,TKR-DRQ-012,1164,Pashto,2,464.4581909,37.5414,69.5132,TKR,DRQ,Hazrat Bostan,1617,Darqad,????,Takhar,????,16
29867,29868,Yale POP_MASTER,DRQ-013,,0,TKR-DRQ-013,436,Uzbek,3,469.799408,37.5642,69.5454,TKR,DRQ,Islam Abad,1617,Darqad,????,Takhar,????,16
29868,29869,Yale POP_MASTER,DRQ-015,,0,TKR-DRQ-015,600,Uzbek,3,480.8070068,37.5671,69.5798,TKR,DRQ,Kal Bad,1617,Darqad,????,Takhar,????,16
29869,29870,Yale POP_MASTER,DRQ-017,,0,TKR-DRQ-017,1010,Uzbek,3,466.1762085,37.5226,69.5479,TKR,DRQ,Kal Toot Payen,1617,Darqad,????,Takhar,????,16
29870,29871,Yale POP_MASTER,DRQ-028,,0,TKR-DRQ-028,159,Pashto,2,501.5762024,37.554,69.6613,TKR,DRQ,Qazi Abad,1617,Darqad,????,Takhar,????,16
29877,29878,Yale POP_MASTER,KBN-004,,0,TKR-KBN-004,1177,Uzbek,3,422.7250977,37.3226,69.5048,TKR,KBN,Eashan Katakjar,1612,Khwajabahawuddin,????? ?????????,Takhar,????,16
29878,29879,Yale POP_MASTER,KBN-005,,0,TKR-KBN-005,888,Hazaragi,8,431.8913879,37.3548,69.5466,TKR,KBN,Gadi Hai Lala Guzar,1612,Khwajabahawuddin,????? ?????????,Takhar,????,16
29879,29880,Yale POP_MASTER,KBN-006,,0,TKR-KBN-006,2446,Uzbek,3,441.4985962,37.3054,69.5081,TKR,KBN,Katak Jar,1612,Khwajabahawuddin,????? ?????????,Takhar,????,16
29880,29881,Yale POP_MASTER,KBN-007,,0,TKR-KBN-007,795,Pashto,2,429.9341125,37.3557,69.5274,TKR,KBN,Kohnna Shakh Naqilen,1612,Khwajabahawuddin,????? ?????????,Takhar,????,16
29881,29882,Yale POP_MASTER,KBN-008,,0,TKR-KBN-008,2965,Uzbek,3,442.88540650000004,37.3645,69.5555,TKR,KBN,Lala Gozar,1612,Khwajabahawuddin,????? ?????????,Takhar,????,16
29882,29883,Yale POP_MASTER,KBN-010,,0,TKR-KBN-010,286,Pashto,2,434.6099853999999,37.3718,69.5537,TKR,KBN,Laqi,1612,Khwajabahawuddin,????? ?????????,Takhar,????,16
29883,29884,Yale POP_MASTER,KBN-011,,0,TKR-KBN-011,256,Uzbek,3,436.3266907,37.3803,69.5549,TKR,KBN,Lar Khowabi,1612,Khwajabahawuddin,????? ?????????,Takhar,????,16
29884,29885,Yale POP_MASTER,KBN-012,,0,TKR-KBN-012,5220,Uzbek,3,443.3913879,37.3456,69.5324,TKR,KBN,Markaz Wolluswaly,1612,Khwajabahawuddin,????? ?????????,Takhar,????,16
29885,29886,Yale POP_MASTER,KBN-013,,0,TKR-KBN-013,2220,Uzbek,3,423.29238889999993,37.3297,69.523,TKR,KBN,Moghul Qeshlaq Alam Jar,1612,Khwajabahawuddin,????? ?????????,Takhar,????,16
29886,29887,Yale POP_MASTER,KBN-014,,0,TKR-KBN-014,689,Uzbek,3,422.5297852,37.3279,69.5154,TKR,KBN,Moghul Qeshlaq Qouchin Gozar,1612,Khwajabahawuddin,????? ?????????,Takhar,????,16
29887,29888,Yale POP_MASTER,KBN-015,,0,TKR-KBN-015,609,Pashto,2,445.68701169999997,37.3505,69.5428,TKR,KBN,Naqelen Kandhary Ha,1612,Khwajabahawuddin,????? ?????????,Takhar,????,16
29888,29889,Yale POP_MASTER,KBN-016,,0,TKR-KBN-016,408,Uzbek,3,441.8136902,37.3111,69.5166,TKR,KBN,Naqil Shortoghi,1612,Khwajabahawuddin,????? ?????????,Takhar,????,16
29889,29890,Yale POP_MASTER,KBN-017,,0,TKR-KBN-017,739,Uzbek,3,430.3734131,37.3036,69.5033,TKR,KBN,Now Abad Katakjar,1612,Khwajabahawuddin,????? ?????????,Takhar,????,16
29890,29891,Yale POP_MASTER,KBN-020,,0,TKR-KBN-020,832,Uzbek,3,423.2742004,37.3229,69.5254,TKR,KBN,Sajani,1612,Khwajabahawuddin,????? ?????????,Takhar,????,16
29891,29892,Yale POP_MASTER,KBN-022,,0,TKR-KBN-022,904,Pashto,2,450.9541016,37.2929,69.5192,TKR,KBN,Shor Toghi,1612,Khwajabahawuddin,????? ?????????,Takhar,????,16
29892,29893,Yale POP_MASTER,KBN-023,District,1,TKR-KBN-023,11000,Uzbek,3,432.18258669999994,37.3482,69.532,TKR,KBN,Khwaja Bahwddin,1612,Khwajabahawuddin,????? ?????????,Takhar,????,16
29893,29894,Yale POP_MASTER,DRQ-004,,0,TKR-DRQ-004,648,Uzbek,3,425.58358760000004,37.357,69.4834,TKR,DRQ,Alqanaq,1617,Darqad,????,Takhar,????,16
29894,29895,Yale POP_MASTER,DRQ-009,,0,TKR-DRQ-009,672,Pashto,2,429.47790530000003,37.375,69.4744,TKR,DRQ,Darwaza Pata,1617,Darqad,????,Takhar,????,16
29895,29896,Yale POP_MASTER,DRQ-033,,0,TKR-DRQ-033,1086,Dari,1,438.04449460000006,37.3957,69.4832,TKR,DRQ,Shor Arab,1617,Darqad,????,Takhar,????,16
30197,30198,CSO AIMS Villages (ACSOR),KGR-005,,0,TKR-KGR-005,833,Uzbek,3,436.73229979999996,37.103970000000004,69.32174,TKR,KGR,Mankchaqour Payen,1614,Khwajaghar,????? ???,Takhar,????,16
30200,30201,USAID AIDVillageView,RTQ-003,,0,TKR-RTQ-003,0,Uzbek,3,574.3693237000001,37.0075,69.5873,TKR,RTQ,Boloka,1609,Rostaq,??????,Takhar,????,16
30201,30202,USAID AIDVillageView,RTQ-010,,0,TKR-RTQ-010,0,Uzbek,3,565.6054077,37.0283,69.5609,TKR,RTQ,Ganda Bashi,1609,Rostaq,??????,Takhar,????,16
30202,30203,USAID AIDVillageView,RTQ-012,,0,TKR-RTQ-012,0,Uzbek,3,514.0101929,37.0617,69.5104,TKR,RTQ,Lala Maydan,1609,Rostaq,??????,Takhar,????,16
30203,30204,USAID AIDVillageView,DQA-002,,0,TKR-DQA-002,0,Uzbek,3,482.53100589999997,37.0835,69.4796,TKR,DQA,Art Khvajeh (1),1613,Dasht-e- Qala,??? ????,Takhar,????,16
30204,30205,USAID AIDVillageView,HSH-003,,0,TKR-HSH-003,0,Uzbek,3,1082.509033,36.9364,69.508,TKR,HSH,Gul Mesh,1602,Hazarsumuch,???? ????,Takhar,????,16
30205,30206,USAID AIDVillageView,HSH-007,,0,TKR-HSH-007,0,Uzbek,3,912.0559082000001,36.9487,69.4964,TKR,HSH,Qotan Bulaq (1),1602,Hazarsumuch,???? ????,Takhar,????,16
30206,30207,Yale POP_MASTER,RTQ-107,,0,TKR-RTQ-107,552,Uzbek,3,555.7130127,37.0525,69.5425,TKR,RTQ,Lala Maidan Hussain,1609,Rostaq,??????,Takhar,????,16
30207,30208,Yale POP_MASTER,RTQ-108,,0,TKR-RTQ-108,274,Uzbek,3,595.4534302000001,37.0372,69.5514,TKR,RTQ,Lala Maidan Moughlan,1609,Rostaq,??????,Takhar,????,16
30208,30209,Yale POP_MASTER,DQA-027,,0,TKR-DQA-027,360,Uzbek,3,457.0014038,37.0903,69.4704,TKR,DQA,Halti Khoja,1613,Dasht-e- Qala,??? ????,Takhar,????,16
30209,30210,Yale POP_MASTER,DQA-042,,0,TKR-DQA-042,1188,Uzbek,3,467.8197021000001,37.0791,69.4761,TKR,DQA,Saraq,1613,Dasht-e- Qala,??? ????,Takhar,????,16
30210,30211,Yale POP_MASTER,DQA-043,,0,TKR-DQA-043,720,Uzbek,3,469.7500916,37.0743,69.479,TKR,DQA,Saraq Khord,1613,Dasht-e- Qala,??? ????,Takhar,????,16
30211,30212,Yale POP_MASTER,HSH-010,,0,TKR-HSH-010,741,Uzbek,3,820.8660278,36.9515,69.5484,TKR,HSH,Archa,1602,Hazarsumuch,???? ????,Takhar,????,16
30212,30213,Yale POP_MASTER,HSH-015,District,1,TKR-HSH-015,1025,Uzbek,3,499.2858887,37.0265,69.5582,TKR,HSH,Ganda Bahi,1602,Hazarsumuch,???? ????,Takhar,????,16
30213,30214,Yale POP_MASTER,HSH-020,,0,TKR-HSH-020,791,Dari,1,545.895874,37.0377,69.5262,TKR,HSH,Haqali Mahammadi,1602,Hazarsumuch,???? ????,Takhar,????,16
30214,30215,Yale POP_MASTER,HSH-027,,0,TKR-HSH-027,582,Dari,1,501.6405945,37.0598,69.5061,TKR,HSH,Lala Maidan Nanwai,1602,Hazarsumuch,???? ????,Takhar,????,16
30215,30216,Yale POP_MASTER,HSH-028,,0,TKR-HSH-028,801,Uzbek,3,543.7935181,37.0495,69.5094,TKR,HSH,Moghulla,1602,Hazarsumuch,???? ????,Takhar,????,16
30216,30217,Yale POP_MASTER,HSH-029,,0,TKR-HSH-029,148,Uzbek,3,755.2282715,36.9733,69.5551,TKR,HSH,Mossa Qeshlaq,1602,Hazarsumuch,???? ????,Takhar,????,16
30217,30218,Yale POP_MASTER,HSH-031,,0,TKR-HSH-031,182,Uzbek,3,877.1953125,36.9314,69.5522,TKR,HSH,Paitaow,1602,Hazarsumuch,???? ????,Takhar,????,16
30218,30219,Yale POP_MASTER,HSH-034,,0,TKR-HSH-034,754,Uzbek,3,613.6535034,36.9873,69.6043,TKR,HSH,Qala Momai,1602,Hazarsumuch,???? ????,Takhar,????,16
30219,30220,Yale POP_MASTER,HSH-036,,0,TKR-HSH-036,882,Uzbek,3,557.2183838,37.0203,69.5581,TKR,HSH,Sarigh Mahammadi,1602,Hazarsumuch,???? ????,Takhar,????,16
30220,30221,Yale POP_MASTER,HSH-038,,0,TKR-HSH-038,442,Uzbek,3,932.3834229,36.9347,69.4858,TKR,HSH,Shemana Sai,1602,Hazarsumuch,???? ????,Takhar,????,16
30221,30222,Yale POP_MASTER,HSH-041,,0,TKR-HSH-041,327,Uzbek,3,534.6854248,37.006,69.5847,TKR,HSH,Walawlach,1602,Hazarsumuch,???? ????,Takhar,????,16
30222,30223,Yale POP_MASTER,HSH-042,,0,TKR-HSH-042,494,Dari,1,894.8685303,36.9495,69.49,TKR,HSH,Yaka Shor,1602,Hazarsumuch,???? ????,Takhar,????,16
30223,30224,Yale POP_MASTER,KGR-006,,0,TKR-KGR-006,80,Uzbek,3,917.3771972999999,36.9475,69.4678,TKR,KGR,Aghal Sai,1614,Khwajaghar,????? ???,Takhar,????,16
30224,30225,Yale POP_MASTER,KGR-007,,0,TKR-KGR-007,210,Uzbek,3,485.64248660000004,37.0969,69.4058,TKR,KGR,Aq Masjed,1614,Khwajaghar,????? ???,Takhar,????,16
30225,30226,Yale POP_MASTER,KGR-009,,0,TKR-KGR-009,441,Pashto,2,564.0523071,37.0258,69.3579,TKR,KGR,Assil Saf Qourugh,1614,Khwajaghar,????? ???,Takhar,????,16
30226,30227,Yale POP_MASTER,KGR-010,,0,TKR-KGR-010,906,Uzbek,3,507.69378660000007,37.0661,69.4404,TKR,KGR,Bagh-i-zakhira,1614,Khwajaghar,????? ???,Takhar,????,16
30227,30228,Yale POP_MASTER,KGR-012,,0,TKR-KGR-012,709,Uzbek,3,489.59118650000005,37.0888,69.4048,TKR,KGR,Barlo Jaw Kado,1614,Khwajaghar,????? ???,Takhar,????,16
30228,30229,Yale POP_MASTER,KGR-013,,0,TKR-KGR-013,82,Uzbek,3,739.5341187000001,36.9783,69.4423,TKR,KGR,Charagh Sai,1614,Khwajaghar,????? ???,Takhar,????,16
30229,30230,Yale POP_MASTER,KGR-014,,0,TKR-KGR-014,357,Uzbek,3,918.9869994999999,36.9812,69.4787,TKR,KGR,Choughulaq,1614,Khwajaghar,????? ???,Takhar,????,16
30230,30231,Yale POP_MASTER,KGR-015,,0,TKR-KGR-015,426,Uzbek,3,673.0197754,36.9458,69.395,TKR,KGR,Dahan Qazal Sai,1614,Khwajaghar,????? ???,Takhar,????,16
30231,30232,Yale POP_MASTER,KGR-016,,0,TKR-KGR-016,642,Uzbek,3,483.67099,37.0931,69.4556,TKR,KGR,Dosaad,1614,Khwajaghar,????? ???,Takhar,????,16
30232,30233,Yale POP_MASTER,KGR-017,,0,TKR-KGR-017,1147,Uzbek,3,505.65100099999995,37.0718,69.4329,TKR,KGR,Gozar-i-haji Gul Mohammad,1614,Khwajaghar,????? ???,Takhar,????,16
30233,30234,Yale POP_MASTER,KGR-018,,0,TKR-KGR-018,310,Dari,1,518.0427856000001,37.0531,69.4059,TKR,KGR,Haji Dana,1614,Khwajaghar,????? ???,Takhar,????,16
30234,30235,Yale POP_MASTER,KGR-020,,0,TKR-KGR-020,1032,Uzbek,3,602.7982787999999,37.001,69.3588,TKR,KGR,Hazar Bagh,1614,Khwajaghar,????? ???,Takhar,????,16
30235,30236,Yale POP_MASTER,KGR-021,,0,TKR-KGR-021,221,Uzbek,3,678.5095825,36.985,69.3629,TKR,KGR,Hazar Bagh Abdulmutaleb,1614,Khwajaghar,????? ???,Takhar,????,16
30236,30237,Yale POP_MASTER,KGR-022,,0,TKR-KGR-022,374,Uzbek,3,592.7559204,36.9798,69.3855,TKR,KGR,Hazar Bagh Eashan Qoul,1614,Khwajaghar,????? ???,Takhar,????,16
30237,30238,Yale POP_MASTER,KGR-024,,0,TKR-KGR-024,680,Uzbek,3,509.15969850000005,37.1143,69.3943,TKR,KGR,Jaghtahi,1614,Khwajaghar,????? ???,Takhar,????,16
30238,30239,Yale POP_MASTER,KGR-026,,0,TKR-KGR-026,582,Uzbek,3,478.267395,37.1063,69.4148,TKR,KGR,Jaw Kado Bala,1614,Khwajaghar,????? ???,Takhar,????,16
30239,30240,Yale POP_MASTER,KGR-027,,0,TKR-KGR-027,523,Uzbek,3,484.5534058,37.0967,69.4143,TKR,KGR,Jaw Kado Payen,1614,Khwajaghar,????? ???,Takhar,????,16
30240,30241,Yale POP_MASTER,KGR-028,,0,TKR-KGR-028,470,Uzbek,3,544.0819702,37.0744,69.3976,TKR,KGR,Khosagaldi Markazi,1614,Khwajaghar,????? ???,Takhar,????,16
30241,30242,Yale POP_MASTER,KGR-029,,0,TKR-KGR-029,145,Uzbek,3,502.92480470000004,37.07,69.4665,TKR,KGR,Lab Koukcha,1614,Khwajaghar,????? ???,Takhar,????,16
30242,30243,Yale POP_MASTER,KGR-030,,0,TKR-KGR-030,442,Uzbek,3,479.9157103999999,37.1003,69.4495,TKR,KGR,Laklakan,1614,Khwajaghar,????? ???,Takhar,????,16
30243,30244,Yale POP_MASTER,KGR-031,,0,TKR-KGR-031,1020,Uzbek,3,560.78302,37.0144,69.3722,TKR,KGR,Madrasa Hazar Bagh,1614,Khwajaghar,????? ???,Takhar,????,16
30244,30245,Yale POP_MASTER,KGR-032,,0,TKR-KGR-032,1083,Uzbek,3,440.8351135,37.1164,69.3362,TKR,KGR,Mankchaqour Bala,1614,Khwajaghar,????? ???,Takhar,????,16
30245,30246,Yale POP_MASTER,KGR-033,,0,TKR-KGR-033,923,Uzbek,3,584.3651123,36.9954,69.3853,TKR,KGR,Mogulla Hazarbagh,1614,Khwajaghar,????? ???,Takhar,????,16
30246,30247,Yale POP_MASTER,KGR-034,,0,TKR-KGR-034,739,Uzbek,3,498.21109010000004,37.0813,69.4287,TKR,KGR,Mohammad Ali Bahi,1614,Khwajaghar,????? ???,Takhar,????,16
30247,30248,Yale POP_MASTER,KGR-035,,0,TKR-KGR-035,396,Uzbek,3,472.54110719999994,37.1095,69.4422,TKR,KGR,Naqilen Zoor Boron Bala,1614,Khwajaghar,????? ???,Takhar,????,16
30248,30249,Yale POP_MASTER,KGR-036,,0,TKR-KGR-036,461,Uzbek,3,779.3809813999999,36.9345,69.4499,TKR,KGR,Qajar Khan,1614,Khwajaghar,????? ???,Takhar,????,16
30249,30250,Yale POP_MASTER,KGR-037,,0,TKR-KGR-037,706,Uzbek,3,594.3375244,36.9882,69.3856,TKR,KGR,Qazail Kocha Hazar Bagh Abdulrahim,1614,Khwajaghar,????? ???,Takhar,????,16
30250,30251,Yale POP_MASTER,KGR-038,,0,TKR-KGR-038,505,Uzbek,3,653.7888184,36.9394,69.383,TKR,KGR,Qazail Sai,1614,Khwajaghar,????? ???,Takhar,????,16
30251,30252,Yale POP_MASTER,KGR-039,,0,TKR-KGR-039,996,Uzbek,3,643.4642944,36.9663,69.3704,TKR,KGR,Qazal Kohcha,1614,Khwajaghar,????? ???,Takhar,????,16
30252,30253,Yale POP_MASTER,KGR-040,,0,TKR-KGR-040,540,Uzbek,3,797.3317871,36.9499,69.4381,TKR,KGR,Qazal Sai Kalan,1614,Khwajaghar,????? ???,Takhar,????,16
30253,30254,Yale POP_MASTER,KGR-043,,0,TKR-KGR-043,771,Dari,1,528.8687744,37.0658,69.3954,TKR,KGR,Qeshlaq Dana Khan Bahi,1614,Khwajaghar,????? ???,Takhar,????,16
30254,30255,Yale POP_MASTER,KGR-044,,0,TKR-KGR-044,1079,Uzbek,3,573.1239013999999,37.0033,69.3785,TKR,KGR,Qeshlaq Farary,1614,Khwajaghar,????? ???,Takhar,????,16
30255,30256,Yale POP_MASTER,KGR-045,,0,TKR-KGR-045,230,Uzbek,3,585.5206909,37.0124,69.3576,TKR,KGR,Qeshlaq Haji Abdulkhaliq,1614,Khwajaghar,????? ???,Takhar,????,16
30256,30257,Yale POP_MASTER,KGR-046,,0,TKR-KGR-046,365,Uzbek,3,577.7138062000001,37.0223,69.3553,TKR,KGR,Saf Qourugh Hazarbaghi Wardakha,1614,Khwajaghar,????? ???,Takhar,????,16
30257,30258,Yale POP_MASTER,KGR-047,,0,TKR-KGR-047,152,Pashto,2,580.8786011,37.0455,69.3515,TKR,KGR,Saf Qourugh Taimani,1614,Khwajaghar,????? ???,Takhar,????,16
30258,30259,Yale POP_MASTER,KGR-048,,0,TKR-KGR-048,199,Uzbek,3,689.7410888999999,37.0168,69.4385,TKR,KGR,Sailawa,1614,Khwajaghar,????? ???,Takhar,????,16
30259,30260,Yale POP_MASTER,KGR-049,,0,TKR-KGR-049,121,Uzbek,3,505.1229858,37.0667,69.485,TKR,KGR,Sar Poul Kokcha,1614,Khwajaghar,????? ???,Takhar,????,16
30260,30261,Yale POP_MASTER,KGR-050,,0,TKR-KGR-050,866,Pashto,2,526.2042847,37.0549,69.437,TKR,KGR,Spain Dahsht,1614,Khwajaghar,????? ???,Takhar,????,16
30261,30262,Yale POP_MASTER,KGR-052,,0,TKR-KGR-052,521,Uzbek,3,524.0220947,37.051,69.4734,TKR,KGR,Taghmali,1614,Khwajaghar,????? ???,Takhar,????,16
30262,30263,Yale POP_MASTER,KGR-053,,0,TKR-KGR-053,896,Uzbek,3,492.29501339999996,37.0822,69.4049,TKR,KGR,Warz Bacha,1614,Khwajaghar,????? ???,Takhar,????,16
30263,30264,Yale POP_MASTER,KGR-054,,0,TKR-KGR-054,1038,Uzbek,3,645.0380859,37.0108,69.4024,TKR,KGR,Zaghcha Gozar Hazarbagh Abdulllat,1614,Khwajaghar,????? ???,Takhar,????,16
30264,30265,Yale POP_MASTER,KGR-055,,0,TKR-KGR-055,892,Uzbek,3,614.8356934,36.9802,69.3952,TKR,KGR,Zaghcha Gozar Qala Cha,1614,Khwajaghar,????? ???,Takhar,????,16
30265,30266,Yale POP_MASTER,KGR-058,District,1,TKR-KGR-058,14100,Uzbek,3,511.46520999999996,37.0647,69.4229,TKR,KGR,Khwaja Ghar,1614,Khwajaghar,????? ???,Takhar,????,16
30266,30267,USAID AIDVillageView,DQA-003,,0,TKR-DQA-003,0,Uzbek,3,468.630188,37.1037,69.4674,TKR,DQA,Art Khvajeh (2),1613,Dasht-e- Qala,??? ????,Takhar,????,16
30267,30268,USAID AIDVillageView,DQA-004,,0,TKR-DQA-004,0,Uzbek,3,448.1340027,37.2002,69.5013,TKR,DQA,Bagh-i-zaghan,1613,Dasht-e- Qala,??? ????,Takhar,????,16
30268,30269,USAID AIDVillageView,DQA-009,,0,TKR-DQA-009,0,Uzbek,3,452.1966858,37.1429,69.4409,TKR,DQA,Jehlam Khor,1613,Dasht-e- Qala,??? ????,Takhar,????,16
30269,30270,USAID AIDVillageView,DQA-012,,0,TKR-DQA-012,0,Uzbek,3,442.01181030000004,37.1908,69.4761,TKR,DQA,Kuri Qeshlaq,1613,Dasht-e- Qala,??? ????,Takhar,????,16
30270,30271,USAID AIDVillageView,KGR-002,,0,TKR-KGR-002,0,Uzbek,3,439.1821899,37.1557,69.3847,TKR,KGR,Kuruk,1614,Khwajaghar,????? ???,Takhar,????,16
30271,30272,Yale POP_MASTER,DQA-015,,0,TKR-DQA-015,503,Uzbek,3,433.0932007,37.2401,69.4684,TKR,DQA,Arab Kakar,1613,Dasht-e- Qala,??? ????,Takhar,????,16
30272,30273,Yale POP_MASTER,DQA-016,,0,TKR-DQA-016,467,Uzbek,3,438.43469239999996,37.1873,69.4734,TKR,DQA,Arowq,1613,Dasht-e- Qala,??? ????,Takhar,????,16
30273,30274,Yale POP_MASTER,DQA-017,,0,TKR-DQA-017,527,Uzbek,3,439.6661987,37.2376,69.4762,TKR,DQA,Baband Kak,1613,Dasht-e- Qala,??? ????,Takhar,????,16
30274,30275,Yale POP_MASTER,DQA-018,,0,TKR-DQA-018,2606,Pashto,2,441.8763123,37.2113,69.4921,TKR,DQA,Baghbayan,1613,Dasht-e- Qala,??? ????,Takhar,????,16
30275,30276,Yale POP_MASTER,DQA-019,,0,TKR-DQA-019,463,Uzbek,3,460.6419983,37.1707,69.4154,TKR,DQA,Bashir Afghan,1613,Dasht-e- Qala,??? ????,Takhar,????,16
30276,30277,Yale POP_MASTER,DQA-020,,0,TKR-DQA-020,815,Uzbek,3,435.67001339999996,37.1388,69.4395,TKR,DQA,Chechka Dasht,1613,Dasht-e- Qala,??? ????,Takhar,????,16
30277,30278,Yale POP_MASTER,DQA-021,,0,TKR-DQA-021,859,Uzbek,3,437.5473022,37.2001,69.4744,TKR,DQA,Ghazi Tepa,1613,Dasht-e- Qala,??? ????,Takhar,????,16
30278,30279,Yale POP_MASTER,DQA-022,,0,TKR-DQA-022,607,Uzbek,3,441.5168152,37.1282,69.4482,TKR,DQA,Gouzar,1613,Dasht-e- Qala,??? ????,Takhar,????,16
30279,30280,Yale POP_MASTER,DQA-023,,0,TKR-DQA-023,1021,Uzbek,3,423.9692993,37.1569,69.4175,TKR,DQA,Hai Khanom,1613,Dasht-e- Qala,??? ????,Takhar,????,16
30280,30281,Yale POP_MASTER,DQA-024,,0,TKR-DQA-024,740,Pashto,2,435.62600710000004,37.1833,69.4228,TKR,DQA,Hairatan,1613,Dasht-e- Qala,??? ????,Takhar,????,16
30281,30282,Yale POP_MASTER,DQA-025,,0,TKR-DQA-025,553,Dari,1,445.96279910000004,37.1621,69.4624,TKR,DQA,Haji Noor Khan,1613,Dasht-e- Qala,??? ????,Takhar,????,16
30282,30283,Yale POP_MASTER,DQA-026,,0,TKR-DQA-026,498,Uzbek,3,462.3999938999999,37.1234,69.4541,TKR,DQA,Haji Sardar,1613,Dasht-e- Qala,??? ????,Takhar,????,16
30283,30284,Yale POP_MASTER,DQA-028,,0,TKR-DQA-028,533,Uzbek,3,435.557312,37.196,69.443,TKR,DQA,Hashmat Qeshlaq,1613,Dasht-e- Qala,??? ????,Takhar,????,16
30284,30285,Yale POP_MASTER,DQA-029,,0,TKR-DQA-029,267,Uzbek,3,451.7309875,37.1035,69.4636,TKR,DQA,Huloq Nazar,1613,Dasht-e- Qala,??? ????,Takhar,????,16
30285,30286,Yale POP_MASTER,DQA-030,,0,TKR-DQA-030,1117,Other,9,445.9041138,37.1591,69.4558,TKR,DQA,Kham Dan,1613,Dasht-e- Qala,??? ????,Takhar,????,16
30286,30287,Yale POP_MASTER,DQA-032,,0,TKR-DQA-032,718,Uzbek,3,437.1162109,37.1976,69.4847,TKR,DQA,Lownd Qeshlaq,1613,Dasht-e- Qala,??? ????,Takhar,????,16
30287,30288,Yale POP_MASTER,DQA-033,,0,TKR-DQA-033,2749,Uzbek,3,466.5986023,37.1359,69.485,TKR,DQA,Markaz Wolluswally Shahr Now,1613,Dasht-e- Qala,??? ????,Takhar,????,16
30288,30289,Yale POP_MASTER,DQA-034,,0,TKR-DQA-034,135,Dari,1,436.3510132,37.2225,69.5018,TKR,DQA,Naqil Baghbayan,1613,Dasht-e- Qala,??? ????,Takhar,????,16
30289,30290,Yale POP_MASTER,DQA-037,,0,TKR-DQA-037,107,Uzbek,3,441.3407898,37.1737,69.4756,TKR,DQA,Naqil Zolam,1613,Dasht-e- Qala,??? ????,Takhar,????,16
30290,30291,Yale POP_MASTER,DQA-038,,0,TKR-DQA-038,1124,Uzbek,3,447.37429810000003,37.1709,69.5047,TKR,DQA,Now Abad,1613,Dasht-e- Qala,??? ????,Takhar,????,16
30291,30292,Yale POP_MASTER,DQA-039,,0,TKR-DQA-039,634,Uzbek,3,471.2463074,37.1274,69.4834,TKR,DQA,Pangani Now Abad,1613,Dasht-e- Qala,??? ????,Takhar,????,16
30292,30293,Yale POP_MASTER,DQA-040,,0,TKR-DQA-040,1189,Uzbek,3,439.961792,37.1795,69.4633,TKR,DQA,Qara Lang,1613,Dasht-e- Qala,??? ????,Takhar,????,16
30293,30294,Yale POP_MASTER,DQA-041,,0,TKR-DQA-041,288,Uzbek,3,433.60888669999997,37.1986,69.45100000000001,TKR,DQA,Saksakol,1613,Dasht-e- Qala,??? ????,Takhar,????,16
30294,30295,Yale POP_MASTER,DQA-044,,0,TKR-DQA-044,1126,Uzbek,3,448.25421140000003,37.1568,69.4462,TKR,DQA,Shahr Kohnna,1613,Dasht-e- Qala,??? ????,Takhar,????,16
30295,30296,Yale POP_MASTER,DQA-045,,0,TKR-DQA-045,809,Uzbek,3,444.42709349999996,37.1653,69.4439,TKR,DQA,Shahr Kohnna Qeshlaq Hangaran,1613,Dasht-e- Qala,??? ????,Takhar,????,16
30296,30297,Yale POP_MASTER,DQA-046,,0,TKR-DQA-046,1056,Dari,1,439.4041138,37.1996,69.4962,TKR,DQA,Tajek Qeshlaq,1613,Dasht-e- Qala,??? ????,Takhar,????,16
30297,30298,Yale POP_MASTER,DQA-047,,0,TKR-DQA-047,506,Uzbek,3,428.5497131,37.1429,69.4324,TKR,DQA,Tala Jat,1613,Dasht-e- Qala,??? ????,Takhar,????,16
30298,30299,Yale POP_MASTER,DQA-048,District,1,TKR-DQA-048,4321,Uzbek,3,447.4852905,37.1577,69.45,TKR,DQA,Dasht-e-qala,1613,Dasht-e- Qala,??? ????,Takhar,????,16
30299,30300,Yale POP_MASTER,KGR-008,,0,TKR-KGR-008,1197,Uzbek,3,449.7023926,37.1475,69.3818,TKR,KGR,Assil Qourgh,1614,Khwajaghar,????? ???,Takhar,????,16
30300,30301,Yale POP_MASTER,KGR-011,,0,TKR-KGR-011,882,Uzbek,3,449.10470580000003,37.1512,69.3926,TKR,KGR,Baik Mohammad Bacha,1614,Khwajaghar,????? ???,Takhar,????,16
30301,30302,Yale POP_MASTER,KGR-023,,0,TKR-KGR-023,291,Uzbek,3,449.50680539999996,37.1413,69.4126,TKR,KGR,Imam Khani,1614,Khwajaghar,????? ???,Takhar,????,16
30302,30303,Yale POP_MASTER,KGR-025,,0,TKR-KGR-025,691,Uzbek,3,453.87078859999997,37.1346,69.4181,TKR,KGR,Jalam Khour,1614,Khwajaghar,????? ???,Takhar,????,16
30303,30304,Yale POP_MASTER,KGR-041,,0,TKR-KGR-041,1005,Uzbek,3,440.05758669999994,37.1488,69.4091,TKR,KGR,Qazaq Qeshlaq,1614,Khwajaghar,????? ???,Takhar,????,16
30304,30305,Yale POP_MASTER,KGR-042,,0,TKR-KGR-042,529,Uzbek,3,439.40429689999996,37.1411,69.3577,TKR,KGR,Qazllaton,1614,Khwajaghar,????? ???,Takhar,????,16
30305,30306,Yale POP_MASTER,KGR-051,,0,TKR-KGR-051,346,Uzbek,3,515.1066284,37.1363,69.3923,TKR,KGR,Tagha Qaltak,1614,Khwajaghar,????? ???,Takhar,????,16
30306,30307,Yale POP_MASTER,KGR-056,,0,TKR-KGR-056,1172,Uzbek,3,456.4461975,37.1331,69.3715,TKR,KGR,Zard Kamar,1614,Khwajaghar,????? ???,Takhar,????,16
30307,30308,Yale POP_MASTER,KGR-057,,0,TKR-KGR-057,729,Uzbek,3,464.9146118,37.1184,69.4332,TKR,KGR,Zoor Boron Payen,1614,Khwajaghar,????? ???,Takhar,????,16
30308,30309,USAID AIDVillageView,RTQ-004,,0,TKR-RTQ-004,0,Uzbek,3,971.5393065999999,36.9869,69.7266,TKR,RTQ,Choqur Darrah,1609,Rostaq,??????,Takhar,????,16
30309,30310,USAID AIDVillageView,RTQ-005,,0,TKR-RTQ-005,0,Uzbek,3,855.9017944,36.9686,69.7252,TKR,RTQ,Choqur Qeshlaq,1609,Rostaq,??????,Takhar,????,16
30310,30311,USAID AIDVillageView,RTQ-015,,0,TKR-RTQ-015,0,Uzbek,3,646.0324707000001,36.9369,69.7041,TKR,RTQ,Qal'a-i-gerdab,1609,Rostaq,??????,Takhar,????,16
30311,30312,Yale POP_MASTER,RTQ-069,,0,TKR-RTQ-069,1190,Dari,1,1524.131958,37.0246,69.7659,TKR,RTQ,Dashtak Sufla,1609,Rostaq,??????,Takhar,????,16
30312,30313,Yale POP_MASTER,RTQ-072,,0,TKR-RTQ-072,297,Dari,1,666.8140258999999,36.975,69.6631,TKR,RTQ,Gala Wan,1609,Rostaq,??????,Takhar,????,16
30313,30314,Yale POP_MASTER,RTQ-075,,0,TKR-RTQ-075,268,Uzbek,3,1416.192017,36.9387,69.7897,TKR,RTQ,Ghaj,1609,Rostaq,??????,Takhar,????,16
30314,30315,Yale POP_MASTER,RTQ-088,,0,TKR-RTQ-088,805,Uzbek,3,1491.925049,36.9634,69.7813,TKR,RTQ,Jawaz Khana,1609,Rostaq,??????,Takhar,????,16
30315,30316,Yale POP_MASTER,RTQ-102,,0,TKR-RTQ-102,421,Uzbek,3,756.859375,37.0372,69.6427,TKR,RTQ,Khowja Qashqar,1609,Rostaq,??????,Takhar,????,16
30316,30317,Yale POP_MASTER,RTQ-103,,0,TKR-RTQ-103,138,Uzbek,3,1214.310059,36.9596,69.759,TKR,RTQ,Kohnna Qeshlaq,1609,Rostaq,??????,Takhar,????,16
30317,30318,Yale POP_MASTER,RTQ-104,,0,TKR-RTQ-104,385,Uzbek,3,603.4373168999999,36.9191,69.7214,TKR,RTQ,Kohtaba,1609,Rostaq,??????,Takhar,????,16
30318,30319,Yale POP_MASTER,RTQ-109,,0,TKR-RTQ-109,421,Dari,1,1624.182007,36.9948,69.8227,TKR,RTQ,Langar,1609,Rostaq,??????,Takhar,????,16
30319,30320,Yale POP_MASTER,RTQ-116,,0,TKR-RTQ-116,235,Uzbek,3,726.4459839,37.0054,69.6702,TKR,RTQ,Mourghak,1609,Rostaq,??????,Takhar,????,16
30320,30321,Yale POP_MASTER,RTQ-119,,0,TKR-RTQ-119,415,Uzbek,3,856.1141968000001,36.9604,69.7179,TKR,RTQ,Nhahrstan,1609,Rostaq,??????,Takhar,????,16
30321,30322,Yale POP_MASTER,RTQ-138,,0,TKR-RTQ-138,603,Uzbek,3,1281.026001,36.9587,69.7951,TKR,RTQ,Qadouq,1609,Rostaq,??????,Takhar,????,16
30322,30323,Yale POP_MASTER,RTQ-146,,0,TKR-RTQ-146,896,Uzbek,3,991.2305298,36.9803,69.7369,TKR,RTQ,Qazal Qeshlaq,1609,Rostaq,??????,Takhar,????,16
30323,30324,Yale POP_MASTER,RTQ-030,,0,TKR-RTQ-030,319,Uzbek,3,707.6060181,37.0209,69.638,TKR,RTQ,Arab Darah,1609,Rostaq,??????,Takhar,????,16
30324,30325,Yale POP_MASTER,RTQ-047,,0,TKR-RTQ-047,564,Dari,1,1070.258057,36.9371,69.7729,TKR,RTQ,Chakar,1609,Rostaq,??????,Takhar,????,16
30325,30326,Yale POP_MASTER,RTQ-049,,0,TKR-RTQ-049,184,Uzbek,3,1289.474976,36.9322,69.7905,TKR,RTQ,Chanar,1609,Rostaq,??????,Takhar,????,16
30326,30327,Yale POP_MASTER,RTQ-052,,0,TKR-RTQ-052,854,Uzbek,3,1559.343018,36.9641,69.8255,TKR,RTQ,Chashimkan,1609,Rostaq,??????,Takhar,????,16
30327,30328,Yale POP_MASTER,RTQ-167,,0,TKR-RTQ-167,511,Uzbek,3,890.4282837000001,37.0246,69.6802,TKR,RTQ,Shaikh Salman,1609,Rostaq,??????,Takhar,????,16
30328,30329,Yale POP_MASTER,RTQ-172,,0,TKR-RTQ-172,335,Uzbek,3,1203.740967,37.0479,69.7133,TKR,RTQ,Talok,1609,Rostaq,??????,Takhar,????,16
30329,30330,Yale POP_MASTER,RTQ-174,,0,TKR-RTQ-174,308,Uzbek,3,929.7677002,37.0576,69.6776,TKR,RTQ,Tolok Payen Bazar Kohtel,1609,Rostaq,??????,Takhar,????,16
30330,30331,Yale POP_MASTER,RTQ-183,,0,TKR-RTQ-183,512,Dari,1,1006.987976,37.0712,69.6505,TKR,RTQ,Yamchai Bala,1609,Rostaq,??????,Takhar,????,16
30331,30332,Yale POP_MASTER,RTQ-184,,0,TKR-RTQ-184,733,Dari,1,787.0062866000001,37.0538,69.6471,TKR,RTQ,Yamchai Payen,1609,Rostaq,??????,Takhar,????,16
30332,30333,Yale POP_MASTER,HSH-033,,0,TKR-HSH-033,436,Dari,1,562.9730225,36.9307,69.7029,TKR,HSH,Qala Gardab,1602,Hazarsumuch,???? ????,Takhar,????,16
32684,32685,USAID AIDVillageView,DQA-005,,0,TKR-DQA-005,0,Dari,1,450.91641239999996,37.2449,69.5038,TKR,DQA,Baydin Gak,1613,Dasht-e- Qala,??? ????,Takhar,????,16
32685,32686,Yale POP_MASTER,RTQ-126,,0,TKR-RTQ-126,584,Uzbek,3,780.5153809,37.1388,69.6202,TKR,RTQ,Now Abad Pangani,1609,Rostaq,??????,Takhar,????,16
32686,32687,Yale POP_MASTER,RTQ-134,,0,TKR-RTQ-134,970,Dari,1,751.9786987000001,37.1513,69.5981,TKR,RTQ,Pesta Mazar,1609,Rostaq,??????,Takhar,????,16
32687,32688,Yale POP_MASTER,RTQ-137,,0,TKR-RTQ-137,453,Dari,1,950.2800902999999,37.1031,69.6308,TKR,RTQ,Qadoq Rahmat,1609,Rostaq,??????,Takhar,????,16
32688,32689,Yale POP_MASTER,RTQ-168,,0,TKR-RTQ-168,1103,Dari,1,853.1577758999999,37.1156,69.6077,TKR,RTQ,Shair Tala,1609,Rostaq,??????,Takhar,????,16
32689,32690,Yale POP_MASTER,DQA-031,,0,TKR-DQA-031,386,Pashto,2,451.2037964,37.244,69.5025,TKR,DQA,Laiqa,1613,Dasht-e- Qala,??? ????,Takhar,????,16
32690,32691,Yale POP_MASTER,DQA-036,,0,TKR-DQA-036,527,Dari,1,416.9255981,37.2562,69.461,TKR,DQA,Naqil Kakar,1613,Dasht-e- Qala,??? ????,Takhar,????,16
32889,32890,USAID AIDVillageView,DQA-007,,0,TKR-DQA-007,0,Dari,1,427.7886047,37.3088,69.4743,TKR,DQA,Eshan Qeshlaq,1613,Dasht-e- Qala,??? ????,Takhar,????,16
32890,32891,USAID AIDVillageView,DQA-010,,0,TKR-DQA-010,0,Dari,1,434.3523865,37.2768,69.4577,TKR,DQA,Kakol,1613,Dasht-e- Qala,??? ????,Takhar,????,16
32891,32892,Yale POP_MASTER,RTQ-024,,0,TKR-RTQ-024,462,Dari,1,1013.526978,37.2718,69.6835,TKR,RTQ,Agzak,1609,Rostaq,??????,Takhar,????,16
32892,32893,Yale POP_MASTER,RTQ-065,,0,TKR-RTQ-065,441,Balochi,5,1082.114014,37.2704,69.655,TKR,RTQ,Dasht Chanari,1609,Rostaq,??????,Takhar,????,16
32893,32894,Yale POP_MASTER,RTQ-089,,0,TKR-RTQ-089,352,Balochi,5,1032.046021,37.2848,69.6471,TKR,RTQ,Jowra Bahi,1609,Rostaq,??????,Takhar,????,16
32894,32895,Yale POP_MASTER,RTQ-120,,0,TKR-RTQ-120,200,Dari,1,980.0134888,37.2963,69.657,TKR,RTQ,Noor Ahmad Bahi,1609,Rostaq,??????,Takhar,????,16
32895,32896,Yale POP_MASTER,RTQ-153,,0,TKR-RTQ-153,169,Dari,1,967.6027222000001,37.2888,69.6743,TKR,RTQ,Sakarma,1609,Rostaq,??????,Takhar,????,16
32896,32897,Yale POP_MASTER,RTQ-186,,0,TKR-RTQ-186,283,Uzbek,3,982.0131836000002,37.2808,69.687,TKR,RTQ,Zarif Bahi,1609,Rostaq,??????,Takhar,????,16
32897,32898,Yale POP_MASTER,YGQ-044,,0,TKR-YGQ-044,231,Uzbek,3,442.93069460000004,37.4064,69.5687,TKR,YGQ,Now Abad,1611,Yangi Qala,???? ????,Takhar,????,16
32898,32899,Yale POP_MASTER,DQA-035,,0,TKR-DQA-035,41,Uzbek,3,430.61489869999997,37.2918,69.4819,TKR,DQA,Naqil Bajowri,1613,Dasht-e- Qala,??? ????,Takhar,????,16
32899,32900,Yale POP_MASTER,KBN-002,,0,TKR-KBN-002,1190,Dari,1,438.68521119999997,37.3859,69.5576,TKR,KBN,Allahudin,1612,Khwajabahawuddin,????? ?????????,Takhar,????,16
32900,32901,Yale POP_MASTER,KBN-003,,0,TKR-KBN-003,1665,Dari,1,452.61669919999997,37.3885,69.5966,TKR,KBN,Aroq Qeshlaq,1612,Khwajabahawuddin,????? ?????????,Takhar,????,16
32901,32902,Yale POP_MASTER,KBN-09,,0,TKR-KBN-09,423,Uzbek,3,437.94891359999997,37.3824,69.5819,TKR,KBN,Lala Gozar Darwazkoon,1612,Khwajabahawuddin,????? ?????????,Takhar,????,16
32902,32903,Yale POP_MASTER,KBN-018,,0,TKR-KBN-018,204,Uzbek,3,509.6628113,37.3836,69.605,TKR,KBN,Now Abad Tapa,1612,Khwajabahawuddin,????? ?????????,Takhar,????,16
32903,32904,Yale POP_MASTER,KBN-019,,0,TKR-KBN-019,455,Dari,1,441.1608887,37.3984,69.5572,TKR,KBN,Qahrlary,1612,Khwajabahawuddin,????? ?????????,Takhar,????,16
32904,32905,USAID AIDVillageView,YGQ-001,,0,TKR-YGQ-001,0,Dari,1,450.91979979999996,37.4215,69.5878,TKR,YGQ,Jangali,1611,Yangi Qala,???? ????,Takhar,????,16
32905,32906,USAID AIDVillageView,YGQ-002,,0,TKR-YGQ-002,0,Dari,1,442.97988889999993,37.4057,69.5818,TKR,YGQ,Kaftar Ali (1),1611,Yangi Qala,???? ????,Takhar,????,16
32906,32907,USAID AIDVillageView,YGQ-003,,0,TKR-YGQ-003,0,Dari,1,621.7855225,37.4575,69.711,TKR,YGQ,Lapaz Beg,1611,Yangi Qala,???? ????,Takhar,????,16
32907,32908,USAID AIDVillageView,YGQ-007,,0,TKR-YGQ-007,0,Dari,1,449.6343994,37.4339,69.5703,TKR,YGQ,Umar Khel (2),1611,Yangi Qala,???? ????,Takhar,????,16
32908,32909,CSO AIMS Villages (ACSOR),YGQ-009,,0,TKR-YGQ-009,150,Dari,1,462.87860109999997,37.46,69.59304,TKR,YGQ,Sayid Ahmad,1611,Yangi Qala,???? ????,Takhar,????,16
32909,32910,CSO AIMS Villages (ACSOR),YGQ-010,,0,TKR-YGQ-010,1280,Dari,1,449.94421389999997,37.40445,69.60094000000001,TKR,YGQ,Toopkhana Kaftar Ali Chakari,1611,Yangi Qala,???? ????,Takhar,????,16
32910,32911,Yale POP_MASTER,YGQ-012,,0,TKR-YGQ-012,1731,Pashto,2,573.8444214,37.4759,69.6921,TKR,YGQ,Abdul Nazar Baik,1611,Yangi Qala,???? ????,Takhar,????,16
32911,32912,Yale POP_MASTER,YGQ-016,,0,TKR-YGQ-016,664,Uzbek,3,697.1699829,37.43,69.7151,TKR,YGQ,Bahi Hawa Gharbi,1611,Yangi Qala,???? ????,Takhar,????,16
32912,32913,Yale POP_MASTER,YGQ-018,,0,TKR-YGQ-018,274,Uzbek,3,660.2692871,37.4411,69.7079,TKR,YGQ,Bahi Qeshlaq,1611,Yangi Qala,???? ????,Takhar,????,16
32913,32914,Yale POP_MASTER,YGQ-020,,0,TKR-YGQ-020,937,Uzbek,3,447.87921140000003,37.4119,69.6001,TKR,YGQ,Chanar Kaftar Ali,1611,Yangi Qala,???? ????,Takhar,????,16
32914,32915,Yale POP_MASTER,YGQ-021,,0,TKR-YGQ-021,477,Dari,1,445.8197937,37.4135,69.5816,TKR,YGQ,Changraq Chashma Naqelen Talaqani,1611,Yangi Qala,???? ????,Takhar,????,16
32915,32916,Yale POP_MASTER,YGQ-024,,0,TKR-YGQ-024,1184,Uzbek,3,451.41390989999996,37.4359,69.581,TKR,YGQ,Hazara Qeshlaq,1611,Yangi Qala,???? ????,Takhar,????,16
32916,32917,Yale POP_MASTER,YGQ-026,,0,TKR-YGQ-026,678,Uzbek,3,637.1312256,37.4494,69.7026,TKR,YGQ,Janat Nafas Baik,1611,Yangi Qala,???? ????,Takhar,????,16
32917,32918,Yale POP_MASTER,YGQ-027,,0,TKR-YGQ-027,488,Pashto,2,441.860199,37.4112,69.5661,TKR,YGQ,Jangah Taghan,1611,Yangi Qala,???? ????,Takhar,????,16
32918,32919,Yale POP_MASTER,YGQ-030,,0,TKR-YGQ-030,875,Uzbek,3,455.8218079,37.4146,69.6088,TKR,YGQ,Kaftar Ali (2),1611,Yangi Qala,???? ????,Takhar,????,16
32919,32920,Yale POP_MASTER,YGQ-038,,0,TKR-YGQ-038,235,Dari,1,450.077301,37.4431,69.5762,TKR,YGQ,Mahzullah,1611,Yangi Qala,???? ????,Takhar,????,16
32920,32921,Yale POP_MASTER,YGQ-039,,0,TKR-YGQ-039,714,Dari,1,446.1712036,37.4264,69.5638,TKR,YGQ,Momen Abad,1611,Yangi Qala,???? ????,Takhar,????,16
32921,32922,Yale POP_MASTER,YGQ-042,,0,TKR-YGQ-042,483,Uzbek,3,565.7661743,37.4818,69.6736,TKR,YGQ,Mullah Baik Mohammad,1611,Yangi Qala,???? ????,Takhar,????,16
32922,32923,Yale POP_MASTER,YGQ-043,,0,TKR-YGQ-043,678,Dari,1,631.3425292999999,37.4486,69.7083,TKR,YGQ,Nafas Baik,1611,Yangi Qala,???? ????,Takhar,????,16
32923,32924,Yale POP_MASTER,YGQ-045,,0,TKR-YGQ-045,172,Uzbek,3,510.9259949,37.4244,69.6116,TKR,YGQ,Now Abad Kaftar Ali,1611,Yangi Qala,???? ????,Takhar,????,16
32924,32925,Yale POP_MASTER,YGQ-048,,0,TKR-YGQ-048,425,Uzbek,3,455.89691160000007,37.437,69.5982,TKR,YGQ,Now Abad Qeshlaq Sayed Hai,1611,Yangi Qala,???? ????,Takhar,????,16
32925,32926,Yale POP_MASTER,YGQ-050,,0,TKR-YGQ-050,1763,Dari,1,455.5069885,37.4423,69.5922,TKR,YGQ,Omer Khail,1611,Yangi Qala,???? ????,Takhar,????,16
32926,32927,Yale POP_MASTER,YGQ-054,,0,TKR-YGQ-054,157,Pashto,2,451.5386963,37.4419,69.5817,TKR,YGQ,Qala Nadir Khan,1611,Yangi Qala,???? ????,Takhar,????,16
32927,32928,Yale POP_MASTER,YGQ-057,,0,TKR-YGQ-057,740,Dari,1,517.427124,37.4017,69.6189,TKR,YGQ,Shair Abad Toopkhana,1611,Yangi Qala,???? ????,Takhar,????,16
32928,32929,Yale POP_MASTER,YGQ-059,,0,TKR-YGQ-059,1195,Uzbek,3,585.0529175,37.4703,69.694,TKR,YGQ,Tash Balta Baik,1611,Yangi Qala,???? ????,Takhar,????,16
33028,33029,Yale POP_MASTER,DRQ-016,,0,TKR-DRQ-016,1193,Pashto,2,460.62930300000005,37.5186,69.5176,TKR,DRQ,Kal Toot Bala,1617,Darqad,????,Takhar,????,16
33029,33030,Yale POP_MASTER,DRQ-024,,0,TKR-DRQ-024,1056,Uzbek,3,463.2103882,37.5093,69.536,TKR,DRQ,Qafani,1617,Darqad,????,Takhar,????,16
33030,33031,Yale POP_MASTER,CAB-043,,0,TKR-CAB-043,694,Dari,1,798.6737061000001,37.5276,69.7412,TKR,CAB,Houdai,1610,Chahab,??? ??,Takhar,????,16
33031,33032,Yale POP_MASTER,CAB-056,,0,TKR-CAB-056,652,Dari,1,902.4494018999999,37.5574,69.7478,TKR,CAB,Now Abad Qazal Balaq,1610,Chahab,??? ??,Takhar,????,16
33032,33033,Yale POP_MASTER,CAB-060,,0,TKR-CAB-060,547,Dari,1,838.159729,37.5481,69.7476,TKR,CAB,Qazal Balaq,1610,Chahab,??? ??,Takhar,????,16
33033,33034,Yale POP_MASTER,KBN-021,,0,TKR-KBN-021,1045,Uzbek,3,500.458313,37.3886,69.6095,TKR,KBN,Seukhi Kaftar Ali,1612,Khwajabahawuddin,????? ?????????,Takhar,????,16
33034,33035,USAID AIDVillageView,DRQ-002,,0,TKR-DRQ-002,0,Dari,1,426.10171510000004,37.3672,69.4191,TKR,DRQ,Musa Zay,1617,Darqad,????,Takhar,????,16
33035,33036,Yale POP_MASTER,DRQ-005,,0,TKR-DRQ-005,950,Dari,1,420.0221863,37.3227,69.45,TKR,DRQ,Arpali,1617,Darqad,????,Takhar,????,16
33036,33037,Yale POP_MASTER,DRQ-006,,0,TKR-DRQ-006,507,Dari,1,439.56549069999994,37.4172,69.5071,TKR,DRQ,Bajawori,1617,Darqad,????,Takhar,????,16
33037,33038,Yale POP_MASTER,DRQ-007,,0,TKR-DRQ-007,275,Dari,1,431.52899169999995,37.3958,69.4357,TKR,DRQ,Barlow,1617,Darqad,????,Takhar,????,16
33038,33039,Yale POP_MASTER,DRQ-008,,0,TKR-DRQ-008,532,Pashto,2,450.05889890000003,37.4961,69.4665,TKR,DRQ,Boshqaq,1617,Darqad,????,Takhar,????,16
33039,33040,Yale POP_MASTER,DRQ-010,,0,TKR-DRQ-010,776,Uzbek,3,437.22378539999994,37.4314,69.4228,TKR,DRQ,Ghazi Abad,1617,Darqad,????,Takhar,????,16
33040,33041,Yale POP_MASTER,DRQ-011,,0,TKR-DRQ-011,988,Dari,1,440.14349369999996,37.4271,69.4366,TKR,DRQ,Ghulam Khail,1617,Darqad,????,Takhar,????,16
33041,33042,Yale POP_MASTER,DRQ-014,,0,TKR-DRQ-014,199,Pashto,2,436.77600099999995,37.4143,69.4539,TKR,DRQ,Jeedah Qeshlaq,1617,Darqad,????,Takhar,????,16
33042,33043,Yale POP_MASTER,DRQ-018,,0,TKR-DRQ-018,719,Dari,1,455.1377869,37.506,69.4838,TKR,DRQ,Lala Maidan,1617,Darqad,????,Takhar,????,16
33043,33044,Yale POP_MASTER,DRQ-019,,0,TKR-DRQ-019,276,Dari,1,443.09960939999996,37.4522,69.4677,TKR,DRQ,Maida Pata,1617,Darqad,????,Takhar,????,16
33044,33045,Yale POP_MASTER,DRQ-020,,0,TKR-DRQ-020,1557,Dari,1,434.45739749999996,37.3831,69.4566,TKR,DRQ,Markaz-e-wolluswaly Darqad,1617,Darqad,????,Takhar,????,16
33045,33046,Yale POP_MASTER,DRQ-021,,0,TKR-DRQ-021,827,Pashto,2,424.2326965,37.3602,69.42,TKR,DRQ,Mossa Zai,1617,Darqad,????,Takhar,????,16
33046,33047,Yale POP_MASTER,DRQ-022,,0,TKR-DRQ-022,1091,Dari,1,428.2434081999999,37.3818,69.4372,TKR,DRQ,Noor Khail,1617,Darqad,????,Takhar,????,16
33047,33048,Yale POP_MASTER,DRQ-023,,0,TKR-DRQ-023,399,Balochi,5,427.5162048,37.3565,69.4684,TKR,DRQ,Now Abad Alqanaq,1617,Darqad,????,Takhar,????,16
33048,33049,Yale POP_MASTER,DRQ-025,,0,TKR-DRQ-025,542,Dari,1,438.7885132,37.4143,69.4917,TKR,DRQ,Qala Yar Wakil Fata Mohammad,1617,Darqad,????,Takhar,????,16
33049,33050,Yale POP_MASTER,DRQ-026,,0,TKR-DRQ-026,1084,Uzbek,3,436.567688,37.4198,69.428,TKR,DRQ,Qara Tapa Bala,1617,Darqad,????,Takhar,????,16
33050,33051,Yale POP_MASTER,DRQ-027,,0,TKR-DRQ-027,936,Pashto,2,434.29501339999996,37.4131,69.419,TKR,DRQ,Qara Tapa Payen,1617,Darqad,????,Takhar,????,16
33051,33052,Yale POP_MASTER,DRQ-029,,0,TKR-DRQ-029,347,Pashto,2,443.2804871,37.4326,69.5157,TKR,DRQ,Qoul Abad,1617,Darqad,????,Takhar,????,16
33052,33053,Yale POP_MASTER,DRQ-030,,0,TKR-DRQ-030,496,Pashto,2,441.26168820000004,37.4288,69.5112,TKR,DRQ,Qoul Abad Bajawori,1617,Darqad,????,Takhar,????,16
33053,33054,Yale POP_MASTER,DRQ-031,,0,TKR-DRQ-031,1021,Uzbek,3,450.5169983,37.4701,69.5075,TKR,DRQ,Qoum Gozar Afghania,1617,Darqad,????,Takhar,????,16
33054,33055,Yale POP_MASTER,DRQ-032,,0,TKR-DRQ-032,366,Dari,1,446.22180180000004,37.4577,69.4954,TKR,DRQ,Qoum Gozar Uzbekia,1617,Darqad,????,Takhar,????,16
33055,33056,Yale POP_MASTER,DRQ-034,,0,TKR-DRQ-034,1196,Balochi,5,422.7908019999999,37.3426,69.4252,TKR,DRQ,Tahiri,1617,Darqad,????,Takhar,????,16
33185,33186,Yale POP_MASTER,DRQ-035,,0,TKR-DRQ-035,1071,Pashto,2,427.41220089999996,37.3793,69.4137,TKR,DRQ,Tara Ke,1617,Darqad,????,Takhar,????,16
33186,33187,Yale POP_MASTER,DRQ-036,District,1,TKR-DRQ-036,1200,Dari,1,435.3684081999999,37.3853,69.4574,TKR,DRQ,Darqad,1617,Darqad,????,Takhar,????,16
33187,33188,Yale POP_MASTER,RTQ-001,,0,TKR-RTQ-001,0,Dari,1,656.5327147999999,37.3013,69.9128,TKR,RTQ,Alat (1),1609,Rostaq,??????,Takhar,????,16
33188,33189,USAID AIDVillageView,RTQ-007,,0,TKR-RTQ-007,0,Dari,1,918.6401978,37.2938,69.7316,TKR,RTQ,Dahan Kaywan,1609,Rostaq,??????,Takhar,????,16
33189,33190,USAID AIDVillageView,RTQ-017,,0,TKR-RTQ-017,0,Dari,1,1645.764038,37.2996,69.89399999999999,TKR,RTQ,Shah Darrah,1609,Rostaq,??????,Takhar,????,16
33190,33191,USAID AIDVillageView,CAB-002,,0,TKR-CAB-002,0,Dari,1,1101.030029,37.5438,69.9065,TKR,CAB,Anjir (2),1610,Chahab,??? ??,Takhar,????,16
33191,33192,USAID AIDVillageView,CAB-003,,0,TKR-CAB-003,0,Dari,1,1260.3790279999998,37.5093,69.9033,TKR,CAB,Argasa,1610,Chahab,??? ??,Takhar,????,16
33192,33193,USAID AIDVillageView,CAB-006,,0,TKR-CAB-006,0,Dari,1,1200.047974,37.5313,69.9475,TKR,CAB,Chashma-i-gul (2),1610,Chahab,??? ??,Takhar,????,16
33193,33194,USAID AIDVillageView,CAB-007,,0,TKR-CAB-007,0,Dari,1,1822.421021,37.3787,69.9223,TKR,CAB,Gordanga,1610,Chahab,??? ??,Takhar,????,16
33194,33195,USAID AIDVillageView,CAB-008,,0,TKR-CAB-008,0,Dari,1,648.9647217,37.5609,69.8278,TKR,CAB,Khaksar,1610,Chahab,??? ??,Takhar,????,16
33195,33196,USAID AIDVillageView,CAB-009,,0,TKR-CAB-009,0,Dari,1,1212.369995,37.5442,69.9298,TKR,CAB,Khayrabad,1610,Chahab,??? ??,Takhar,????,16
33196,33197,USAID AIDVillageView,CAB-010,,0,TKR-CAB-010,0,Dari,1,1517.817017,37.5172,69.9491,TKR,CAB,Khushkakha,1610,Chahab,??? ??,Takhar,????,16
33197,33198,USAID AIDVillageView,CAB-012,,0,TKR-CAB-012,0,Dari,1,2073.031982,37.4005,70.0052,TKR,CAB,Qaymaqistan,1610,Chahab,??? ??,Takhar,????,16
33198,33199,USAID AIDVillageView,CAB-013,,0,TKR-CAB-013,0,Dari,1,894.9174805,37.5438,69.8143,TKR,CAB,Qoduq,1610,Chahab,??? ??,Takhar,????,16
33199,33200,USAID AIDVillageView,CAB-014,,0,TKR-CAB-014,0,Dari,1,1801.510986,37.3495,69.9873,TKR,CAB,Shah Darrah,1610,Chahab,??? ??,Takhar,????,16
33200,33201,USAID AIDVillageView,CAB-015,,0,TKR-CAB-015,0,Dari,1,1526.394043,37.365,69.8867,TKR,CAB,Warna Khan Chashma,1610,Chahab,??? ??,Takhar,????,16
33201,33202,USAID AIDVillageView,CAB-016,,0,TKR-CAB-016,0,Dari,1,1479.344971,37.3724,69.88600000000001,TKR,CAB,Warna Khan Qal'a,1610,Chahab,??? ??,Takhar,????,16
33202,33203,CSO AIMS Villages (ACSOR),CAB-017,,0,TKR-CAB-017,319,Dari,1,798.8289185,37.57417,69.90626,TKR,CAB,Chanar Darah,1610,Chahab,??? ??,Takhar,????,16
33203,33204,Yale POP_MASTER,RTQ-028,,0,TKR-RTQ-028,793,Dari,1,862.4569092,37.354,69.7251,TKR,RTQ,Aqjaar,1609,Rostaq,??????,Takhar,????,16
33204,33205,Yale POP_MASTER,RTQ-039,,0,TKR-RTQ-039,436,Dari,1,1010.8740230000001,37.2607,69.7324,TKR,RTQ,Baloch Yaka Toot,1609,Rostaq,??????,Takhar,????,16
33205,33206,Yale POP_MASTER,RTQ-055,,0,TKR-RTQ-055,1947,Dari,1,895.333374,37.3081,69.7188,TKR,RTQ,Dahan Kewan,1609,Rostaq,??????,Takhar,????,16
33206,33207,Yale POP_MASTER,RTQ-062,,0,TKR-RTQ-062,341,Dari,1,2031.668945,37.2735,69.9182,TKR,RTQ,Dasht Bashal,1609,Rostaq,??????,Takhar,????,16
33207,33208,Yale POP_MASTER,RTQ-090,,0,TKR-RTQ-090,888,Dari,1,1423.9790039999998,37.2667,69.8328,TKR,RTQ,Kaishan,1609,Rostaq,??????,Takhar,????,16
33208,33209,Yale POP_MASTER,RTQ-092,,0,TKR-RTQ-092,1017,Dari,1,1443.468018,37.2686,69.8521,TKR,RTQ,Kaman Gahr,1609,Rostaq,??????,Takhar,????,16
33209,33210,Yale POP_MASTER,RTQ-093,,0,TKR-RTQ-093,1124,Dari,1,853.9833983999999,37.3695,69.7198,TKR,RTQ,Karim Bahi,1609,Rostaq,??????,Takhar,????,16
33210,33211,Yale POP_MASTER,RTQ-094,,0,TKR-RTQ-094,4991,Dari,1,1109.9060060000002,37.2947,69.7965,TKR,RTQ,Khailan,1609,Rostaq,??????,Takhar,????,16
33211,33212,Yale POP_MASTER,RTQ-110,,0,TKR-RTQ-110,891,Uzbek,3,2001.016968,37.2671,69.9169,TKR,RTQ,Langar Bala,1609,Rostaq,??????,Takhar,????,16
33212,33213,Yale POP_MASTER,RTQ-111,,0,TKR-RTQ-111,741,Dari,1,1873.182007,37.2649,69.90899999999999,TKR,RTQ,Langar Eashan,1609,Rostaq,??????,Takhar,????,16
33213,33214,Yale POP_MASTER,RTQ-124,,0,TKR-RTQ-124,671,Dari,1,897.6453857000001,37.3068,69.7272,TKR,RTQ,Now Abad Kewan,1609,Rostaq,??????,Takhar,????,16
33214,33215,Yale POP_MASTER,RTQ-131,,0,TKR-RTQ-131,701,Dari,1,884.411499,37.3254,69.7201,TKR,RTQ,Pastaka Bala,1609,Rostaq,??????,Takhar,????,16
33215,33216,Yale POP_MASTER,RTQ-132,,0,TKR-RTQ-132,743,Balochi,5,924.7824707000001,37.3347,69.7206,TKR,RTQ,Pastaka Payen,1609,Rostaq,??????,Takhar,????,16
33660,33661,Yale POP_MASTER,YGQ-017,,0,TKR-YGQ-017,664,Uzbek,3,672.0170287999999,37.4299,69.7254,TKR,YGQ,Bahi Hawa Sharqi,1611,Yangi Qala,???? ????,Takhar,????,16
33661,33662,Yale POP_MASTER,YGQ-034,,0,TKR-YGQ-034,122,Dari,1,837.7053833,37.4565,69.7405,TKR,YGQ,Khal Yazi Bala,1611,Yangi Qala,???? ????,Takhar,????,16
33662,33663,Yale POP_MASTER,YGQ-035,,0,TKR-YGQ-035,286,Pashto,2,755.7650757,37.4435,69.7291,TKR,YGQ,Khal Yazi Payen,1611,Yangi Qala,???? ????,Takhar,????,16
33663,33664,Yale POP_MASTER,YGQ-036,,0,TKR-YGQ-036,117,Uzbek,3,846.013916,37.3859,69.7224,TKR,YGQ,Khapak Darah,1611,Yangi Qala,???? ????,Takhar,????,16
33664,33665,Yale POP_MASTER,YGQ-041,,0,TKR-YGQ-041,1343,Dari,1,723.0203247000001,37.4045,69.7359,TKR,YGQ,Mughlan,1611,Yangi Qala,???? ????,Takhar,????,16
33665,33666,Yale POP_MASTER,CAB-019,,0,TKR-CAB-019,549,Dari,1,1883.067993,37.3345,69.988,TKR,CAB,Ab Shakhak,1610,Chahab,??? ??,Takhar,????,16
33666,33667,Yale POP_MASTER,CAB-020,,0,TKR-CAB-020,898,Dari,1,1295.4689939999998,37.4845,69.8974,TKR,CAB,Anjir (1),1610,Chahab,??? ??,Takhar,????,16
33667,33668,Yale POP_MASTER,CAB-021,,0,TKR-CAB-021,380,Dari,1,641.9473267000001,37.5621,69.9538,TKR,CAB,Anjnear,1610,Chahab,??? ??,Takhar,????,16
33668,33669,Yale POP_MASTER,CAB-022,,0,TKR-CAB-022,403,Dari,1,561.2860107000001,37.592,69.8636,TKR,CAB,Arab Ha,1610,Chahab,??? ??,Takhar,????,16
33669,33670,Yale POP_MASTER,CAB-023,,0,TKR-CAB-023,1000,Dari,1,1467.383057,37.4398,69.8985,TKR,CAB,Argishah,1610,Chahab,??? ??,Takhar,????,16
33670,33671,Yale POP_MASTER,CAB-024,,0,TKR-CAB-024,369,Dari,1,1506.884033,37.4387,69.9032,TKR,CAB,Argishah Bala,1610,Chahab,??? ??,Takhar,????,16
33671,33672,Yale POP_MASTER,CAB-025,,0,TKR-CAB-025,368,Uzbek,3,793.4315796,37.3696,69.741,TKR,CAB,Beash Kapa,1610,Chahab,??? ??,Takhar,????,16
33672,33673,Yale POP_MASTER,CAB-026,,0,TKR-CAB-026,371,Dari,1,560.65802,37.5915,69.8582,TKR,CAB,Cemaiti Bala,1610,Chahab,??? ??,Takhar,????,16
33673,33674,Yale POP_MASTER,CAB-027,,0,TKR-CAB-027,297,Dari,1,553.5938721,37.5773,69.8438,TKR,CAB,Cemaiti Payen,1610,Chahab,??? ??,Takhar,????,16
33674,33675,Yale POP_MASTER,CAB-028,,0,TKR-CAB-028,1027,Dari,1,1570.7290039999998,37.3316,69.9093,TKR,CAB,Chakaran,1610,Chahab,??? ??,Takhar,????,16
33675,33676,Yale POP_MASTER,CAB-029,,0,TKR-CAB-029,476,Dari,1,1886.4200440000002,37.4633,69.9427,TKR,CAB,Chashma-i-gul (1),1610,Chahab,??? ??,Takhar,????,16
33676,33677,Yale POP_MASTER,CAB-030,,0,TKR-CAB-030,376,Dari,1,1658.2619630000002,37.3344,69.9231,TKR,CAB,Chashma Khorshid,1610,Chahab,??? ??,Takhar,????,16
33677,33678,Yale POP_MASTER,CAB-031,,0,TKR-CAB-031,779,Dari,1,881.9025879000001,37.5179,69.7934,TKR,CAB,Chor,1610,Chahab,??? ??,Takhar,????,16
33678,33679,Yale POP_MASTER,CAB-032,,0,TKR-CAB-032,607,Dari,1,751.4022827,37.5215,69.8204,TKR,CAB,Dahna Qeshlaq,1610,Chahab,??? ??,Takhar,????,16
33679,33680,Yale POP_MASTER,CAB-033,,0,TKR-CAB-033,720,Dari,1,1957.2209469999998,37.3089,69.9816,TKR,CAB,Darah-i-bashir,1610,Chahab,??? ??,Takhar,????,16
33680,33681,Yale POP_MASTER,CAB-034,,0,TKR-CAB-034,376,Dari,1,1781.745972,37.3739,69.9235,TKR,CAB,Darah-i-razak,1610,Chahab,??? ??,Takhar,????,16
33681,33682,Yale POP_MASTER,CAB-035,,0,TKR-CAB-035,728,Dari,1,1507.0529789999998,37.4702,69.9059,TKR,CAB,Dasht-e-anjir Bala,1610,Chahab,??? ??,Takhar,????,16
33682,33683,Yale POP_MASTER,CAB-036,,0,TKR-CAB-036,1151,Dari,1,1356.730957,37.4718,69.8897,TKR,CAB,Dasht-e-anjir Payen,1610,Chahab,??? ??,Takhar,????,16
33683,33684,Yale POP_MASTER,CAB-037,,0,TKR-CAB-037,136,Dari,1,1778.255005,37.3035,69.9034,TKR,CAB,Dasht-e-hailaq,1610,Chahab,??? ??,Takhar,????,16
33684,33685,Yale POP_MASTER,CAB-038,,0,TKR-CAB-038,223,Dari,1,1802.5529789999998,37.3658,69.9194,TKR,CAB,Gardan Gha,1610,Chahab,??? ??,Takhar,????,16
33685,33686,Yale POP_MASTER,CAB-039,,0,TKR-CAB-039,862,Dari,1,1641.781982,37.3944,69.9014,TKR,CAB,Gazan Gozar Harshi Man,1610,Chahab,??? ??,Takhar,????,16
33686,33687,Yale POP_MASTER,CAB-040,,0,TKR-CAB-040,1156,Dari,1,1501.000977,37.4052,69.8962,TKR,CAB,Gazana,1610,Chahab,??? ??,Takhar,????,16
33687,33688,Yale POP_MASTER,CAB-041,,0,TKR-CAB-041,351,Dari,1,1129.061035,37.4781,69.765,TKR,CAB,Ghani Darah,1610,Chahab,??? ??,Takhar,????,16
33688,33689,Yale POP_MASTER,CAB-042,,0,TKR-CAB-042,323,Dari,1,1980.8819579999997,37.3172,69.9435,TKR,CAB,Gul Kharak,1610,Chahab,??? ??,Takhar,????,16
33689,33690,Yale POP_MASTER,CAB-044,,0,TKR-CAB-044,1035,Dari,1,1246.572998,37.4152,69.8516,TKR,CAB,Izana,1610,Chahab,??? ??,Takhar,????,16
33690,33691,Yale POP_MASTER,CAB-045,,0,TKR-CAB-045,1172,Dari,1,1792.848022,37.4204,69.9277,TKR,CAB,Kala Tak,1610,Chahab,??? ??,Takhar,????,16
33691,33692,Yale POP_MASTER,CAB-046,,0,TKR-CAB-046,520,Dari,1,566.2979736000001,37.5869,69.8648,TKR,CAB,Kamar Baloch,1610,Chahab,??? ??,Takhar,????,16
33692,33693,Yale POP_MASTER,CAB-047,,0,TKR-CAB-047,260,Dari,1,1056.118042,37.5254,69.9626,TKR,CAB,Khar Sangan,1610,Chahab,??? ??,Takhar,????,16
33795,33796,Yale POP_MASTER,CAB-048,,0,TKR-CAB-048,589,Dari,1,1652.7709960000002,37.4783,69.9243,TKR,CAB,Khari Abad,1610,Chahab,??? ??,Takhar,????,16
33796,33797,Yale POP_MASTER,CAB-049,,0,TKR-CAB-049,1129,Dari,1,817.5856934,37.4988,69.8219,TKR,CAB,Khasar,1610,Chahab,??? ??,Takhar,????,16
33797,33798,Yale POP_MASTER,CAB-050,,0,TKR-CAB-050,320,Dari,1,990.6228027000001,37.5057,69.8163,TKR,CAB,Khasar Gozar Sorkha,1610,Chahab,??? ??,Takhar,????,16
33798,33799,Yale POP_MASTER,CAB-051,,0,TKR-CAB-051,335,Dari,1,1891.977051,37.3145,69.9614,TKR,CAB,Khatak,1610,Chahab,??? ??,Takhar,????,16
33799,33800,Yale POP_MASTER,CAB-052,,0,TKR-CAB-052,608,Dari,1,1957.415039,37.4484,69.9426,TKR,CAB,Khoshka Khawa,1610,Chahab,??? ??,Takhar,????,16
33800,33801,Yale POP_MASTER,CAB-053,,0,TKR-CAB-053,24,Uzbek,3,1670.573975,37.3306,69.9591,TKR,CAB,Mullah Shahir,1610,Chahab,??? ??,Takhar,????,16
33801,33802,Yale POP_MASTER,CAB-054,,0,TKR-CAB-054,697,Dari,1,678.6083984,37.5426,69.8313,TKR,CAB,Noor Aba,1610,Chahab,??? ??,Takhar,????,16
33802,33803,Yale POP_MASTER,CAB-055,,0,TKR-CAB-055,768,Dari,1,1724.187012,37.4015,69.9177,TKR,CAB,Now Abad,1610,Chahab,??? ??,Takhar,????,16
33803,33804,Yale POP_MASTER,CAB-057,,0,TKR-CAB-057,901,Dari,1,1233.155029,37.4414,69.7772,TKR,CAB,Pai Shaf,1610,Chahab,??? ??,Takhar,????,16
33804,33805,Yale POP_MASTER,CAB-058,,0,TKR-CAB-058,944,Dari,1,895.0648193,37.4756,69.8094,TKR,CAB,Qadoq,1610,Chahab,??? ??,Takhar,????,16
33805,33806,Yale POP_MASTER,CAB-059,,0,TKR-CAB-059,105,Dari,1,1724.250977,37.3267,69.9325,TKR,CAB,Qaimaqtan,1610,Chahab,??? ??,Takhar,????,16
33806,33807,Yale POP_MASTER,CAB-061,,0,TKR-CAB-061,395,Dari,1,1936.223022,37.3697,69.9848,TKR,CAB,Rabat Gardan,1610,Chahab,??? ??,Takhar,????,16
33807,33808,Yale POP_MASTER,CAB-062,,0,TKR-CAB-062,478,Dari,1,1862.7280269999999,37.3084,69.9108,TKR,CAB,Regi,1610,Chahab,??? ??,Takhar,????,16
33808,33809,Yale POP_MASTER,CAB-063,,0,TKR-CAB-063,1188,Dari,1,606.0443115,37.5698,69.8375,TKR,CAB,Sabraghi,1610,Chahab,??? ??,Takhar,????,16
33809,33810,Yale POP_MASTER,CAB-064,,0,TKR-CAB-064,953,Dari,1,1451.719971,37.3786,69.8858,TKR,CAB,Safakan,1610,Chahab,??? ??,Takhar,????,16
33810,33811,Yale POP_MASTER,CAB-065,,0,TKR-CAB-065,175,Dari,1,809.7490234,37.3601,69.7399,TKR,CAB,Sar Howz,1610,Chahab,??? ??,Takhar,????,16
33811,33812,Yale POP_MASTER,CAB-066,,0,TKR-CAB-066,1014,Dari,1,1282.358032,37.4172,69.8573,TKR,CAB,Seya Jaar,1610,Chahab,??? ??,Takhar,????,16
33812,33813,Yale POP_MASTER,CAB-067,,0,TKR-CAB-067,677,Dari,1,715.9249267999999,37.5359,69.8225,TKR,CAB,Shah Mastan,1610,Chahab,??? ??,Takhar,????,16
33813,33814,Yale POP_MASTER,CAB-068,,0,TKR-CAB-068,350,Dari,1,2108.089111,37.3588,69.969,TKR,CAB,Shak Dara,1610,Chahab,??? ??,Takhar,????,16
33814,33815,Yale POP_MASTER,CAB-069,,0,TKR-CAB-069,590,Dari,1,967.4304810000001,37.4917,69.7515,TKR,CAB,Shar Shar,1610,Chahab,??? ??,Takhar,????,16
33815,33816,Yale POP_MASTER,CAB-070,,0,TKR-CAB-070,2839,Dari,1,929.4375,37.3763,69.7809,TKR,CAB,Sokhan Abad,1610,Chahab,??? ??,Takhar,????,16
33816,33817,Yale POP_MASTER,CAB-071,,0,TKR-CAB-071,845,Dari,1,602.5750732000001,37.6037,69.8997,TKR,CAB,Warchi,1610,Chahab,??? ??,Takhar,????,16
33817,33818,Yale POP_MASTER,CAB-072,,0,TKR-CAB-072,704,Dari,1,1386.8869630000002,37.3652,69.8631,TKR,CAB,Warna Khowa Kala,1610,Chahab,??? ??,Takhar,????,16
33818,33819,Yale POP_MASTER,CAB-073,,0,TKR-CAB-073,617,Dari,1,1481.682007,37.3635,69.8798,TKR,CAB,Warnakhowa Chashma,1610,Chahab,??? ??,Takhar,????,16
33819,33820,Yale POP_MASTER,CAB-074,,0,TKR-CAB-074,886,Dari,1,1361.873047,37.3583,69.8684,TKR,CAB,Warnakhowa Shahr Now,1610,Chahab,??? ??,Takhar,????,16
33820,33821,Yale POP_MASTER,CAB-075,,0,TKR-CAB-075,588,Dari,1,1666.8339839999999,37.3526,69.9334,TKR,CAB,Zaikar Abad,1610,Chahab,??? ??,Takhar,????,16
33821,33822,Yale POP_MASTER,CAB-076,District,1,TKR-CAB-076,19500,Dari,1,1057.787964,37.3926,69.8174,TKR,CAB,Chah Ab,1610,Chahab,??? ??,Takhar,????,16
33822,33823,USAID AIDVillageView,RTQ-009,,0,TKR-RTQ-009,0,Dari,1,1277.078979,37.1729,69.8167,TKR,RTQ,Ganda,1609,Rostaq,??????,Takhar,????,16
33823,33824,USAID AIDVillageView,RTQ-011,,0,TKR-RTQ-011,0,Dari,1,1030.714966,37.1094,69.6393,TKR,RTQ,Hazara Qeshlaq,1609,Rostaq,??????,Takhar,????,16
33824,33825,Yale POP_MASTER,RTQ-060,,0,TKR-RTQ-060,992,Dari,1,1299.61499,37.122,69.8097,TKR,RTQ,Dasht Ab-i-payen,1609,Rostaq,??????,Takhar,????,16
33825,33826,Yale POP_MASTER,RTQ-063,,0,TKR-RTQ-063,738,Dari,1,1564.131958,37.0172,69.9726,TKR,RTQ,Dasht Chanar,1609,Rostaq,??????,Takhar,????,16
33826,33827,Yale POP_MASTER,RTQ-066,,0,TKR-RTQ-066,491,Dari,1,2002.312012,37.2386,69.9126,TKR,RTQ,Dasht Doghi Gorgan,1609,Rostaq,??????,Takhar,????,16
33827,33828,Yale POP_MASTER,RTQ-068,,0,TKR-RTQ-068,997,Dari,1,1786.7869870000002,37.1987,69.9982,TKR,RTQ,Dashtak Hulya,1609,Rostaq,??????,Takhar,????,16
33828,33829,Yale POP_MASTER,RTQ-070,,0,TKR-RTQ-070,560,Uzbek,3,1257.029053,37.1391,69.7541,TKR,RTQ,Doorman,1609,Rostaq,??????,Takhar,????,16
33829,33830,Yale POP_MASTER,RTQ-071,,0,TKR-RTQ-071,1136,Dari,1,1059.719971,37.2173,69.7022,TKR,RTQ,Down Qeshlaq,1609,Rostaq,??????,Takhar,????,16
33830,33831,Yale POP_MASTER,RTQ-073,,0,TKR-RTQ-073,907,Uzbek,3,1954.7239989999998,37.0349,69.8874,TKR,RTQ,Gandah Chashma,1609,Rostaq,??????,Takhar,????,16
33831,33832,Yale POP_MASTER,RTQ-074,,0,TKR-RTQ-074,469,Dari,1,1300.0429689999999,37.2554,69.8122,TKR,RTQ,Gandah Shaikh,1609,Rostaq,??????,Takhar,????,16
33832,33833,Yale POP_MASTER,RTQ-076,,0,TKR-RTQ-076,4210,Dari,1,1750.2249760000002,37.0908,69.9696,TKR,RTQ,Ghounj,1609,Rostaq,??????,Takhar,????,16
33833,33834,Yale POP_MASTER,RTQ-077,,0,TKR-RTQ-077,587,Uzbek,3,1255.313965,37.1467,69.7995,TKR,RTQ,Gograi,1609,Rostaq,??????,Takhar,????,16
33834,33835,Yale POP_MASTER,RTQ-078,,0,TKR-RTQ-078,1059,Dari,1,1808.628052,37.2465,69.9011,TKR,RTQ,Gorgan,1609,Rostaq,??????,Takhar,????,16
33835,33836,Yale POP_MASTER,RTQ-079,,0,TKR-RTQ-079,733,Dari,1,1833.859985,37.1115,69.9625,TKR,RTQ,Gozar,1609,Rostaq,??????,Takhar,????,16
33836,33837,Yale POP_MASTER,RTQ-080,,0,TKR-RTQ-080,553,Dari,1,1717.069946,37.1084,69.9501,TKR,RTQ,Gozar Bala,1609,Rostaq,??????,Takhar,????,16
33837,33838,Yale POP_MASTER,RTQ-081,,0,TKR-RTQ-081,1188,Dari,1,1275.484009,37.1357,69.8299,TKR,RTQ,Gozar Qala Wakil,1609,Rostaq,??????,Takhar,????,16
33838,33839,Yale POP_MASTER,RTQ-082,,0,TKR-RTQ-082,926,Dari,1,2049.894043,37.2478,69.923,TKR,RTQ,Gozar-bala-gargan,1609,Rostaq,??????,Takhar,????,16
33839,33840,Yale POP_MASTER,RTQ-083,,0,TKR-RTQ-083,212,Uzbek,3,1335.477051,37.0478,69.7322,TKR,RTQ,Hafeezan,1609,Rostaq,??????,Takhar,????,16
33840,33841,Yale POP_MASTER,RTQ-084,,0,TKR-RTQ-084,648,Dari,1,1115.915039,37.1892,69.7697,TKR,RTQ,Haweli Bala,1609,Rostaq,??????,Takhar,????,16
33841,33842,Yale POP_MASTER,RTQ-085,,0,TKR-RTQ-085,3637,Uzbek,3,1615.2969970000001,37.1889,69.9011,TKR,RTQ,Hazar Sumuch,1609,Rostaq,??????,Takhar,????,16
33842,33843,Yale POP_MASTER,RTQ-086,,0,TKR-RTQ-086,237,Uzbek,3,1225.319946,37.1407,69.7727,TKR,RTQ,Islam Qala,1609,Rostaq,??????,Takhar,????,16
33843,33844,Yale POP_MASTER,RTQ-087,,0,TKR-RTQ-087,941,Dari,1,1848.8220210000002,37.0632,69.9007,TKR,RTQ,Jarayel,1609,Rostaq,??????,Takhar,????,16
33844,33845,Yale POP_MASTER,RTQ-091,,0,TKR-RTQ-091,347,Uzbek,3,1005.59198,37.1727,69.6662,TKR,RTQ,Kalta Dara,1609,Rostaq,??????,Takhar,????,16
33845,33846,Yale POP_MASTER,RTQ-095,,0,TKR-RTQ-095,439,Dari,1,1252.519043,37.1406,69.7915,TKR,RTQ,Khailaniha,1609,Rostaq,??????,Takhar,????,16
33846,33847,Yale POP_MASTER,RTQ-096,,0,TKR-RTQ-096,432,Dari,1,1691.185059,37.0624,69.8749,TKR,RTQ,Khal Dara,1609,Rostaq,??????,Takhar,????,16
33847,33848,Yale POP_MASTER,RTQ-097,,0,TKR-RTQ-097,1149,Dari,1,1342.8029789999998,37.1177,69.8496,TKR,RTQ,Khanaqa,1609,Rostaq,??????,Takhar,????,16
33848,33849,Yale POP_MASTER,RTQ-098,,0,TKR-RTQ-098,232,Uzbek,3,1320.119995,37.1218,69.7305,TKR,RTQ,Khok Aba,1609,Rostaq,??????,Takhar,????,16
33849,33850,Yale POP_MASTER,RTQ-099,,0,TKR-RTQ-099,879,Uzbek,3,1095.194946,37.1889,69.6528,TKR,RTQ,Khowja Dairwan,1609,Rostaq,??????,Takhar,????,16
33850,33851,Yale POP_MASTER,RTQ-100,,0,TKR-RTQ-100,1033,Dari,1,869.2509766000001,37.1522,69.6413,TKR,RTQ,Khowja Khairab (1),1609,Rostaq,??????,Takhar,????,16
33851,33852,Yale POP_MASTER,RTQ-101,,0,TKR-RTQ-101,1033,Dari,1,1801.1860350000002,37.0315,69.9415,TKR,RTQ,Khowja Khairab (2),1609,Rostaq,??????,Takhar,????,16
33920,33921,Yale POP_MASTER,RTQ-105,,0,TKR-RTQ-105,916,Uzbek,3,1251.510986,37.1692,69.8102,TKR,RTQ,Kounda Abdul Hakim,1609,Rostaq,??????,Takhar,????,16
33921,33922,Yale POP_MASTER,RTQ-106,,0,TKR-RTQ-106,1168,Dari,1,1279.213989,37.1646,69.8104,TKR,RTQ,Kounda Eashanqoul Bahi,1609,Rostaq,??????,Takhar,????,16
33922,33923,Yale POP_MASTER,RTQ-112,,0,TKR-RTQ-112,112,Dari,1,1685.390015,37.0044,69.83,TKR,RTQ,Langar Kamantoo,1609,Rostaq,??????,Takhar,????,16
33923,33924,Yale POP_MASTER,RTQ-113,,0,TKR-RTQ-113,930,Uzbek,3,1281.60498,37.076,69.7284,TKR,RTQ,Massan Garan,1609,Rostaq,??????,Takhar,????,16
33924,33925,Yale POP_MASTER,RTQ-114,,0,TKR-RTQ-114,1179,Dari,1,1051.858032,37.2214,69.7398,TKR,RTQ,Moughol Wardak,1609,Rostaq,??????,Takhar,????,16
33925,33926,Yale POP_MASTER,RTQ-115,,0,TKR-RTQ-115,366,Dari,1,1034.60498,37.2336,69.7364,TKR,RTQ,Moughol Yaka Toot,1609,Rostaq,??????,Takhar,????,16
33926,33927,Yale POP_MASTER,RTQ-117,,0,TKR-RTQ-117,806,Uzbek,3,1299.860962,37.1068,69.7936,TKR,RTQ,Mouzoh,1609,Rostaq,??????,Takhar,????,16
33927,33928,Yale POP_MASTER,RTQ-121,,0,TKR-RTQ-121,180,Dari,1,1742.100952,37.1465,69.9585,TKR,RTQ,Now Abad Bagh Hassar,1609,Rostaq,??????,Takhar,????,16
33928,33929,Yale POP_MASTER,RTQ-122,,0,TKR-RTQ-122,443,Dari,1,1491.223999,37.0721,70.0514,TKR,RTQ,Now Abad Daiwary,1609,Rostaq,??????,Takhar,????,16
33929,33930,Yale POP_MASTER,RTQ-123,,0,TKR-RTQ-123,435,Uzbek,3,1723.8690190000002,37.0667,69.9123,TKR,RTQ,Now Abad Jarayel,1609,Rostaq,??????,Takhar,????,16
33930,33931,Yale POP_MASTER,RTQ-125,,0,TKR-RTQ-125,373,Uzbek,3,1660.376953,37.0678,69.8575,TKR,RTQ,Now Abad Khal Dara,1609,Rostaq,??????,Takhar,????,16
33931,33932,Yale POP_MASTER,RTQ-127,,0,TKR-RTQ-127,1065,Dari,1,1038.30603,37.229,69.735,TKR,RTQ,Now Abad Yaka Toot,1609,Rostaq,??????,Takhar,????,16
33932,33933,Yale POP_MASTER,RTQ-128,,0,TKR-RTQ-128,746,Balochi,5,1327.77002,37.0508,70.0078,TKR,RTQ,Now Abad Yal Kashan,1609,Rostaq,??????,Takhar,????,16
33933,33934,Yale POP_MASTER,RTQ-129,,0,TKR-RTQ-129,738,Dari,1,1475.362061,37.106,69.8949,TKR,RTQ,Nowabad Sar Rustaq,1609,Rostaq,??????,Takhar,????,16
33934,33935,Yale POP_MASTER,RTQ-130,,0,TKR-RTQ-130,1122,Dari,1,2058.542969,37.2352,69.9437,TKR,RTQ,Nowabad Toot,1609,Rostaq,??????,Takhar,????,16
33935,33936,Yale POP_MASTER,RTQ-133,,0,TKR-RTQ-133,1136,Uzbek,3,1299.578979,37.1339,69.8144,TKR,RTQ,Payen Qala,1609,Rostaq,??????,Takhar,????,16
33936,33937,Yale POP_MASTER,RTQ-135,,0,TKR-RTQ-135,789,Uzbek,3,1491.661011,37.2098,69.8566,TKR,RTQ,Qadoq Bala,1609,Rostaq,??????,Takhar,????,16
33937,33938,Yale POP_MASTER,RTQ-136,,0,TKR-RTQ-136,659,Uzbek,3,1430.722046,37.2059,69.845,TKR,RTQ,Qadoq Payen,1609,Rostaq,??????,Takhar,????,16
33938,33939,Yale POP_MASTER,RTQ-139,,0,TKR-RTQ-139,637,Uzbek,3,921.4752197,37.1655,69.6629,TKR,RTQ,Qara Balaq,1609,Rostaq,??????,Takhar,????,16
33939,33940,Yale POP_MASTER,RTQ-140,,0,TKR-RTQ-140,130,Uzbek,3,1105.7459720000002,37.1125,69.7073,TKR,RTQ,Qara Ghach,1609,Rostaq,??????,Takhar,????,16
33940,33941,Yale POP_MASTER,RTQ-141,,0,TKR-RTQ-141,954,Uzbek,3,1320.927002,37.1076,69.8088,TKR,RTQ,Qarah Qouz Bala,1609,Rostaq,??????,Takhar,????,16
33941,33942,Yale POP_MASTER,RTQ-142,,0,TKR-RTQ-142,505,Uzbek,3,1314.661011,37.114000000000004,69.811,TKR,RTQ,Qarah Qouz Payen,1609,Rostaq,??????,Takhar,????,16
33942,33943,Yale POP_MASTER,RTQ-143,,0,TKR-RTQ-143,146,Uzbek,3,1143.953979,37.1801,69.7542,TKR,RTQ,Qarghol Bashkan,1609,Rostaq,??????,Takhar,????,16
33943,33944,Yale POP_MASTER,RTQ-144,,0,TKR-RTQ-144,1189,Dari,1,1100.602051,37.2,69.7422,TKR,RTQ,Qazal Qala,1609,Rostaq,??????,Takhar,????,16
33944,33945,Yale POP_MASTER,RTQ-145,,0,TKR-RTQ-145,1196,Dari,1,1129.009033,37.1917,69.7445,TKR,RTQ,Qazal Qala Kaziray,1609,Rostaq,??????,Takhar,????,16
33945,33946,Yale POP_MASTER,RTQ-147,,0,TKR-RTQ-147,221,Uzbek,3,1239.496948,37.1547,69.6707,TKR,RTQ,Qoudeya,1609,Rostaq,??????,Takhar,????,16
33946,33947,Yale POP_MASTER,RTQ-148,,0,TKR-RTQ-148,317,Dari,1,1173.807983,37.1378,69.6563,TKR,RTQ,Qoudowkh Sar Wostaq,1609,Rostaq,??????,Takhar,????,16
33947,33948,Yale POP_MASTER,RTQ-149,,0,TKR-RTQ-149,128,Uzbek,3,1257.0780029999999,37.1414,69.6686,TKR,RTQ,Qoudukh Hazar,1609,Rostaq,??????,Takhar,????,16
33948,33949,Yale POP_MASTER,RTQ-150,,0,TKR-RTQ-150,894,Dari,1,1927.9909670000002,37.2141,69.9928,TKR,RTQ,Qourgh Dashtak Hulya,1609,Rostaq,??????,Takhar,????,16
33949,33950,Yale POP_MASTER,RTQ-151,,0,TKR-RTQ-151,587,Dari,1,1372.5469970000001,37.0326,69.7588,TKR,RTQ,Raz Dara,1609,Rostaq,??????,Takhar,????,16
34221,34222,USAID AIDVillageView,RTQ-014,,0,TKR-RTQ-014,0,Dari,1,900.1796875,37.1462,69.6394,TKR,RTQ,Pengani,1609,Rostaq,??????,Takhar,????,16
34222,34223,USAID AIDVillageView,RTQ-018,,0,TKR-RTQ-018,0,Dari,1,1068.925049,37.2121,69.7543,TKR,RTQ,Shir Khan,1609,Rostaq,??????,Takhar,????,16
34223,34224,USAID AIDVillageView,RTQ-020,,0,TKR-RTQ-020,0,Dari,1,1106.7280269999999,37.1994,69.7681,TKR,RTQ,Tolaki,1609,Rostaq,??????,Takhar,????,16
34224,34225,USAID AIDVillageView,RTQ-021,,0,TKR-RTQ-021,0,Dari,1,1197.189941,37.1641,69.7808,TKR,RTQ,Tonuk,1609,Rostaq,??????,Takhar,????,16
34225,34226,Yale POP_MASTER,RTQ-023,,0,TKR-RTQ-023,639,Uzbek,3,1055.734009,37.1063,69.6883,TKR,RTQ,Aghal Sai,1609,Rostaq,??????,Takhar,????,16
34226,34227,Yale POP_MASTER,RTQ-026,,0,TKR-RTQ-026,133,Uzbek,3,1151.249023,37.1755,69.7816,TKR,RTQ,Aqchar Bala,1609,Rostaq,??????,Takhar,????,16
34227,34228,Yale POP_MASTER,RTQ-027,,0,TKR-RTQ-027,264,Dari,1,1133.963013,37.1816,69.7741,TKR,RTQ,Aqchar Payen,1609,Rostaq,??????,Takhar,????,16
34228,34229,Yale POP_MASTER,RTQ-029,,0,TKR-RTQ-029,193,Dari,1,1262.034058,37.1468,69.6591,TKR,RTQ,Arab Dara,1609,Rostaq,??????,Takhar,????,16
34229,34230,Yale POP_MASTER,RTQ-031,,0,TKR-RTQ-031,396,Uzbek,3,1223.7380369999998,37.1473,69.7694,TKR,RTQ,Archa Qouroq Bala,1609,Rostaq,??????,Takhar,????,16
34230,34231,Yale POP_MASTER,RTQ-032,,0,TKR-RTQ-032,255,Uzbek,3,1196.255981,37.1603,69.7655,TKR,RTQ,Archa Qouroq Payen,1609,Rostaq,??????,Takhar,????,16
34231,34232,Yale POP_MASTER,RTQ-033,,0,TKR-RTQ-033,313,Dari,1,1238.8120119999999,37.019,69.9948,TKR,RTQ,Asiab Ha,1609,Rostaq,??????,Takhar,????,16
34232,34233,Yale POP_MASTER,RTQ-035,,0,TKR-RTQ-035,2497,Dari,1,1711.5019530000002,37.1577,69.9654,TKR,RTQ,Baghsar,1609,Rostaq,??????,Takhar,????,16
34233,34234,Yale POP_MASTER,RTQ-036,,0,TKR-RTQ-036,499,Uzbek,3,1031.0040279999998,37.2311,69.7507,TKR,RTQ,Bahi Nazar,1609,Rostaq,??????,Takhar,????,16
34234,34235,Yale POP_MASTER,RTQ-037,,0,TKR-RTQ-037,752,Uzbek,3,1808.1540530000002,37.1778,70.008,TKR,RTQ,Baikha,1609,Rostaq,??????,Takhar,????,16
34235,34236,Yale POP_MASTER,RTQ-038,,0,TKR-RTQ-038,875,Uzbek,3,1196.837036,37.1276,69.6805,TKR,RTQ,Bakhmal Bashi,1609,Rostaq,??????,Takhar,????,16
34236,34237,Yale POP_MASTER,RTQ-040,,0,TKR-RTQ-040,248,Dari,1,1670.255981,37.0792,69.8875,TKR,RTQ,Bandail,1609,Rostaq,??????,Takhar,????,16
34237,34238,Yale POP_MASTER,RTQ-041,,0,TKR-RTQ-041,134,Dari,1,1302.244995,37.1268,69.8388,TKR,RTQ,Bani Malakh,1609,Rostaq,??????,Takhar,????,16
34238,34239,Yale POP_MASTER,RTQ-042,,0,TKR-RTQ-042,230,Dari,1,2162.072998,37.241,69.9268,TKR,RTQ,Bari Bayai Gorgan,1609,Rostaq,??????,Takhar,????,16
34239,34240,Yale POP_MASTER,RTQ-043,,0,TKR-RTQ-043,1113,Uzbek,3,1159.553955,37.1716,69.7742,TKR,RTQ,Bashkan,1609,Rostaq,??????,Takhar,????,16
34240,34241,Yale POP_MASTER,RTQ-044,,0,TKR-RTQ-044,1089,Uzbek,3,1666.131958,37.0404,69.8504,TKR,RTQ,Batash,1609,Rostaq,??????,Takhar,????,16
34241,34242,Yale POP_MASTER,RTQ-045,,0,TKR-RTQ-045,907,Dari,1,1375.185059,37.1273,69.875,TKR,RTQ,Chaghyan,1609,Rostaq,??????,Takhar,????,16
34242,34243,Yale POP_MASTER,RTQ-046,,0,TKR-RTQ-046,1185,Uzbek,3,1291.124023,37.2314,69.8092,TKR,RTQ,Chakak,1609,Rostaq,??????,Takhar,????,16
34243,34244,Yale POP_MASTER,RTQ-048,,0,TKR-RTQ-048,320,Dari,1,1375.156982,37.0053,69.9876,TKR,RTQ,Chalam Qazaq,1609,Rostaq,??????,Takhar,????,16
34244,34245,Yale POP_MASTER,RTQ-050,,0,TKR-RTQ-050,1170,Uzbek,3,1762.7089839999999,37.0322,69.83800000000001,TKR,RTQ,Chap Dara,1609,Rostaq,??????,Takhar,????,16
34245,34246,Yale POP_MASTER,RTQ-051,,0,TKR-RTQ-051,896,Dari,1,1101.280029,37.1962,69.7637,TKR,RTQ,Chapa Khana,1609,Rostaq,??????,Takhar,????,16
34246,34247,Yale POP_MASTER,RTQ-053,,0,TKR-RTQ-053,377,Dari,1,1074.975952,37.2063,69.7371,TKR,RTQ,Choqor Qeshlaq,1609,Rostaq,??????,Takhar,????,16
34247,34248,Yale POP_MASTER,RTQ-054,,0,TKR-RTQ-054,122,Uzbek,3,1625.343018,37.2473,69.87899999999999,TKR,RTQ,Dah-i-past,1609,Rostaq,??????,Takhar,????,16
34248,34249,Yale POP_MASTER,RTQ-056,,0,TKR-RTQ-056,1005,Dari,1,1645.864014,37.0851,70.0293,TKR,RTQ,Daiwary,1609,Rostaq,??????,Takhar,????,16
34249,34250,Yale POP_MASTER,RTQ-058,,0,TKR-RTQ-058,495,Dari,1,1327.946045,37.148,69.8386,TKR,RTQ,Darah Showrok,1609,Rostaq,??????,Takhar,????,16
34250,34251,Yale POP_MASTER,RTQ-059,,0,TKR-RTQ-059,1152,Dari,1,1299.6459960000002,37.1318,69.8212,TKR,RTQ,Dasht Ab-i-bala,1609,Rostaq,??????,Takhar,????,16
34262,34263,Yale POP_MASTER,RTQ-154,,0,TKR-RTQ-154,464,Dari,1,1363.003052,37.1199,69.865,TKR,RTQ,Samar Ghayan,1609,Rostaq,??????,Takhar,????,16
34263,34264,Yale POP_MASTER,RTQ-155,,0,TKR-RTQ-155,1183,Dari,1,1514.552002,37.0559,69.7686,TKR,RTQ,Sang Ali,1609,Rostaq,??????,Takhar,????,16
34264,34265,Yale POP_MASTER,RTQ-156,,0,TKR-RTQ-156,755,Dari,1,1491.0780029999999,37.1061,69.9059,TKR,RTQ,Sang Tarashan Sar Rustaq,1609,Rostaq,??????,Takhar,????,16
34265,34266,Yale POP_MASTER,RTQ-157,,0,TKR-RTQ-157,1169,Dari,1,1530.276001,37.0567,69.7567,TKR,RTQ,Saqawa,1609,Rostaq,??????,Takhar,????,16
34266,34267,Yale POP_MASTER,RTQ-158,,0,TKR-RTQ-158,1147,Dari,1,1521.477051,37.1038,69.9115,TKR,RTQ,Sar Rustaq,1609,Rostaq,??????,Takhar,????,16
34267,34268,Yale POP_MASTER,RTQ-159,,0,TKR-RTQ-159,372,Dari,1,1882.562988,37.2604,69.8999,TKR,RTQ,Saram Baz Bala,1609,Rostaq,??????,Takhar,????,16
34268,34269,Yale POP_MASTER,RTQ-160,,0,TKR-RTQ-160,1029,Dari,1,1614.4570310000001,37.1697,69.9577,TKR,RTQ,Sarghar Jaded,1609,Rostaq,??????,Takhar,????,16
34269,34270,Yale POP_MASTER,RTQ-161,,0,TKR-RTQ-161,453,Dari,1,1816.572998,37.1541,69.9903,TKR,RTQ,Sarghar Kohnna,1609,Rostaq,??????,Takhar,????,16
34270,34271,Yale POP_MASTER,RTQ-162,,0,TKR-RTQ-162,739,Dari,1,1977.5100100000002,36.9948,69.86,TKR,RTQ,Sarjowi,1609,Rostaq,??????,Takhar,????,16
34271,34272,Yale POP_MASTER,RTQ-163,,0,TKR-RTQ-163,865,Other,9,1588.713989,37.2542,69.8621,TKR,RTQ,Sayid Abad Khoshidan,1609,Rostaq,??????,Takhar,????,16
34272,34273,Yale POP_MASTER,RTQ-164,,0,TKR-RTQ-164,1184,Dari,1,1263.092041,37.1257,69.793,TKR,RTQ,Seya Ab,1609,Rostaq,??????,Takhar,????,16
34273,34274,Yale POP_MASTER,RTQ-165,,0,TKR-RTQ-165,853,Uzbek,3,1067.93396,37.0923,69.6919,TKR,RTQ,Seya Gul,1609,Rostaq,??????,Takhar,????,16
34274,34275,Yale POP_MASTER,RTQ-166,,0,TKR-RTQ-166,120,Uzbek,3,1106.894043,37.1898,69.7112,TKR,RTQ,Shah Hassan,1609,Rostaq,??????,Takhar,????,16
34275,34276,Yale POP_MASTER,RTQ-169,,0,TKR-RTQ-169,1000,Dari,1,1216.3540039999998,37.1544,69.7962,TKR,RTQ,Shakari,1609,Rostaq,??????,Takhar,????,16
34276,34277,Yale POP_MASTER,RTQ-170,,0,TKR-RTQ-170,437,Dari,1,1240.6369630000002,37.1467,69.8202,TKR,RTQ,Sokhta Qala,1609,Rostaq,??????,Takhar,????,16
34277,34278,Yale POP_MASTER,RTQ-171,,0,TKR-RTQ-171,1056,Dari,1,1071.9880369999998,37.2157,69.7359,TKR,RTQ,Tala Jaat Qazal Qala,1609,Rostaq,??????,Takhar,????,16
34278,34279,Yale POP_MASTER,RTQ-175,,0,TKR-RTQ-175,1194,Uzbek,3,1222.45105,37.1534,69.7835,TKR,RTQ,Toonok,1609,Rostaq,??????,Takhar,????,16
34279,34280,Yale POP_MASTER,RTQ-176,,0,TKR-RTQ-176,542,Dari,1,1973.739014,37.2259,69.9356,TKR,RTQ,Toot,1609,Rostaq,??????,Takhar,????,16
34280,34281,Yale POP_MASTER,RTQ-178,,0,TKR-RTQ-178,759,Dari,1,1084.249023,37.2032,69.7574,TKR,RTQ,Toulaki Bala,1609,Rostaq,??????,Takhar,????,16
34281,34282,Yale POP_MASTER,RTQ-179,,0,TKR-RTQ-179,663,Dari,1,1144.672974,37.2105,69.7789,TKR,RTQ,Toulaky Payen,1609,Rostaq,??????,Takhar,????,16
34282,34283,Yale POP_MASTER,RTQ-180,,0,TKR-RTQ-180,137,Uzbek,3,1237.581055,37.0968,69.7181,TKR,RTQ,Yafery,1609,Rostaq,??????,Takhar,????,16
34283,34284,Yale POP_MASTER,RTQ-181,,0,TKR-RTQ-181,1079,Balochi,5,997.1447143999999,37.2489,69.7391,TKR,RTQ,Yaka Toot Sufla,1609,Rostaq,??????,Takhar,????,16
34284,34285,Yale POP_MASTER,RTQ-182,,0,TKR-RTQ-182,698,Dari,1,1542.944946,37.0693,70.0149,TKR,RTQ,Yal Kashan,1609,Rostaq,??????,Takhar,????,16
34285,34286,Yale POP_MASTER,RTQ-185,,0,TKR-RTQ-185,203,Dari,1,1182.925049,37.1634,69.7935,TKR,RTQ,Zangai Baba,1609,Rostaq,??????,Takhar,????,16
34286,34287,Yale POP_MASTER,RTQ-188,,0,TKR-RTQ-188,1041,Dari,1,1990.749023,37.231,69.9893,TKR,RTQ,Zohan Payen,1609,Rostaq,??????,Takhar,????,16
34287,34288,Yale POP_MASTER,RTQ-189,District,1,TKR-RTQ-189,10500,Uzbek,3,1300.331055,37.1295,69.8253,TKR,RTQ,Rostaq,1609,Rostaq,??????,Takhar,????,16
34312,34313,USAID AIDVillageView,CAB-004,,0,TKR-CAB-004,0,Dari,1,742.109375,37.5445,70.0428,TKR,CAB,Aspakhan,1610,Chahab,??? ??,Takhar,????,16
34313,34314,CSO AIMS Villages (ACSOR),CAB-018,,0,TKR-CAB-018,395,Dari,1,2311.418945,37.39651,70.01228,TKR,CAB,Kollan,1610,Chahab,??? ??,Takhar,????,16
34314,34315,Yale POP_MASTER,RTQ-187,,0,TKR-RTQ-187,359,Dari,1,2217.13501,37.2602,69.9795,TKR,RTQ,Zohan Bala,1609,Rostaq,??????,Takhar,????,16
34956,34957,USAID AIDVillageView,BNG-067,,0,TKR-BNG-067,0,Pashto,2,716.4479980000001,36.7167,69.2633,TKR,BNG,Bangi (1),1604,Bangi,????,Takhar,????,16
34957,34958,Yale POP_MASTER,BNG-055,,0,TKR-BNG-055,689,Uzbek,3,595.0609741000001,36.7123,69.249,TKR,BNG,Saqab,1604,Bangi,????,Takhar,????,16
34958,34959,Yale POP_MASTER,BNG-056,,0,TKR-BNG-056,647,Uzbek,3,638.4429932,36.7115,69.2375,TKR,BNG,Shaikh Ali,1604,Bangi,????,Takhar,????,16
34959,34960,Yale POP_MASTER,BNG-059,,0,TKR-BNG-059,946,Pashto,2,613.6531982000001,36.7323,69.2627,TKR,BNG,Shorab,1604,Bangi,????,Takhar,????,16
34960,34961,Yale POP_MASTER,BNG-025,,0,TKR-BNG-025,433,Dari,1,595.9489746,36.7204,69.2416,TKR,BNG,Hakhond Zadah,1604,Bangi,????,Takhar,????,16
34985,34986,Yale POP_MASTER,ESH-051,,0,TKR-ESH-051,958,Dari,1,1116.692993,36.4174,69.3267,TKR,ESH,Khowja Gulgun,1615,Eshkashem,?????,Takhar,????,16
34986,34987,Yale POP_MASTER,ESH-064,,0,TKR-ESH-064,163,Uzbek,3,1104.140991,36.4272,69.3446,TKR,ESH,Now Abad Shaira Chai,1615,Eshkashem,?????,Takhar,????,16
34987,34988,Yale POP_MASTER,ESH-099,District,1,TKR-ESH-099,7889,Uzbek,3,1115.01001,36.3924,69.3244,TKR,ESH,Ishkamish,1615,Eshkashem,?????,Takhar,????,16
34988,34989,Yale POP_MASTER,ESH-046,,0,TKR-ESH-046,515,Pashto,2,1125.7230220000001,36.3472,69.2938,TKR,ESH,Kata Qourough,1615,Eshkashem,?????,Takhar,????,16
34989,34990,Yale POP_MASTER,ESH-060,,0,TKR-ESH-060,456,Dari,1,1122.8480220000001,36.3694,69.3165,TKR,ESH,Naqilen Sarbazar,1615,Eshkashem,?????,Takhar,????,16
34990,34991,Yale POP_MASTER,ESH-061,,0,TKR-ESH-061,111,Pashto,2,1128.328979,36.3542,69.2876,TKR,ESH,Now Abad,1615,Eshkashem,?????,Takhar,????,16
34991,34992,Yale POP_MASTER,ESH-073,,0,TKR-ESH-073,336,Uzbek,3,1141.0310060000002,36.3786,69.2816,TKR,ESH,Qara Tepa Qochi,1615,Eshkashem,?????,Takhar,????,16
34992,34993,Yale POP_MASTER,ESH-078,,0,TKR-ESH-078,1145,Pashto,2,1119.4379880000001,36.3745,69.3102,TKR,ESH,Sar Bazar,1615,Eshkashem,?????,Takhar,????,16
34993,34994,Yale POP_MASTER,ESH-098,,0,TKR-ESH-098,203,Dari,1,1121.5310060000002,36.3512,69.3147,TKR,ESH,Zerkbana,1615,Eshkashem,?????,Takhar,????,16
34995,34996,USAID AIDVillageView,RTQ-190,,0,TKR-RTQ-190,0,Uzbek,3,656.5327147999999,36.8686,69.7417,TKR,RTQ,Alat (2),1609,Rostaq,??????,Takhar,????,16
34996,34997,USAID AIDVillageView,RTQ-006,,0,TKR-RTQ-006,0,Uzbek,3,692.7393187999999,36.884,69.7485,TKR,RTQ,Dadsi,1609,Rostaq,??????,Takhar,????,16
34997,34998,USAID AIDVillageView,TLQ-005,,0,TKR-TLQ-005,0,Uzbek,3,698.6713257,36.8529,69.7563,TKR,TLQ,Darina,1601,Taloqan,??????,Takhar,????,16
34998,34999,CSO AIMS Villages (ACSOR),KGN-004,,0,TKR-KGN-004,341,Uzbek,3,842.6790771,36.83675,69.79733,TKR,KGN,Jowrmy,1608,Kalafgan,??????,Takhar,????,16
34999,35000,USAID AIDVillageView,KGN-001,,0,TKR-KGN-001,0,Uzbek,3,1255.0269779999999,36.7906,69.8133,TKR,KGN,Mir Badal,1608,Kalafgan,??????,Takhar,????,16
35000,35001,Yale POP_MASTER,KGN-025,,0,TKR-KGN-025,574,Uzbek,3,1845.972046,36.7346,69.9551,TKR,KGN,Hazara Qeshlaq Zard Alow Darah Hulya,1608,Kalafgan,??????,Takhar,????,16
35001,35002,Yale POP_MASTER,KGN-027,,0,TKR-KGN-027,393,Uzbek,3,1399.090942,36.8139,69.9807,TKR,KGN,Jald Ragh Bagh Bala,1608,Kalafgan,??????,Takhar,????,16
35002,35003,Yale POP_MASTER,KGN-029,,0,TKR-KGN-029,1024,Uzbek,3,1855.717041,36.7121,69.8898,TKR,KGN,Khan Dastmal,1608,Kalafgan,??????,Takhar,????,16
35003,35004,Yale POP_MASTER,KGN-032,,0,TKR-KGN-032,1045,Uzbek,3,1981.9229739999998,36.7353,69.9752,TKR,KGN,Nowabad Zard Alow Darah Hulya,1608,Kalafgan,??????,Takhar,????,16
35004,35005,Yale POP_MASTER,KGN-033,,0,TKR-KGN-033,1050,Uzbek,3,1972.089966,36.7267,69.9967,TKR,KGN,Qara Toot,1608,Kalafgan,??????,Takhar,????,16
35005,35006,Yale POP_MASTER,KGN-034,,0,TKR-KGN-034,246,Uzbek,3,1295.977051,36.8059,69.877,TKR,KGN,Qazal Kohtal,1608,Kalafgan,??????,Takhar,????,16
35006,35007,Yale POP_MASTER,KGN-035,,0,TKR-KGN-035,1051,Uzbek,3,1138.8129880000001,36.7875,69.8047,TKR,KGN,Qouroqsai,1608,Kalafgan,??????,Takhar,????,16
35007,35008,Yale POP_MASTER,KGN-036,,0,TKR-KGN-036,936,Uzbek,3,1583.222046,36.7758,69.9346,TKR,KGN,Sar Asiab,1608,Kalafgan,??????,Takhar,????,16
35008,35009,Yale POP_MASTER,KGN-038,,0,TKR-KGN-038,659,Uzbek,3,1658.775024,36.7611,69.9563,TKR,KGN,Sar Qarouq,1608,Kalafgan,??????,Takhar,????,16
35009,35010,Yale POP_MASTER,KGN-039,,0,TKR-KGN-039,1282,Uzbek,3,1621.071045,36.7662,69.9446,TKR,KGN,Sar Sarak,1608,Kalafgan,??????,Takhar,????,16
35010,35011,Yale POP_MASTER,KGN-040,,0,TKR-KGN-040,137,Uzbek,3,1259.218018,36.8188,69.8856,TKR,KGN,Sea Kapa,1608,Kalafgan,??????,Takhar,????,16
35011,35012,Yale POP_MASTER,KGN-041,,0,TKR-KGN-041,363,Uzbek,3,2285.322021,36.7167,69.9563,TKR,KGN,Shakh Chashma,1608,Kalafgan,??????,Takhar,????,16
35012,35013,Yale POP_MASTER,KGN-042,,0,TKR-KGN-042,868,Uzbek,3,1861.7020260000002,36.7359,69.9372,TKR,KGN,Shar Shar,1608,Kalafgan,??????,Takhar,????,16
35013,35014,Yale POP_MASTER,KGN-043,,0,TKR-KGN-043,980,Uzbek,3,1806.0019530000002,36.7396,69.9509,TKR,KGN,Yarq Tash Zard Alow,1608,Kalafgan,??????,Takhar,????,16
35014,35015,Yale POP_MASTER,KGN-044,,0,TKR-KGN-044,907,Pashto,2,1619.6369630000002,36.7765,69.9608,TKR,KGN,Zair Shakh,1608,Kalafgan,??????,Takhar,????,16
35015,35016,Yale POP_MASTER,KGN-045,District,1,TKR-KGN-045,4470,Uzbek,3,1549.735962,36.7783,69.9371,TKR,KGN,Kalafgan,1608,Kalafgan,??????,Takhar,????,16
35018,35019,CSO AIMS Villages (ACSOR),KGN-005,,0,TKR-KGN-005,596,Uzbek,3,1391.352051,36.69084,69.8133,TKR,KGN,Teentak,1608,Kalafgan,??????,Takhar,????,16
35019,35020,Yale POP_MASTER,TLQ-043,,0,TKR-TLQ-043,374,Uzbek,3,1671.022949,36.6789,69.7769,TKR,TLQ,Aq Jaar,1601,Taloqan,??????,Takhar,????,16
35020,35021,Yale POP_MASTER,TLQ-186,,0,TKR-TLQ-186,541,Uzbek,3,1805.765015,36.6883,69.7697,TKR,TLQ,Shaikhan Dara Kalan,1601,Taloqan,??????,Takhar,????,16
35021,35022,Yale POP_MASTER,RTQ-022,,0,TKR-RTQ-022,858,Uzbek,3,958.5377808000001,36.9315,69.944,TKR,RTQ,Abzan,1609,Rostaq,??????,Takhar,????,16
35022,35023,Yale POP_MASTER,RTQ-025,,0,TKR-RTQ-025,511,Uzbek,3,904.5703125,36.9001,69.8283,TKR,RTQ,Allat,1609,Rostaq,??????,Takhar,????,16
35023,35024,Yale POP_MASTER,RTQ-057,,0,TKR-RTQ-057,302,Uzbek,3,1000.2299800000001,36.9183,69.8364,TKR,RTQ,Darah Gog,1609,Rostaq,??????,Takhar,????,16
35024,35025,Yale POP_MASTER,TLQ-051,,0,TKR-TLQ-051,835,Uzbek,3,1619.5620119999999,36.7118,69.8071,TKR,TLQ,Archa Kohtal,1601,Taloqan,??????,Takhar,????,16
35025,35026,Yale POP_MASTER,TLQ-069,,0,TKR-TLQ-069,346,Uzbek,3,1572.795044,36.7438,69.7758,TKR,TLQ,Chaghad,1601,Taloqan,??????,Takhar,????,16
35026,35027,Yale POP_MASTER,TLQ-079,,0,TKR-TLQ-079,254,Uzbek,3,629.713501,36.8788,69.745,TKR,TLQ,Dad Sati,1601,Taloqan,??????,Takhar,????,16
35027,35028,Yale POP_MASTER,TLQ-095,,0,TKR-TLQ-095,733,Uzbek,3,845.9008788999998,36.8429,69.7587,TKR,TLQ,Gurda Gow,1601,Taloqan,??????,Takhar,????,16
35028,35029,Yale POP_MASTER,TLQ-122,,0,TKR-TLQ-122,373,Uzbek,3,922.7589111,36.8032,69.7582,TKR,TLQ,Khoja Pahlawan,1601,Taloqan,??????,Takhar,????,16
35029,35030,Yale POP_MASTER,TLQ-133,,0,TKR-TLQ-133,838,Uzbek,3,1803.7760010000002,36.7304,69.7979,TKR,TLQ,Lata Band,1601,Taloqan,??????,Takhar,????,16
35030,35031,Yale POP_MASTER,TLQ-134,,0,TKR-TLQ-134,195,Uzbek,3,631.8867798,36.863,69.7399,TKR,TLQ,Lawand,1601,Taloqan,??????,Takhar,????,16
35031,35032,Yale POP_MASTER,KGN-016,,0,TKR-KGN-016,1023,Uzbek,3,1060.131958,36.8677,69.9657,TKR,KGN,Char Toot,1608,Kalafgan,??????,Takhar,????,16
35032,35033,Yale POP_MASTER,KGN-017,,0,TKR-KGN-017,370,Uzbek,3,1042.118042,36.8492,69.8391,TKR,KGN,Dah Naishaib,1608,Kalafgan,??????,Takhar,????,16
35033,35034,Yale POP_MASTER,KGN-018,,0,TKR-KGN-018,123,Uzbek,3,1017.3449710000001,36.9076,69.9439,TKR,KGN,Dandan Shakan,1608,Kalafgan,??????,Takhar,????,16
35034,35035,Yale POP_MASTER,KGN-021,,0,TKR-KGN-021,204,Uzbek,3,856.0556029999999,36.9141,69.9686,TKR,KGN,Garem Sayel,1608,Kalafgan,??????,Takhar,????,16
35035,35036,Yale POP_MASTER,KGN-023,,0,TKR-KGN-023,286,Uzbek,3,899.2034912,36.8743,69.8305,TKR,KGN,Gouzarni,1608,Kalafgan,??????,Takhar,????,16
35036,35037,Yale POP_MASTER,KGN-028,,0,TKR-KGN-028,536,Uzbek,3,1224.6779789999998,36.8297,69.9716,TKR,KGN,Jald Raq,1608,Kalafgan,??????,Takhar,????,16
35037,35038,Yale POP_MASTER,KGN-030,,0,TKR-KGN-030,970,Uzbek,3,1161.655029,36.8616,69.9041,TKR,KGN,Khara Qan,1608,Kalafgan,??????,Takhar,????,16
35038,35039,Yale POP_MASTER,KGN-031,,0,TKR-KGN-031,299,Uzbek,3,1151.630981,36.8416,69.8532,TKR,KGN,Nawan,1608,Kalafgan,??????,Takhar,????,16
35039,35040,Yale POP_MASTER,KGN-037,,0,TKR-KGN-037,386,Uzbek,3,1256.279053,36.8321,69.8605,TKR,KGN,Sar Chashma,1608,Kalafgan,??????,Takhar,????,16
35040,35041,Yale POP_MASTER,KGN-006,,0,TKR-KGN-006,1124,Uzbek,3,1569.785034,36.7429,69.8625,TKR,KGN,Aq Balaq Bala,1608,Kalafgan,??????,Takhar,????,16
35041,35042,Yale POP_MASTER,KGN-007,,0,TKR-KGN-007,953,Uzbek,3,1561.290039,36.7453,69.8578,TKR,KGN,Aq Balaq Payen,1608,Kalafgan,??????,Takhar,????,16
35042,35043,Yale POP_MASTER,KGN-008,,0,TKR-KGN-008,1193,Uzbek,3,1503.045044,36.7222,69.8446,TKR,KGN,Astana Tepa,1608,Kalafgan,??????,Takhar,????,16
35043,35044,Yale POP_MASTER,KGN-009,,0,TKR-KGN-009,805,Uzbek,3,1790.2290039999998,36.7417,69.9433,TKR,KGN,Badal Qeshlaq,1608,Kalafgan,??????,Takhar,????,16
35044,35045,Yale POP_MASTER,KGN-010,,0,TKR-KGN-010,459,Uzbek,3,1549.578979,36.7349,69.8571,TKR,KGN,Bolak Qeshlaq,1608,Kalafgan,??????,Takhar,????,16
35045,35046,Yale POP_MASTER,KGN-011,,0,TKR-KGN-011,270,Uzbek,3,1447.297974,36.8064,69.915,TKR,KGN,Bolowti,1608,Kalafgan,??????,Takhar,????,16
35046,35047,Yale POP_MASTER,KGN-012,,0,TKR-KGN-012,825,Uzbek,3,1390.535034,36.7936,69.9954,TKR,KGN,Chanar Gunjeshkan,1608,Kalafgan,??????,Takhar,????,16
35047,35048,Yale POP_MASTER,KGN-013,,0,TKR-KGN-013,1177,Uzbek,3,1837.991943,36.7446,69.9768,TKR,KGN,Chapaq Qeshlaq,1608,Kalafgan,??????,Takhar,????,16
35048,35049,Yale POP_MASTER,KGN-014,,0,TKR-KGN-014,925,Uzbek,3,1738.671997,36.7747,69.8943,TKR,KGN,Chaqal Qeshalq,1608,Kalafgan,??????,Takhar,????,16
35049,35050,Yale POP_MASTER,KGN-015,,0,TKR-KGN-015,783,Uzbek,3,1566.084961,36.7773,69.9396,TKR,KGN,Chaqal Tabash,1608,Kalafgan,??????,Takhar,????,16
35050,35051,Yale POP_MASTER,KGN-020,,0,TKR-KGN-020,521,Uzbek,3,1959.1040039999998,36.711,69.8999,TKR,KGN,Eashan-ha,1608,Kalafgan,??????,Takhar,????,16
35051,35052,Yale POP_MASTER,KGN-024,,0,TKR-KGN-024,349,Uzbek,3,1573.6560060000002,36.7864,69.9275,TKR,KGN,Haji Khazar,1608,Kalafgan,??????,Takhar,????,16
35052,35053,Yale POP_MASTER,KGN-022,,0,TKR-KGN-022,778,Dari,1,1469.571045,36.6761,69.8063,TKR,KGN,Gazestan,1608,Kalafgan,??????,Takhar,????,16
35053,35054,Yale POP_MASTER,KGN-026,,0,TKR-KGN-026,806,Uzbek,3,1443.661011,36.6988,69.8306,TKR,KGN,Idial,1608,Kalafgan,??????,Takhar,????,16
35054,35055,USAID AIDVillageView,TLQ-015,,0,TKR-TLQ-015,0,Uzbek,3,889.7122191999999,36.6855,69.6151,TKR,TLQ,Shoraw,1601,Taloqan,??????,Takhar,????,16
35055,35056,CSO AIMS Villages (ACSOR),TLQ-025,,0,TKR-TLQ-025,1186,Uzbek,3,904.9306029999999,36.6915,69.63276,TKR,TLQ,Now Abad (1),1601,Taloqan,??????,Takhar,????,16
35056,35057,CSO AIMS Villages (ACSOR),TLQ-028,,0,TKR-TLQ-028,554,Uzbek,3,916.0020142000001,36.668890000000005,69.64858000000001,TKR,TLQ,Post Khor (1),1601,Taloqan,??????,Takhar,????,16
35057,35058,CSO AIMS Villages (ACSOR),TLQ-029,,0,TKR-TLQ-029,1136,Uzbek,3,898.4293213,36.70664,69.62283000000001,TKR,TLQ,Post Khor (2),1601,Taloqan,??????,Takhar,????,16
35058,35059,CSO AIMS Villages (ACSOR),TLQ-032,,0,TKR-TLQ-032,164,Uzbek,3,1177.5429689999999,36.652440000000006,69.6367,TKR,TLQ,Sar Asiab (1),1601,Taloqan,??????,Takhar,????,16
35059,35060,USAID AIDVillageView,CHL-005,,0,TKR-CHL-005,0,Uzbek,3,1356.654053,36.6276,69.5361,TKR,CHL,Khanega,1605,Chal,???,Takhar,????,16
35060,35061,USAID AIDVillageView,CHL-013,,0,TKR-CHL-013,0,Uzbek,3,1295.5410160000001,36.6383,69.5468,TKR,CHL,Yakkah Tut,1605,Chal,???,Takhar,????,16
35061,35062,Yale POP_MASTER,NMB-038,,0,TKR-NMB-038,949,Dari,1,1331.536987,36.6153,69.5927,TKR,NMB,Shosh Darah,1606,Namakab,??? ??,Takhar,????,16
35062,35063,Yale POP_MASTER,NMB-041,,0,TKR-NMB-041,480,Dari,1,1191.192017,36.6202,69.6147,TKR,NMB,Taqchah Khana Payen,1606,Namakab,??? ??,Takhar,????,16
35063,35064,Yale POP_MASTER,TLQ-049,,0,TKR-TLQ-049,450,Uzbek,3,884.0551147,36.6964,69.6248,TKR,TLQ,Aqbalaq Qeshlaq,1601,Taloqan,??????,Takhar,????,16
35064,35065,Yale POP_MASTER,TLQ-059,,0,TKR-TLQ-059,214,Dari,1,1155.397949,36.6468,69.6458,TKR,TLQ,Baba Khan Pahlawan,1601,Taloqan,??????,Takhar,????,16
35065,35066,Yale POP_MASTER,TLQ-063,,0,TKR-TLQ-063,477,Uzbek,3,896.3427733999999,36.7026,69.6251,TKR,TLQ,Beash Bator Sharqi,1601,Taloqan,??????,Takhar,????,16
35066,35067,Yale POP_MASTER,TLQ-068,,0,TKR-TLQ-068,509,Dari,1,1410.689941,36.7632,69.7259,TKR,TLQ,Chagan,1601,Taloqan,??????,Takhar,????,16
35067,35068,Yale POP_MASTER,TLQ-072,,0,TKR-TLQ-072,708,Uzbek,3,1002.0590210000001,36.67,69.6252,TKR,TLQ,Chaqal,1601,Taloqan,??????,Takhar,????,16
35068,35069,Yale POP_MASTER,TLQ-076,,0,TKR-TLQ-076,386,Uzbek,3,1251.243042,36.7711,69.707,TKR,TLQ,Chob Barshor Cha,1601,Taloqan,??????,Takhar,????,16
35069,35070,Yale POP_MASTER,TLQ-078,,0,TKR-TLQ-078,644,Uzbek,3,1266.3540039999998,36.7752,69.7121,TKR,TLQ,Chorcha,1601,Taloqan,??????,Takhar,????,16
35070,35071,Yale POP_MASTER,TLQ-080,,0,TKR-TLQ-080,678,Uzbek,3,938.5086060000001,36.6746,69.5855,TKR,TLQ,Dahi Bashi Awoleya,1601,Taloqan,??????,Takhar,????,16
35071,35072,Yale POP_MASTER,TLQ-102,,0,TKR-TLQ-102,1015,Uzbek,3,932.0294188999999,36.677,69.5965,TKR,TLQ,Hayat Bacha,1601,Taloqan,??????,Takhar,????,16
35072,35073,Yale POP_MASTER,TLQ-106,,0,TKR-TLQ-106,562,Uzbek,3,905.9462891000001,36.6712,69.6416,TKR,TLQ,Ibrahim,1601,Taloqan,??????,Takhar,????,16
35073,35074,Yale POP_MASTER,TLQ-113,,0,TKR-TLQ-113,352,Dari,1,903.3223877,36.6808,69.64,TKR,TLQ,Jalawal,1601,Taloqan,??????,Takhar,????,16
35074,35075,Yale POP_MASTER,TLQ-114,,0,TKR-TLQ-114,190,Dari,1,908.0349731000001,36.6815,69.6057,TKR,TLQ,Jo Shaikh Qala Eashanan,1601,Taloqan,??????,Takhar,????,16
35075,35076,Yale POP_MASTER,TLQ-115,,0,TKR-TLQ-115,484,Dari,1,965.1848755000001,36.6651,69.6339,TKR,TLQ,Joi Shaikh,1601,Taloqan,??????,Takhar,????,16
35076,35077,Yale POP_MASTER,TLQ-125,,0,TKR-TLQ-125,287,Dari,1,894.8311767999999,36.6867,69.6,TKR,TLQ,Khosti,1601,Taloqan,??????,Takhar,????,16
35077,35078,Yale POP_MASTER,TLQ-138,,0,TKR-TLQ-138,838,Dari,1,942.1840210000001,36.6461,69.6697,TKR,TLQ,Malika,1601,Taloqan,??????,Takhar,????,16
35078,35079,Yale POP_MASTER,TLQ-156,,0,TKR-TLQ-156,796,Uzbek,3,1552.973999,36.7303,69.732,TKR,TLQ,Pataw Sai,1601,Taloqan,??????,Takhar,????,16
35079,35080,Yale POP_MASTER,TLQ-164,,0,TKR-TLQ-164,202,Uzbek,3,1448.348999,36.7007,69.6947,TKR,TLQ,Qarloq,1601,Taloqan,??????,Takhar,????,16
35080,35081,Yale POP_MASTER,TLQ-165,,0,TKR-TLQ-165,300,Dari,1,924.3720703,36.6599,69.655,TKR,TLQ,Qashqar Khan,1601,Taloqan,??????,Takhar,????,16
35081,35082,Yale POP_MASTER,TLQ-173,,0,TKR-TLQ-173,262,Uzbek,3,1052.188965,36.7018,69.6539,TKR,TLQ,Sadozai Bala,1601,Taloqan,??????,Takhar,????,16
35082,35083,Yale POP_MASTER,TLQ-174,,0,TKR-TLQ-174,396,Uzbek,3,896.4022827,36.6957,69.6306,TKR,TLQ,Sadozai Payen,1601,Taloqan,??????,Takhar,????,16
35083,35084,Yale POP_MASTER,TLQ-187,,0,TKR-TLQ-187,349,Uzbek,3,1686.753052,36.6769,69.7206,TKR,TLQ,Shaikhan Dara Khourd,1601,Taloqan,??????,Takhar,????,16
35084,35085,Yale POP_MASTER,TLQ-189,,0,TKR-TLQ-189,827,Uzbek,3,1309.8029789999998,36.7154,69.6936,TKR,TLQ,Shamir Bala,1601,Taloqan,??????,Takhar,????,16
35085,35086,Yale POP_MASTER,TLQ-190,,0,TKR-TLQ-190,566,Uzbek,3,1338.5839839999999,36.7262,69.699,TKR,TLQ,Shamir Payen,1601,Taloqan,??????,Takhar,????,16
35086,35087,Yale POP_MASTER,TLQ-198,,0,TKR-TLQ-198,374,Uzbek,3,1900.133057,36.7163,69.7666,TKR,TLQ,Talok,1601,Taloqan,??????,Takhar,????,16
35087,35088,Yale POP_MASTER,TLQ-201,,0,TKR-TLQ-201,747,Uzbek,3,1543.208008,36.6972,69.7049,TKR,TLQ,Todan,1601,Taloqan,??????,Takhar,????,16
35088,35089,Yale POP_MASTER,TLQ-203,,0,TKR-TLQ-203,414,Uzbek,3,1395.4139400000001,36.6728,69.6894,TKR,TLQ,Yaka Zadang,1601,Taloqan,??????,Takhar,????,16
35089,35090,Yale POP_MASTER,TLQ-205,,0,TKR-TLQ-205,120,Uzbek,3,1796.874023,36.7064,69.7309,TKR,TLQ,Zanbor Balaq,1601,Taloqan,??????,Takhar,????,16
35090,35091,Yale POP_MASTER,CHL-016,,0,TKR-CHL-016,357,Uzbek,3,1225.442017,36.6438,69.5373,TKR,CHL,Azma,1605,Chal,???,Takhar,????,16
35091,35092,CSO AIMS Villages (ACSOR),BNG-002,,0,TKR-BNG-002,448,Uzbek,3,1022.88501,36.61146,69.4197,TKR,BNG,Kata Qeshlaq (1),1604,Bangi,????,Takhar,????,16
35092,35093,USAID AIDVillageView,BNG-075,,0,TKR-BNG-075,0,Uzbek,3,1032.286987,36.5271,69.4752,TKR,BNG,Mar Khana,1604,Bangi,????,Takhar,????,16
35093,35094,Yale POP_MASTER,ESH-056,,0,TKR-ESH-056,347,Uzbek,3,1120.719971,36.3954,69.3073,TKR,ESH,Maidani-ha,1615,Eshkashem,?????,Takhar,????,16
35094,35095,Yale POP_MASTER,ESH-065,,0,TKR-ESH-065,97,Uzbek,3,1300.094971,36.4504,69.2199,TKR,ESH,Olgar Now Abad,1615,Eshkashem,?????,Takhar,????,16
35095,35096,Yale POP_MASTER,ESH-069,,0,TKR-ESH-069,378,Uzbek,3,1389.043945,36.4633,69.2159,TKR,ESH,Panjary Ashk Chai,1615,Eshkashem,?????,Takhar,????,16
35096,35097,Yale POP_MASTER,ESH-071,,0,TKR-ESH-071,232,Pashto,2,1173.237061,36.3579,69.265,TKR,ESH,Qaghni,1615,Eshkashem,?????,Takhar,????,16
35097,35098,Yale POP_MASTER,ESH-076,,0,TKR-ESH-076,113,Pashto,2,1132.965942,36.3445,69.2752,TKR,ESH,Qatar Baid,1615,Eshkashem,?????,Takhar,????,16
35098,35099,Yale POP_MASTER,ESH-077,,0,TKR-ESH-077,944,Uzbek,3,1277.259033,36.5052,69.21300000000001,TKR,ESH,Qeshlaq Sai,1615,Eshkashem,?????,Takhar,????,16
35099,35100,Yale POP_MASTER,ESH-080,,0,TKR-ESH-080,287,Dari,1,1360.269043,36.5229,69.2218,TKR,ESH,Sarbail,1615,Eshkashem,?????,Takhar,????,16
35100,35101,Yale POP_MASTER,ESH-081,,0,TKR-ESH-081,353,Uzbek,3,1225.519043,36.4056,69.2701,TKR,ESH,Shair Bacha,1615,Eshkashem,?????,Takhar,????,16
35101,35102,Yale POP_MASTER,ESH-082,,0,TKR-ESH-082,342,Dari,1,1213.390991,36.4333,69.309,TKR,ESH,Shaira Chai,1615,Eshkashem,?????,Takhar,????,16
35102,35103,Yale POP_MASTER,ESH-088,,0,TKR-ESH-088,424,Uzbek,3,1181.209961,36.3539,69.259,TKR,ESH,Tarsak Chashma Chaght,1615,Eshkashem,?????,Takhar,????,16
35103,35104,Yale POP_MASTER,ESH-089,,0,TKR-ESH-089,853,Uzbek,3,1238.509033,36.342,69.2419,TKR,ESH,Tarsak Chashma Kandhari Hulya,1615,Eshkashem,?????,Takhar,????,16
35104,35105,Yale POP_MASTER,ESH-091,,0,TKR-ESH-091,251,Pashto,2,1306.392944,36.3526,69.2443,TKR,ESH,Tarsak Chashma Tokhsan,1615,Eshkashem,?????,Takhar,????,16
35105,35106,Yale POP_MASTER,ESH-092,,0,TKR-ESH-092,433,Dari,1,1202.241943,36.4341,69.1934,TKR,ESH,Tash Qatan,1615,Eshkashem,?????,Takhar,????,16
35106,35107,Yale POP_MASTER,ESH-093,,0,TKR-ESH-093,642,Uzbek,3,1393.360962,36.4342,69.256,TKR,ESH,Wolgar Gorgak,1615,Eshkashem,?????,Takhar,????,16
35107,35108,Yale POP_MASTER,ESH-094,,0,TKR-ESH-094,449,Dari,1,1381.532959,36.4483,69.2416,TKR,ESH,Wolkar,1615,Eshkashem,?????,Takhar,????,16
35157,35158,Yale POP_MASTER,ESH-041,,0,TKR-ESH-041,891,Uzbek,3,1177.0,36.2974,69.2424,TKR,ESH,Jadran,1615,Eshkashem,?????,Takhar,????,16
35158,35159,Yale POP_MASTER,ESH-062,,0,TKR-ESH-062,1036,Pashto,2,1191.719971,36.2863,69.2304,TKR,ESH,Now Abad Kalan,1615,Eshkashem,?????,Takhar,????,16
35159,35160,CSO AIMS Villages (ACSOR),TLQ-019,,0,TKR-TLQ-019,282,Uzbek,3,618.3914795,36.74863,69.31328,TKR,TLQ,Ashiyanan,1601,Taloqan,??????,Takhar,????,16
35160,35161,CSO AIMS Villages (ACSOR),TLQ-023,,0,TKR-TLQ-023,65,Uzbek,3,640.2559204,36.75444,69.32226,TKR,TLQ,Khas Pala,1601,Taloqan,??????,Takhar,????,16
35161,35162,USAID AIDVillageView,BNG-068,,0,TKR-BNG-068,0,Uzbek,3,814.4265137,36.6294,69.3702,TKR,BNG,Besh Kapa,1604,Bangi,????,Takhar,????,16
35162,35163,USAID AIDVillageView,BNG-069,,0,TKR-BNG-069,0,Uzbek,3,940.3458862,36.5775,69.3575,TKR,BNG,Chahar Chenar,1604,Bangi,????,Takhar,????,16
35163,35164,USAID AIDVillageView,BNG-070,,0,TKR-BNG-070,0,Uzbek,3,731.9724731000001,36.7571,69.273,TKR,BNG,Hazara Qolugh,1604,Bangi,????,Takhar,????,16
35164,35165,USAID AIDVillageView,BNG-071,,0,TKR-BNG-071,0,Uzbek,3,572.1539917,36.7298,69.2137,TKR,BNG,Jagda Kamar,1604,Bangi,????,Takhar,????,16
35165,35166,USAID AIDVillageView,BNG-072,,0,TKR-BNG-072,0,Uzbek,3,711.7147827,36.6785,69.3282,TKR,BNG,Jala'er (1),1604,Bangi,????,Takhar,????,16
35166,35167,USAID AIDVillageView,BNG-073,,0,TKR-BNG-073,0,Uzbek,3,770.5927734,36.6506,69.3526,TKR,BNG,Jala'er (2),1604,Bangi,????,Takhar,????,16
35168,35169,CSO AIMS Villages (ACSOR),BNG-001,,0,TKR-BNG-001,201,Uzbek,3,1046.998047,36.586259999999996,69.3454,TKR,BNG,Kata Qeshlaq (3),1604,Bangi,????,Takhar,????,16
35169,35170,USAID AIDVillageView,BNG-076,,0,TKR-BNG-076,0,Uzbek,3,953.4072876,36.6036,69.3534,TKR,BNG,Murch Ali,1604,Bangi,????,Takhar,????,16
35170,35171,USAID AIDVillageView,BNG-077,,0,TKR-BNG-077,0,Uzbek,3,607.059021,36.7383,69.2973,TKR,BNG,Naqel (1),1604,Bangi,????,Takhar,????,16
35171,35172,USAID AIDVillageView,BNG-078,,0,TKR-BNG-078,0,Uzbek,3,609.2382202,36.7283,69.2856,TKR,BNG,Naqel (2),1604,Bangi,????,Takhar,????,16
35172,35173,Yale POP_MASTER,TLQ-061,,0,TKR-TLQ-061,1057,Pashto,2,677.680481,36.7408,69.3498,TKR,TLQ,Bagh Mairi,1601,Taloqan,??????,Takhar,????,16
35173,35174,Yale POP_MASTER,TLQ-085,,0,TKR-TLQ-085,522,Dari,1,718.0795287999999,36.7462,69.3366,TKR,TLQ,Dasht Buz,1601,Taloqan,??????,Takhar,????,16
35174,35175,Yale POP_MASTER,TLQ-092,,0,TKR-TLQ-092,1127,Dari,1,764.3093872000001,36.731,69.3614,TKR,TLQ,Gowi,1601,Taloqan,??????,Takhar,????,16
35175,35176,Yale POP_MASTER,TLQ-123,,0,TKR-TLQ-123,908,Uzbek,3,645.2349853999999,36.762,69.34100000000001,TKR,TLQ,Khoja Sabz Posh,1601,Taloqan,??????,Takhar,????,16
35176,35177,Yale POP_MASTER,TLQ-148,,0,TKR-TLQ-148,454,Uzbek,3,658.1015014999999,36.7541,69.3518,TKR,TLQ,Mullah Mohammad Gul,1601,Taloqan,??????,Takhar,????,16
35177,35178,Yale POP_MASTER,TLQ-149,,0,TKR-TLQ-149,297,Pashto,2,691.8598022000001,36.73,69.3719,TKR,TLQ,Namaz Bai,1601,Taloqan,??????,Takhar,????,16
35178,35179,Yale POP_MASTER,TLQ-154,,0,TKR-TLQ-154,850,Uzbek,3,815.6353149,36.7105,69.387,TKR,TLQ,Pangani,1601,Taloqan,??????,Takhar,????,16
35179,35180,Yale POP_MASTER,TLQ-160,,0,TKR-TLQ-160,236,Dari,1,674.2653197999999,36.738,69.3713,TKR,TLQ,Qanqali Motar Sokhta,1601,Taloqan,??????,Takhar,????,16
35180,35181,Yale POP_MASTER,TLQ-161,,0,TKR-TLQ-161,619,Pashto,2,657.135376,36.7635,69.3576,TKR,TLQ,Qara Hondo,1601,Taloqan,??????,Takhar,????,16
35181,35182,Yale POP_MASTER,BNG-040,,0,TKR-BNG-040,181,Uzbek,3,868.7857056,36.6062,69.3631,TKR,BNG,Mahjerin,1604,Bangi,????,Takhar,????,16
35182,35183,Yale POP_MASTER,BNG-044,,0,TKR-BNG-044,476,Uzbek,3,985.5438232000001,36.5918,69.3453,TKR,BNG,Moghul Ha,1604,Bangi,????,Takhar,????,16
35183,35184,Yale POP_MASTER,BNG-045,,0,TKR-BNG-045,143,Uzbek,3,1074.786987,36.6007,69.3325,TKR,BNG,Mourch Ali Bala,1604,Bangi,????,Takhar,????,16
35184,35185,Yale POP_MASTER,BNG-046,,0,TKR-BNG-046,248,Uzbek,3,935.8626708999999,36.6119,69.3488,TKR,BNG,Mourch Ali Payen,1604,Bangi,????,Takhar,????,16
35185,35186,Yale POP_MASTER,BNG-047,,0,TKR-BNG-047,84,Dari,1,681.9777222,36.7588,69.3017,TKR,BNG,Mullah Rakat,1604,Bangi,????,Takhar,????,16
35186,35187,Yale POP_MASTER,BNG-048,,0,TKR-BNG-048,563,Pashto,2,605.7698975,36.7276,69.2794,TKR,BNG,Naqelin,1604,Bangi,????,Takhar,????,16
35187,35188,Yale POP_MASTER,BNG-051,,0,TKR-BNG-051,1199,Uzbek,3,744.5045166,36.6546,69.3429,TKR,BNG,Qarah Kaltak,1604,Bangi,????,Takhar,????,16
35188,35189,Yale POP_MASTER,BNG-053,,0,TKR-BNG-053,641,Uzbek,3,633.8123168999999,36.7016,69.2824,TKR,BNG,Qoul Baraq Bala,1604,Bangi,????,Takhar,????,16
35189,35190,Yale POP_MASTER,BNG-054,,0,TKR-BNG-054,504,Dari,1,616.5806274,36.7013,69.2776,TKR,BNG,Qoul Baraq Payen,1604,Bangi,????,Takhar,????,16
35190,35191,Yale POP_MASTER,BNG-057,,0,TKR-BNG-057,322,Uzbek,3,738.4943237000001,36.6302,69.3781,TKR,BNG,Shainkar Abi,1604,Bangi,????,Takhar,????,16
35191,35192,Yale POP_MASTER,BNG-058,,0,TKR-BNG-058,565,Pashto,2,735.2440796,36.7541,69.2927,TKR,BNG,Sheenwary,1604,Bangi,????,Takhar,????,16
35192,35193,Yale POP_MASTER,BNG-060,,0,TKR-BNG-060,589,Uzbek,3,753.701416,36.6631,69.3242,TKR,BNG,Tash Khor,1604,Bangi,????,Takhar,????,16
35193,35194,Yale POP_MASTER,BNG-066,,0,TKR-BNG-066,399,Uzbek,3,863.9113159,36.6682,69.3086,TKR,BNG,Zar Qeshlaq,1604,Bangi,????,Takhar,????,16
35202,35203,Yale POP_MASTER,BNG-003,,0,TKR-BNG-003,1620,Uzbek,3,700.6751098999999,36.661,69.3482,TKR,BNG,Afaqee,1604,Bangi,????,Takhar,????,16
35203,35204,Yale POP_MASTER,BNG-004,,0,TKR-BNG-004,259,Uzbek,3,903.40802,36.5933,69.3808,TKR,BNG,Afghan Ha,1604,Bangi,????,Takhar,????,16
35204,35205,Yale POP_MASTER,BNG-006,,0,TKR-BNG-006,552,Uzbek,3,655.2902222,36.693000000000005,69.2972,TKR,BNG,Badakhshi Qeshlaq,1604,Bangi,????,Takhar,????,16
35205,35206,Yale POP_MASTER,BNG-008,,0,TKR-BNG-008,298,Uzbek,3,1064.81604,36.5696,69.3454,TKR,BNG,Bahi Qeshlaq,1604,Bangi,????,Takhar,????,16
35206,35207,Yale POP_MASTER,BNG-009,,0,TKR-BNG-009,361,Dari,1,813.7116699,36.775,69.2693,TKR,BNG,Barbalaq Albarkoh,1604,Bangi,????,Takhar,????,16
35207,35208,Yale POP_MASTER,BNG-010,,0,TKR-BNG-010,547,Uzbek,3,682.4368286,36.7512,69.2724,TKR,BNG,Barbalaq Payen,1604,Bangi,????,Takhar,????,16
35208,35209,Yale POP_MASTER,BNG-011,,0,TKR-BNG-011,270,Uzbek,3,738.5454102000001,36.6446,69.3659,TKR,BNG,Beashkapa,1604,Bangi,????,Takhar,????,16
35209,35210,Yale POP_MASTER,BNG-014,,0,TKR-BNG-014,388,Uzbek,3,673.5579223999999,36.6907,69.2821,TKR,BNG,Borka Kalan,1604,Bangi,????,Takhar,????,16
35210,35211,Yale POP_MASTER,BNG-022,,0,TKR-BNG-022,238,Uzbek,3,1034.30603,36.5625,69.3514,TKR,BNG,Dahan Qarah Tash,1604,Bangi,????,Takhar,????,16
35211,35212,Yale POP_MASTER,BNG-023,,0,TKR-BNG-023,727,Uzbek,3,761.9364013999999,36.619,69.3814,TKR,BNG,Ghora Chai,1604,Bangi,????,Takhar,????,16
35212,35213,Yale POP_MASTER,BNG-024,,0,TKR-BNG-024,869,Uzbek,3,718.8609008999999,36.6459,69.373,TKR,BNG,Gork,1604,Bangi,????,Takhar,????,16
35213,35214,Yale POP_MASTER,BNG-026,,0,TKR-BNG-026,218,Pashto,2,720.2418213,36.7645,69.2934,TKR,BNG,Hassan Noor Ali,1604,Bangi,????,Takhar,????,16
35214,35215,Yale POP_MASTER,BNG-027,,0,TKR-BNG-027,366,Uzbek,3,1005.156006,36.58,69.3484,TKR,BNG,Jalla Tash,1604,Bangi,????,Takhar,????,16
35215,35216,Yale POP_MASTER,BNG-028,,0,TKR-BNG-028,989,Uzbek,3,666.4561767999999,36.6676,69.3247,TKR,BNG,Jallayar Kalan,1604,Bangi,????,Takhar,????,16
35216,35217,Yale POP_MASTER,BNG-029,,0,TKR-BNG-029,771,Uzbek,3,660.1594238,36.6727,69.3184,TKR,BNG,Jallayar Khourd,1604,Bangi,????,Takhar,????,16
35217,35218,Yale POP_MASTER,BNG-030,,0,TKR-BNG-030,434,Uzbek,3,658.1239013999999,36.6757,69.3123,TKR,BNG,Jallayr Bodeja,1604,Bangi,????,Takhar,????,16
35218,35219,Yale POP_MASTER,BNG-032,,0,TKR-BNG-032,521,Uzbek,3,721.9277954,36.6501,69.3612,TKR,BNG,Kado Khour,1604,Bangi,????,Takhar,????,16
35219,35220,Yale POP_MASTER,BNG-036,,0,TKR-BNG-036,439,Dari,1,733.9686279,36.7431,69.2878,TKR,BNG,Khowja Jangal,1604,Bangi,????,Takhar,????,16
37078,37079,USAID AIDVillageView,RTQ-008,,0,TKR-RTQ-008,0,Dari,1,889.798584,37.0455,70.1244,TKR,RTQ,Dasht-i-amani,1609,Rostaq,??????,Takhar,????,16
37151,37152,Yale POP_MASTER,RTQ-034,,0,TKR-RTQ-034,428,Uzbek,3,1043.234009,36.9968,70.0145,TKR,RTQ,Bagh Shah,1609,Rostaq,??????,Takhar,????,16
37152,37153,Yale POP_MASTER,RTQ-061,,0,TKR-RTQ-061,646,Dari,1,1047.202026,37.0412,70.0979,TKR,RTQ,Dasht Amani,1609,Rostaq,??????,Takhar,????,16
37153,37154,Yale POP_MASTER,RTQ-064,,0,TKR-RTQ-064,388,Dari,1,1195.244019,37.0232,70.0344,TKR,RTQ,Dasht Chanar Pahi Qala,1609,Rostaq,??????,Takhar,????,16
37154,37155,Yale POP_MASTER,RTQ-177,,0,TKR-RTQ-177,316,Dari,1,969.4926147,36.9719,70.0113,TKR,RTQ,Totai,1609,Rostaq,??????,Takhar,????,16
37475,37476,USAID AIDVillageView,NMB-002,,0,TKR-NMB-002,0,Dari,1,1731.677002,36.5211,69.7317,TKR,NMB,Kor-i-baqi,1606,Namakab,??? ??,Takhar,????,16
37476,37477,USAID AIDVillageView,NMB-003,,0,TKR-NMB-003,0,Dari,1,1448.55603,36.5762,69.7681,TKR,NMB,Nahr Ab,1606,Namakab,??? ??,Takhar,????,16
