,OBJECTID,SOURCE,VIL_UID,CENTER,CNTR_CODE,AFG_UID,POPULATION,LANGUAGE_,LANG_CODE,ELEVATION,LAT_Y,LON_X,MISTI_PROV,MISTI_DIST,VILLAGE_NA,DIST_CODE,DIST_NA_EN,DIST_NA_DA,PROV_NA_EN,PROV_NA_DA,PROV_CODE
0,1,CSO AIMS Villages (ACSOR),QLT-113,,0,ZBL-QLT-113,0,Pashto,2,1716.072021,32.25638,66.71265,ZBL,QLT,Enjergay,2401,Qalat,????,Zabul,????,24
31,32,CSO AIMS Villages (ACSOR),QLT-156,,0,ZBL-QLT-156,733,Pashto,2,1598.656006,32.0893,66.79675,ZBL,QLT,Naw Khiz,2401,Qalat,????,Zabul,????,24
32,33,CSO AIMS Villages (ACSOR),QLT-150,,0,ZBL-QLT-150,1029,Pashto,2,1611.353027,32.11301,66.90993,ZBL,QLT,Hazari,2401,Qalat,????,Zabul,????,24
33,34,CSO AIMS Villages (ACSOR),QLT-114,,0,ZBL-QLT-114,0,Pashto,2,1572.832031,32.1217,66.92344,ZBL,QLT,Gabro,2401,Qalat,????,Zabul,????,24
34,35,CSO AIMS Villages (ACSOR),QLT-153,,0,ZBL-QLT-153,162,Pashto,2,1559.866943,32.10196,66.91079,ZBL,QLT,Mohammad Tahir,2401,Qalat,????,Zabul,????,24
1369,1370,USAID AIDVillageView,SMZ-040,,0,ZBL-SMZ-040,0,Pashto,2,2219.797119,31.9931,68.0627,ZBL,SMZ,Shadak Kalay,2410,Shomulzay,???????,Zabul,????,24
3130,3131,CSO AIMS Villages (ACSOR),ATR-082,,0,ZBL-ATR-082,0,Other,9,1873.901001,31.64839,67.46089,ZBL,ATR,Sikhor,2409,Atghar,????,Zabul,????,24
3166,3167,Yale POP_MASTER,SMZ-081,,0,ZBL-SMZ-081,86,Other,9,1948.965942,31.5281,67.4722,ZBL,SMZ,Alam Kalay Kuza Bila,2410,Shomulzay,???????,Zabul,????,24
3167,3168,Yale POP_MASTER,SMZ-091,,0,ZBL-SMZ-091,136,Other,9,1947.564941,31.5653,67.4374,ZBL,SMZ,Bakirzay China,2410,Shomulzay,???????,Zabul,????,24
3168,3169,Yale POP_MASTER,SMZ-097,,0,ZBL-SMZ-097,546,Other,9,2013.189941,31.556,67.6094,ZBL,SMZ,Burj Jangi,2410,Shomulzay,???????,Zabul,????,24
3169,3170,Yale POP_MASTER,SMZ-099,,0,ZBL-SMZ-099,60,Other,9,2126.979004,31.6482,67.5801,ZBL,SMZ,Changi Imargay,2410,Shomulzay,???????,Zabul,????,24
3170,3171,Yale POP_MASTER,SMZ-113,,0,ZBL-SMZ-113,387,Other,9,2076.320068,31.5877,67.5431,ZBL,SMZ,Faqir Sarkay Mangu,2410,Shomulzay,???????,Zabul,????,24
3171,3172,Yale POP_MASTER,SMZ-116,,0,ZBL-SMZ-116,191,Other,9,1925.41394,31.6364,67.4571,ZBL,SMZ,Gardaw,2410,Shomulzay,???????,Zabul,????,24
3172,3173,Yale POP_MASTER,SMZ-140,,0,ZBL-SMZ-140,35,Other,9,2168.144043,31.6095,67.5875,ZBL,SMZ,Iraqi Kandil,2410,Shomulzay,???????,Zabul,????,24
3173,3174,Yale POP_MASTER,SMZ-154,,0,ZBL-SMZ-154,162,Other,9,1917.630981,31.5863,67.4523,ZBL,SMZ,Kakar China,2410,Shomulzay,???????,Zabul,????,24
3174,3175,Yale POP_MASTER,SMZ-160,,0,ZBL-SMZ-160,64,Other,9,1953.917969,31.5372,67.4568,ZBL,SMZ,Kanati,2410,Shomulzay,???????,Zabul,????,24
3175,3176,Yale POP_MASTER,SMZ-198,,0,ZBL-SMZ-198,131,Other,9,2014.473999,31.5603,67.5712,ZBL,SMZ,Murghi,2410,Shomulzay,???????,Zabul,????,24
3176,3177,Yale POP_MASTER,SMZ-217,,0,ZBL-SMZ-217,42,Other,9,1969.557007,31.5133,67.5197,ZBL,SMZ,Qala Rashid Zarif Kalay,2410,Shomulzay,???????,Zabul,????,24
3177,3178,Yale POP_MASTER,SMZ-219,,0,ZBL-SMZ-219,46,Pashto,2,2037.987061,31.6475,67.5389,ZBL,SMZ,Rigan Spin Agha,2410,Shomulzay,???????,Zabul,????,24
3178,3179,Yale POP_MASTER,SMZ-222,,0,ZBL-SMZ-222,142,Other,9,2094.716064,31.5878,67.6367,ZBL,SMZ,Ruzi Karizgay,2410,Shomulzay,???????,Zabul,????,24
3179,3180,Yale POP_MASTER,SMZ-244,,0,ZBL-SMZ-244,57,Other,9,2101.211914,31.6486,67.5612,ZBL,SMZ,Spin Agha Rigan,2410,Shomulzay,???????,Zabul,????,24
3180,3181,Yale POP_MASTER,SMZ-264,,0,ZBL-SMZ-264,37,Other,9,1915.532959,31.6201,67.4737,ZBL,SMZ,Turizay,2410,Shomulzay,???????,Zabul,????,24
3181,3182,Yale POP_MASTER,SMZ-267,,0,ZBL-SMZ-267,51,Other,9,2024.592041,31.6562,67.5458,ZBL,SMZ,Umar Zayi,2410,Shomulzay,???????,Zabul,????,24
3182,3183,Yale POP_MASTER,SMZ-268,,0,ZBL-SMZ-268,46,Other,9,1908.895996,31.5919,67.4602,ZBL,SMZ,Umaraban,2410,Shomulzay,???????,Zabul,????,24
3183,3184,Yale POP_MASTER,SMZ-275,,0,ZBL-SMZ-275,130,Other,9,1901.880981,31.6107,67.4554,ZBL,SMZ,Zafaran,2410,Shomulzay,???????,Zabul,????,24
3184,3185,Yale POP_MASTER,ATR-027,,0,ZBL-ATR-027,22,Other,9,1947.963989,31.6603,67.5299,ZBL,ATR,Jalal Band Gardi,2409,Atghar,????,Zabul,????,24
3185,3186,Yale POP_MASTER,ATR-057,,0,ZBL-ATR-057,198,Pashto,2,1933.621948,31.6517,67.5168,ZBL,ATR,Umar Zay,2409,Atghar,????,Zabul,????,24
3186,3187,Yale POP_MASTER,ATR-036,,0,ZBL-ATR-036,49,Other,9,1862.435059,31.646,67.4516,ZBL,ATR,Marbutat Dih Sar Khan,2409,Atghar,????,Zabul,????,24
3187,3188,Yale POP_MASTER,ATR-040,,0,ZBL-ATR-040,226,Other,9,1863.873047,31.6463,67.4178,ZBL,ATR,Mohammad Zo Kalay Kariz,2409,Atghar,????,Zabul,????,24
3192,3193,Yale POP_MASTER,SNK-060,,0,ZBL-SNK-060,181,Other,9,2146.845947,31.9864,67.1333,ZBL,SNK,Garaband,2405,Shinkay,?????,Zabul,????,24
3193,3194,USAID AIDVillageView,SMZ-012,,0,ZBL-SMZ-012,0,Other,9,2182.394043,31.6564,67.669,ZBL,SMZ,Dargay,2410,Shomulzay,???????,Zabul,????,24
3194,3195,USAID AIDVillageView,SMZ-022,,0,ZBL-SMZ-022,0,Other,9,2211.262939,31.6426,67.6991,ZBL,SMZ,Jangikhel,2410,Shomulzay,???????,Zabul,????,24
3195,3196,USAID AIDVillageView,SMZ-030,,0,ZBL-SMZ-030,0,Other,9,2116.361084,31.7153,67.8045,ZBL,SMZ,Lwargey China,2410,Shomulzay,???????,Zabul,????,24
3196,3197,USAID AIDVillageView,SMZ-033,,0,ZBL-SMZ-033,0,Other,9,2101.656982,31.7241,67.8082,ZBL,SMZ,Nabarhu,2410,Shomulzay,???????,Zabul,????,24
3197,3198,USAID AIDVillageView,SMZ-035,,0,ZBL-SMZ-035,0,Other,9,2170.038086,31.6642,67.6934,ZBL,SMZ,Nazar Mohammad Ghat,2410,Shomulzay,???????,Zabul,????,24
3198,3199,USAID AIDVillageView,SMZ-044,,0,ZBL-SMZ-044,0,Other,9,2104.821045,31.6693,67.7584,ZBL,SMZ,Spinkay,2410,Shomulzay,???????,Zabul,????,24
3199,3200,Yale POP_MASTER,SMZ-086,,0,ZBL-SMZ-086,293,Other,9,2066.846924,31.6851,67.8357,ZBL,SMZ,Babi Kalay,2410,Shomulzay,???????,Zabul,????,24
3200,3201,Yale POP_MASTER,SMZ-093,,0,ZBL-SMZ-093,194,Other,9,2062.86499,31.7007,67.8588,ZBL,SMZ,Barsha Kalay,2410,Shomulzay,???????,Zabul,????,24
3201,3202,Yale POP_MASTER,SMZ-094,,0,ZBL-SMZ-094,39,Other,9,2047.265991,31.5695,67.7653,ZBL,SMZ,Bismillah Buzayi,2410,Shomulzay,???????,Zabul,????,24
3202,3203,Yale POP_MASTER,SMZ-106,,0,ZBL-SMZ-106,125,Other,9,2154.216064,31.7993,67.9946,ZBL,SMZ,Dangar,2410,Shomulzay,???????,Zabul,????,24
3203,3204,Yale POP_MASTER,SMZ-107,,0,ZBL-SMZ-107,386,Other,9,2171.025879,31.6612,67.6838,ZBL,SMZ,Dargay Muhmandzay,2410,Shomulzay,???????,Zabul,????,24
3204,3205,Yale POP_MASTER,SMZ-114,,0,ZBL-SMZ-114,266,Other,9,2172.962891,31.6499,67.7331,ZBL,SMZ,Fazil Haq,2410,Shomulzay,???????,Zabul,????,24
3205,3206,Yale POP_MASTER,SMZ-115,,0,ZBL-SMZ-115,64,Other,9,2108.314941,31.6886,67.707,ZBL,SMZ,Gar Balagzay,2410,Shomulzay,???????,Zabul,????,24
3206,3207,Yale POP_MASTER,SMZ-117,,0,ZBL-SMZ-117,156,Other,9,2115.503906,31.7417,67.9936,ZBL,SMZ,Ghani Kalay,2410,Shomulzay,???????,Zabul,????,24
3207,3208,Yale POP_MASTER,SMZ-121,,0,ZBL-SMZ-121,65,Other,9,2023.010986,31.5566,67.6758,ZBL,SMZ,Ghazni Chawki,2410,Shomulzay,???????,Zabul,????,24
3208,3209,Yale POP_MASTER,SMZ-127,,0,ZBL-SMZ-127,219,Other,9,2058.553955,31.6653,67.8451,ZBL,SMZ,Haji Alam Kalay,2410,Shomulzay,???????,Zabul,????,24
3209,3210,Yale POP_MASTER,SMZ-128,,0,ZBL-SMZ-128,80,Other,9,2080.6521,31.7089,67.8173,ZBL,SMZ,Haji Barish Kalay,2410,Shomulzay,???????,Zabul,????,24
3210,3211,Yale POP_MASTER,SMZ-129,,0,ZBL-SMZ-129,223,Other,9,2062.899902,31.7044,67.8891,ZBL,SMZ,Haji Gulistan,2410,Shomulzay,???????,Zabul,????,24
3211,3212,Yale POP_MASTER,SMZ-131,,0,ZBL-SMZ-131,58,Other,9,2075.414063,31.7072,67.8414,ZBL,SMZ,Haji Noor Khan,2410,Shomulzay,???????,Zabul,????,24
3212,3213,Yale POP_MASTER,SMZ-132,,0,ZBL-SMZ-132,391,Other,9,2077.566895,31.685,67.9454,ZBL,SMZ,Haji Qamaruddin Wa Manzur Kalay,2410,Shomulzay,???????,Zabul,????,24
3213,3214,Yale POP_MASTER,SMZ-142,,0,ZBL-SMZ-142,77,Other,9,2115.740967,31.7272,67.9743,ZBL,SMZ,Islam Cha,2410,Shomulzay,???????,Zabul,????,24
3214,3215,Yale POP_MASTER,SMZ-159,,0,ZBL-SMZ-159,152,Other,9,2112.655029,31.6833,67.7193,ZBL,SMZ,Kalizay Sharqi,2410,Shomulzay,???????,Zabul,????,24
3215,3216,Yale POP_MASTER,SMZ-167,,0,ZBL-SMZ-167,220,Other,9,2056.858887,31.664,67.8563,ZBL,SMZ,Khalifa Kalay,2410,Shomulzay,???????,Zabul,????,24
3216,3217,Yale POP_MASTER,SMZ-218,,0,ZBL-SMZ-218,236,Other,9,2087.48999,31.7302,67.874,ZBL,SMZ,Rahim Kalay,2410,Shomulzay,???????,Zabul,????,24
3217,3218,Yale POP_MASTER,SMZ-226,,0,ZBL-SMZ-226,90,Other,9,2056.705078,31.6827,67.8864,ZBL,SMZ,Sardar Khan Kalay,2410,Shomulzay,???????,Zabul,????,24
3218,3219,Yale POP_MASTER,SMZ-229,,0,ZBL-SMZ-229,125,Other,9,2066.320068,31.6517,67.9717,ZBL,SMZ,Sarwar Kalay,2410,Shomulzay,???????,Zabul,????,24
3219,3220,Yale POP_MASTER,SMZ-242,,0,ZBL-SMZ-242,201,Other,9,2012.442993,31.5476,67.6672,ZBL,SMZ,Shuryani Ya Jumah Khan Kalay,2410,Shomulzay,???????,Zabul,????,24
3220,3221,Yale POP_MASTER,SMZ-248,,0,ZBL-SMZ-248,34,Other,9,2090.658936,31.7175,67.873,ZBL,SMZ,Sur Gul Tana,2410,Shomulzay,???????,Zabul,????,24
3221,3222,Yale POP_MASTER,SMZ-272,,0,ZBL-SMZ-272,175,Other,9,2065.521973,31.6751,67.817,ZBL,SMZ,Usman Ghani Kalay,2410,Shomulzay,???????,Zabul,????,24
3222,3223,Yale POP_MASTER,SMZ-276,,0,ZBL-SMZ-276,32,Other,9,2061.334961,31.6732,67.8481,ZBL,SMZ,Zahir Kalay,2410,Shomulzay,???????,Zabul,????,24
3223,3224,Yale POP_MASTER,SMZ-282,,0,ZBL-SMZ-282,56,Other,9,2138.241943,31.6411,67.7772,ZBL,SMZ,Ziyarat Haq Nika,2410,Shomulzay,???????,Zabul,????,24
3224,3225,USAID AIDVillageView,SNK-019,,0,ZBL-SNK-019,0,Other,9,1527.942993,31.8404,66.8002,ZBL,SNK,Shir Kala Kalay,2405,Shinkay,?????,Zabul,????,24
3225,3226,CSO AIMS Villages (ACSOR),SNK-023,,0,ZBL-SNK-023,0,Other,9,1728.531006,31.85629,66.94499,ZBL,SNK,Balujan Kalay,2405,Shinkay,?????,Zabul,????,24
3226,3227,CSO AIMS Villages (ACSOR),SNK-025,,0,ZBL-SNK-025,0,Other,9,1832.083008,32.0061,67.06899,ZBL,SNK,Gholamdastagir,2405,Shinkay,?????,Zabul,????,24
3227,3228,CSO AIMS Villages (ACSOR),SNK-029,,0,ZBL-SNK-029,0,Other,9,1642.364014,31.92989,66.89319,ZBL,SNK,Niknazar Kalay,2405,Shinkay,?????,Zabul,????,24
3228,3229,CSO AIMS Villages (ACSOR),SNK-030,,0,ZBL-SNK-030,0,Other,9,1625.517944,31.90569,66.84619,ZBL,SNK,Nur Mohammad Kalay,2405,Shinkay,?????,Zabul,????,24
3229,3230,CSO AIMS Villages (ACSOR),SNK-031,,0,ZBL-SNK-031,0,Other,9,2001.531006,31.86899,67.0263,ZBL,SNK,Puti,2405,Shinkay,?????,Zabul,????,24
3230,3231,CSO AIMS Villages (ACSOR),SNK-033,,0,ZBL-SNK-033,202,Other,9,1832.083008,32.00602,67.06922,ZBL,SNK,Shah Alam Khel (2),2405,Shinkay,?????,Zabul,????,24
3231,3232,CSO AIMS Villages (ACSOR),SNK-035,,0,ZBL-SNK-035,0,Other,9,1673.186035,31.88702,66.92017,ZBL,SNK,Shirdahan Kalay,2405,Shinkay,?????,Zabul,????,24
3232,3233,USAID AIDVillageView,QLT-004,,0,ZBL-QLT-004,0,Other,9,1817.766968,32.0586,67.0753,ZBL,QLT,Khan Kalay,2401,Qalat,????,Zabul,????,24
3233,3234,CSO AIMS Villages (ACSOR),QLT-127,,0,ZBL-QLT-127,0,Other,9,1671.94104,32.0274,66.96165,ZBL,QLT,Kashani,2401,Qalat,????,Zabul,????,24
3237,3238,Yale POP_MASTER,SNK-037,,0,ZBL-SNK-037,94,Other,9,1860.057007,31.9776,67.0469,ZBL,SNK,Ahmad Shah Khel,2405,Shinkay,?????,Zabul,????,24
3238,3239,Yale POP_MASTER,SNK-040,,0,ZBL-SNK-040,196,Other,9,1754.194946,32.0079,67.0113,ZBL,SNK,Akhund Khel,2405,Shinkay,?????,Zabul,????,24
3239,3240,Yale POP_MASTER,SNK-041,,0,ZBL-SNK-041,138,Other,9,1844.220947,32.0007,67.0688,ZBL,SNK,Akhund Zada Khel,2405,Shinkay,?????,Zabul,????,24
3240,3241,Yale POP_MASTER,SNK-044,,0,ZBL-SNK-044,78,Other,9,1834.442993,31.9068,67.0064,ZBL,SNK,Azam Kalay,2405,Shinkay,?????,Zabul,????,24
3241,3242,Yale POP_MASTER,SNK-045,,0,ZBL-SNK-045,305,Other,9,1887.819946,32.0255,67.1099,ZBL,SNK,Badin,2405,Shinkay,?????,Zabul,????,24
3242,3243,Yale POP_MASTER,SNK-046,,0,ZBL-SNK-046,139,Other,9,1861.198975,32.0108,67.0845,ZBL,SNK,Badu Kalay,2405,Shinkay,?????,Zabul,????,24
3243,3244,Yale POP_MASTER,SNK-047,,0,ZBL-SNK-047,129,Other,9,1591.430054,31.8826,66.8353,ZBL,SNK,Bahadur Kalay,2405,Shinkay,?????,Zabul,????,24
3244,3245,Yale POP_MASTER,SNK-048,,0,ZBL-SNK-048,184,Other,9,1602.984985,31.8657,66.8753,ZBL,SNK,Baluch Ya Nabaris,2405,Shinkay,?????,Zabul,????,24
3245,3246,Yale POP_MASTER,SNK-050,,0,ZBL-SNK-050,103,Other,9,1850.571045,31.9858,67.0518,ZBL,SNK,Bawokay,2405,Shinkay,?????,Zabul,????,24
3246,3247,Yale POP_MASTER,SNK-051,,0,ZBL-SNK-051,151,Other,9,1723.620972,31.897,66.9455,ZBL,SNK,Bolan,2405,Shinkay,?????,Zabul,????,24
3247,3248,Yale POP_MASTER,SNK-052,,0,ZBL-SNK-052,225,Other,9,1851.817993,31.972,67.0337,ZBL,SNK,Burgay,2405,Shinkay,?????,Zabul,????,24
3248,3249,Yale POP_MASTER,SNK-056,,0,ZBL-SNK-056,155,Other,9,1639.838013,31.9238,66.8812,ZBL,SNK,Dawgar,2405,Shinkay,?????,Zabul,????,24
3249,3250,Yale POP_MASTER,SNK-057,,0,ZBL-SNK-057,277,Other,9,1544.699951,31.8456,66.8162,ZBL,SNK,Dihlay,2405,Shinkay,?????,Zabul,????,24
3250,3251,Yale POP_MASTER,SNK-059,,0,ZBL-SNK-059,116,Other,9,1779.922974,32.0024,67.0364,ZBL,SNK,Fatihullah Khan,2405,Shinkay,?????,Zabul,????,24
3251,3252,Yale POP_MASTER,SNK-061,,0,ZBL-SNK-061,181,Other,9,2133.886963,31.976,67.1195,ZBL,SNK,Garji,2405,Shinkay,?????,Zabul,????,24
3252,3253,Yale POP_MASTER,SNK-063,,0,ZBL-SNK-063,268,Other,9,1646.532959,31.9177,66.8978,ZBL,SNK,Ghuzgay,2405,Shinkay,?????,Zabul,????,24
3253,3254,Yale POP_MASTER,SNK-065,,0,ZBL-SNK-065,384,Other,9,1712.853027,31.973,66.8838,ZBL,SNK,Hajani,2405,Shinkay,?????,Zabul,????,24
3254,3255,Yale POP_MASTER,SNK-068,,0,ZBL-SNK-068,298,Other,9,1745.921997,32.0173,67.0259,ZBL,SNK,Hawasyan,2405,Shinkay,?????,Zabul,????,24
3255,3256,Yale POP_MASTER,SNK-069,,0,ZBL-SNK-069,206,Other,9,1849.472046,32.0228,67.0917,ZBL,SNK,Jugyan,2405,Shinkay,?????,Zabul,????,24
3256,3257,Yale POP_MASTER,SNK-072,,0,ZBL-SNK-072,108,Other,9,2032.850952,31.9305,67.0633,ZBL,SNK,Kari,2405,Shinkay,?????,Zabul,????,24
3257,3258,Yale POP_MASTER,SNK-073,,0,ZBL-SNK-073,236,Other,9,1830.041016,31.9932,67.0489,ZBL,SNK,Kariz Mohammad Hussin,2405,Shinkay,?????,Zabul,????,24
3258,3259,Yale POP_MASTER,SNK-075,,0,ZBL-SNK-075,178,Other,9,2212.894043,31.9674,67.117,ZBL,SNK,Karu Khel,2405,Shinkay,?????,Zabul,????,24
3259,3260,Yale POP_MASTER,SNK-076,,0,ZBL-SNK-076,171,Other,9,2132.792969,31.9596,67.1013,ZBL,SNK,Karuli,2405,Shinkay,?????,Zabul,????,24
3260,3261,Yale POP_MASTER,SNK-078,,0,ZBL-SNK-078,119,Other,9,1786.241943,31.9452,66.9782,ZBL,SNK,Kazak Kalay,2405,Shinkay,?????,Zabul,????,24
3261,3262,Yale POP_MASTER,SNK-079,,0,ZBL-SNK-079,200,Other,9,2138.568115,31.9642,67.1091,ZBL,SNK,Khost,2405,Shinkay,?????,Zabul,????,24
3262,3263,Yale POP_MASTER,SNK-080,,0,ZBL-SNK-080,136,Other,9,1773.400024,32.0111,67.0483,ZBL,SNK,Khuni,2405,Shinkay,?????,Zabul,????,24
3263,3264,Yale POP_MASTER,SNK-081,,0,ZBL-SNK-081,270,Other,9,1714.442017,32.0289,67.0185,ZBL,SNK,Khuni Khura,2405,Shinkay,?????,Zabul,????,24
3264,3265,Yale POP_MASTER,SNK-082,,0,ZBL-SNK-082,317,Other,9,1782.400024,32.0173,67.0583,ZBL,SNK,Khura,2405,Shinkay,?????,Zabul,????,24
3265,3266,Yale POP_MASTER,SNK-083,,0,ZBL-SNK-083,121,Other,9,1737.688965,31.8942,66.9563,ZBL,SNK,Khwai Kalay,2405,Shinkay,?????,Zabul,????,24
3266,3267,Yale POP_MASTER,SNK-084,,0,ZBL-SNK-084,166,Other,9,1615.630981,31.8202,66.8823,ZBL,SNK,Kitu Hulya,2405,Shinkay,?????,Zabul,????,24
3267,3268,Yale POP_MASTER,SNK-086,,0,ZBL-SNK-086,119,Other,9,1924.75,31.9199,67.0258,ZBL,SNK,Kochnay Shah Bil,2405,Shinkay,?????,Zabul,????,24
3268,3269,Yale POP_MASTER,SNK-087,,0,ZBL-SNK-087,141,Other,9,1909.420044,32.0034,67.0979,ZBL,SNK,Kuchanay Shur,2405,Shinkay,?????,Zabul,????,24
3269,3270,Yale POP_MASTER,SNK-088,,0,ZBL-SNK-088,188,Other,9,1612.077026,31.879,66.8133,ZBL,SNK,Landay Kalay,2405,Shinkay,?????,Zabul,????,24
3270,3271,Yale POP_MASTER,SNK-091,,0,ZBL-SNK-091,124,Other,9,1796.151001,31.9777,66.9987,ZBL,SNK,Lurgay,2405,Shinkay,?????,Zabul,????,24
3271,3272,Yale POP_MASTER,SNK-092,,0,ZBL-SNK-092,342,Other,9,1860.151978,32.0163,67.0901,ZBL,SNK,Luta,2405,Shinkay,?????,Zabul,????,24
3272,3273,Yale POP_MASTER,SNK-093,,0,ZBL-SNK-093,158,Other,9,1910.453979,32.0138,67.1124,ZBL,SNK,Luy Shur,2405,Shinkay,?????,Zabul,????,24
3273,3274,Yale POP_MASTER,SNK-095,,0,ZBL-SNK-095,86,Other,9,1983.25,31.9466,67.0635,ZBL,SNK,Malamzayi,2405,Shinkay,?????,Zabul,????,24
3274,3275,Yale POP_MASTER,SNK-096,,0,ZBL-SNK-096,220,Other,9,1555.813965,31.856,66.8129,ZBL,SNK,Mamu Kalay,2405,Shinkay,?????,Zabul,????,24
3275,3276,Yale POP_MASTER,SNK-097,,0,ZBL-SNK-097,69,Other,9,1912.526001,31.9085,67.0333,ZBL,SNK,Mandaw,2405,Shinkay,?????,Zabul,????,24
3276,3277,Yale POP_MASTER,SNK-098,,0,ZBL-SNK-098,213,Other,9,1524.577026,31.8048,66.8164,ZBL,SNK,Mandi Kalay,2405,Shinkay,?????,Zabul,????,24
3277,3278,Yale POP_MASTER,SNK-100,,0,ZBL-SNK-100,241,Other,9,1759.666992,31.901,66.9724,ZBL,SNK,Milzayi,2405,Shinkay,?????,Zabul,????,24
3278,3279,Yale POP_MASTER,SNK-102,,0,ZBL-SNK-102,298,Other,9,1570.017944,31.8608,66.7944,ZBL,SNK,Mohammad Kalay (1),2405,Shinkay,?????,Zabul,????,24
3279,3280,Yale POP_MASTER,SNK-104,,0,ZBL-SNK-104,249,Other,9,1857.312988,31.9752,67.042,ZBL,SNK,Mullahyan,2405,Shinkay,?????,Zabul,????,24
3280,3281,Yale POP_MASTER,SNK-106,,0,ZBL-SNK-106,238,Other,9,1682.868042,31.9579,66.8888,ZBL,SNK,Naturi Kalay,2405,Shinkay,?????,Zabul,????,24
3281,3282,Yale POP_MASTER,SNK-108,,0,ZBL-SNK-108,145,Other,9,1661.88501,31.921,66.9057,ZBL,SNK,Nik Nazar,2405,Shinkay,?????,Zabul,????,24
3282,3283,Yale POP_MASTER,SNK-109,,0,ZBL-SNK-109,100,Other,9,2016.844971,31.9357,67.0647,ZBL,SNK,Pangay Junubi,2405,Shinkay,?????,Zabul,????,24
3283,3284,Yale POP_MASTER,SNK-112,,0,ZBL-SNK-112,127,Other,9,1798.647949,31.9289,66.9732,ZBL,SNK,Patu Khel,2405,Shinkay,?????,Zabul,????,24
3284,3285,Yale POP_MASTER,SNK-113,,0,ZBL-SNK-113,249,Other,9,1722.321045,31.956,66.9256,ZBL,SNK,Payrawan,2405,Shinkay,?????,Zabul,????,24
3285,3286,Yale POP_MASTER,SNK-114,,0,ZBL-SNK-114,217,Other,9,1759.196045,32.0438,67.0622,ZBL,SNK,Punba,2405,Shinkay,?????,Zabul,????,24
3286,3287,Yale POP_MASTER,SNK-124,,0,ZBL-SNK-124,207,Other,9,1518.44104,31.8265,66.7762,ZBL,SNK,Shadi Kalay,2405,Shinkay,?????,Zabul,????,24
3287,3288,Yale POP_MASTER,SNK-128,,0,ZBL-SNK-128,144,Other,9,1687.170044,31.8864,66.9294,ZBL,SNK,Sher Dahan Kalay,2405,Shinkay,?????,Zabul,????,24
3288,3289,Yale POP_MASTER,SNK-129,,0,ZBL-SNK-129,74,Pashto,2,2144.735107,31.9608,67.107,ZBL,SNK,Sher Mohammad Khel,2405,Shinkay,?????,Zabul,????,24
3289,3290,Yale POP_MASTER,SNK-130,,0,ZBL-SNK-130,158,Other,9,1611.881958,31.9065,66.8745,ZBL,SNK,Sheru Qala,2405,Shinkay,?????,Zabul,????,24
3290,3291,Yale POP_MASTER,SNK-131,,0,ZBL-SNK-131,141,Other,9,1861.212036,32.0083,67.0818,ZBL,SNK,Shila,2405,Shinkay,?????,Zabul,????,24
3291,3292,Yale POP_MASTER,SNK-136,,0,ZBL-SNK-136,233,Other,9,1922.614014,31.9667,67.0642,ZBL,SNK,Sur Kani,2405,Shinkay,?????,Zabul,????,24
3292,3293,Yale POP_MASTER,SNK-138,,0,ZBL-SNK-138,254,Other,9,2051.531006,31.9869,67.1197,ZBL,SNK,Tushki,2405,Shinkay,?????,Zabul,????,24
3293,3294,Yale POP_MASTER,SNK-139,,0,ZBL-SNK-139,228,Other,9,1832.207031,31.954,67.0025,ZBL,SNK,Umar Zayi,2405,Shinkay,?????,Zabul,????,24
3294,3295,Yale POP_MASTER,SNK-143,,0,ZBL-SNK-143,169,Other,9,1697.175049,31.9351,66.9138,ZBL,SNK,Warkich Kalay,2405,Shinkay,?????,Zabul,????,24
3295,3296,Yale POP_MASTER,SNK-144,,0,ZBL-SNK-144,157,Other,9,1933.229004,31.9262,67.0344,ZBL,SNK,Washah Bil Kalan,2405,Shinkay,?????,Zabul,????,24
3296,3297,Yale POP_MASTER,SNK-150,,0,ZBL-SNK-150,218,Other,9,1985.968994,31.8747,67.0282,ZBL,SNK,Zhuri Khuni,2405,Shinkay,?????,Zabul,????,24
5742,5743,CSO AIMS Villages (ACSOR),AG2-117,,0,ZBL-AG2-117,0,Other,9,2043.97998,32.50176,67.10947,ZBL,AG2,Zardalu,2402,Arghandab,???????,Zabul,????,24
5743,5744,CSO AIMS Villages (ACSOR),SHJ-186,,0,ZBL-SHJ-186,68,Other,9,2238.843994,32.48241,67.17723,ZBL,SHJ,Kash,2406,Shahjoy,??? ???,Zabul,????,24
5744,5745,CSO AIMS Villages (ACSOR),AG2-026,,0,ZBL-AG2-026,0,Other,9,2152.778076,32.4653,67.10589,ZBL,AG2,Bighasti,2402,Arghandab,???????,Zabul,????,24
5745,5746,CSO AIMS Villages (ACSOR),AG2-065,,0,ZBL-AG2-065,0,Other,9,2211.842041,32.49229,67.1311,ZBL,AG2,Loy Zardalu,2402,Arghandab,???????,Zabul,????,24
5746,5747,CSO AIMS Villages (ACSOR),AG2-068,,0,ZBL-AG2-068,0,Other,9,2109.886963,32.47729,67.1084,ZBL,AG2,Malikhel (1),2402,Arghandab,???????,Zabul,????,24
5747,5748,CSO AIMS Villages (ACSOR),AG2-079,,0,ZBL-AG2-079,0,Other,9,2117.809082,32.48479,67.11739,ZBL,AG2,Nimrozi,2402,Arghandab,???????,Zabul,????,24
5748,5749,CSO AIMS Villages (ACSOR),AG2-082,,0,ZBL-AG2-082,0,Other,9,2098.394043,32.46599,67.0832,ZBL,AG2,Pir Mohammadkhel,2402,Arghandab,???????,Zabul,????,24
5749,5750,CSO AIMS Villages (ACSOR),AG2-084,,0,ZBL-AG2-084,0,Other,9,2088.51709,32.4669,67.0965,ZBL,AG2,Rana,2402,Arghandab,???????,Zabul,????,24
5750,5751,CSO AIMS Villages (ACSOR),AG2-033,,0,ZBL-AG2-033,0,Other,9,2090.071045,32.4618,67.08789,ZBL,AG2,China (1),2402,Arghandab,???????,Zabul,????,24
5751,5752,CSO AIMS Villages (ACSOR),AG2-013,,0,ZBL-AG2-013,0,Other,9,2036.844971,32.4973,67.08949,ZBL,AG2,Akhizyan,2402,Arghandab,???????,Zabul,????,24
5752,5753,CSO AIMS Villages (ACSOR),AG2-016,,0,ZBL-AG2-016,0,Other,9,2110.26001,32.4982,67.12129,ZBL,AG2,Amaran,2402,Arghandab,???????,Zabul,????,24
5753,5754,CSO AIMS Villages (ACSOR),AG2-030,,0,ZBL-AG2-030,0,Other,9,2010.005005,32.49009,67.09109,ZBL,AG2,Chahartir,2402,Arghandab,???????,Zabul,????,24
5754,5755,CSO AIMS Villages (ACSOR),AG2-063,,0,ZBL-AG2-063,0,Other,9,2069.221924,32.49939,67.11079,ZBL,AG2,Kuchnay Zardalu,2402,Arghandab,???????,Zabul,????,24
5755,5756,CSO AIMS Villages (ACSOR),AG2-076,,0,ZBL-AG2-076,0,Other,9,2079.681885,32.4847,67.10519,ZBL,AG2,Musakhel,2402,Arghandab,???????,Zabul,????,24
5756,5757,CSO AIMS Villages (ACSOR),AG2-096,,0,ZBL-AG2-096,0,Other,9,2037.411011,32.50736,67.10858,ZBL,AG2,Shamizi,2402,Arghandab,???????,Zabul,????,24
5757,5758,Yale POP_MASTER,QLT-020,,0,ZBL-QLT-020,285,Other,9,2284.957031,32.4302,67.1343,ZBL,QLT,Ghulam Khan Kor,2401,Qalat,????,Zabul,????,24
5758,5759,Yale POP_MASTER,QLT-077,,0,ZBL-QLT-077,144,Other,9,2250.452881,32.4583,67.1458,ZBL,QLT,Shada,2401,Qalat,????,Zabul,????,24
5759,5760,Yale POP_MASTER,SHJ-046,,0,ZBL-SHJ-046,47,Other,9,2155.196045,32.4552,67.1633,ZBL,SHJ,Daruzgan Kalay,2406,Shahjoy,??? ???,Zabul,????,24
5760,5761,Yale POP_MASTER,SHJ-041,,0,ZBL-SHJ-041,100,Other,9,2096.548096,32.4671,67.1953,ZBL,SHJ,Chachub,2406,Shahjoy,??? ???,Zabul,????,24
5761,5762,Yale POP_MASTER,SHJ-127,,0,ZBL-SHJ-127,79,Other,9,2248.979004,32.474,67.1619,ZBL,SHJ,Mur Balagh,2406,Shahjoy,??? ???,Zabul,????,24
5762,5763,Yale POP_MASTER,SHJ-159,,0,ZBL-SHJ-159,93,Other,9,2073.375977,32.488,67.2028,ZBL,SHJ,Sher Mohammad Khan,2406,Shahjoy,??? ???,Zabul,????,24
5763,5764,Yale POP_MASTER,SHJ-103,,0,ZBL-SHJ-103,59,Other,9,2063.968994,32.4743,67.1977,ZBL,SHJ,Lal Mohammad,2406,Shahjoy,??? ???,Zabul,????,24
5764,5765,Yale POP_MASTER,SHJ-008,,0,ZBL-SHJ-008,100,Other,9,2107.580078,32.4712,67.1883,ZBL,SHJ,Acka,2406,Shahjoy,??? ???,Zabul,????,24
5765,5766,Yale POP_MASTER,SHJ-100,,0,ZBL-SHJ-100,67,Other,9,2119.792969,32.4618,67.177,ZBL,SHJ,Kura Sang,2406,Shahjoy,??? ???,Zabul,????,24
5766,5767,USAID AIDVillageView,NBR-002,,0,ZBL-NBR-002,0,Other,9,1990.506958,32.0223,67.4743,ZBL,NBR,Azizullah Khan Kala,2411,Nawbahar,??????,Zabul,????,24
5767,5768,USAID AIDVillageView,NBR-003,,0,ZBL-NBR-003,0,Other,9,2111.231934,32.0674,67.5012,ZBL,NBR,China,2411,Nawbahar,??????,Zabul,????,24
5768,5769,USAID AIDVillageView,NBR-007,,0,ZBL-NBR-007,0,Other,9,2126.611084,32.069,67.5108,ZBL,NBR,Jalalzi,2411,Nawbahar,??????,Zabul,????,24
5769,5770,USAID AIDVillageView,NBR-008,,0,ZBL-NBR-008,0,Other,9,2013.391968,32.0023,67.4862,ZBL,NBR,Kamkay Shekho Kalay,2411,Nawbahar,??????,Zabul,????,24
5770,5771,USAID AIDVillageView,NBR-011,,0,ZBL-NBR-011,0,Other,9,2007.81897,32.0048,67.4908,ZBL,NBR,Loy Shekho Kalay,2411,Nawbahar,??????,Zabul,????,24
5771,5772,USAID AIDVillageView,NBR-013,,0,ZBL-NBR-013,0,Other,9,2002.380981,32.0062,67.5003,ZBL,NBR,Matizi Renday,2411,Nawbahar,??????,Zabul,????,24
5772,5773,USAID AIDVillageView,NBR-015,,0,ZBL-NBR-015,0,Other,9,2020.823975,32.0054,67.4691,ZBL,NBR,Omarkhel Kalay,2411,Nawbahar,??????,Zabul,????,24
5773,5774,Yale POP_MASTER,NBR-037,,0,ZBL-NBR-037,204,Other,9,1971.800049,32.12,67.4733,ZBL,NBR,Daludinu Da Kalay,2411,Nawbahar,??????,Zabul,????,24
5774,5775,Yale POP_MASTER,NBR-038,,0,ZBL-NBR-038,110,Other,9,1997.328003,32.0074,67.5115,ZBL,NBR,Dandy,2411,Nawbahar,??????,Zabul,????,24
5775,5776,Yale POP_MASTER,NBR-039,,0,ZBL-NBR-039,60,Other,9,2029.467041,32.0085,67.4544,ZBL,NBR,Dangar,2411,Nawbahar,??????,Zabul,????,24
5776,5777,Yale POP_MASTER,NBR-052,,0,ZBL-NBR-052,93,Other,9,1969.426025,32.0386,67.4472,ZBL,NBR,Hutak,2411,Nawbahar,??????,Zabul,????,24
5777,5778,Yale POP_MASTER,NBR-061,,0,ZBL-NBR-061,203,Other,9,1979.232056,32.0251,67.5016,ZBL,NBR,Karam Qala,2411,Nawbahar,??????,Zabul,????,24
5778,5779,Yale POP_MASTER,NBR-069,,0,ZBL-NBR-069,500,Other,9,2029.041016,32.0146,67.4462,ZBL,NBR,Laki,2411,Nawbahar,??????,Zabul,????,24
5779,5780,Yale POP_MASTER,NBR-071,,0,ZBL-NBR-071,179,Other,9,2027.090942,31.9877,67.505,ZBL,NBR,Latak,2411,Nawbahar,??????,Zabul,????,24
5780,5781,Yale POP_MASTER,NBR-072,,0,ZBL-NBR-072,219,Other,9,2020.119995,32.0037,67.4779,ZBL,NBR,Luy Shikhu,2411,Nawbahar,??????,Zabul,????,24
5781,5782,Yale POP_MASTER,NBR-103,,0,ZBL-NBR-103,76,Other,9,2010.829956,31.997,67.5161,ZBL,NBR,Sadullah,2411,Nawbahar,??????,Zabul,????,24
5782,5783,Yale POP_MASTER,NBR-113,,0,ZBL-NBR-113,44,Other,9,2079.315918,32.0632,67.4981,ZBL,NBR,Sin Khel,2411,Nawbahar,??????,Zabul,????,24
5783,5784,Yale POP_MASTER,NBR-119,,0,ZBL-NBR-119,210,Other,9,2023.088013,32.0058,67.4623,ZBL,NBR,Umar Khel,2411,Nawbahar,??????,Zabul,????,24
5784,5785,Yale POP_MASTER,SNK-146,,0,ZBL-SNK-146,88,Other,9,1966.642944,32.1153,67.466,ZBL,SNK,Yosuf Khel,2405,Shinkay,?????,Zabul,????,24
5785,5786,Yale POP_MASTER,NBR-033,,0,ZBL-NBR-033,226,Other,9,2114.985107,32.0486,67.5518,ZBL,NBR,Chinar,2411,Nawbahar,??????,Zabul,????,24
5786,5787,Yale POP_MASTER,NBR-019,,0,ZBL-NBR-019,122,Other,9,1968.891968,32.1253,67.4755,ZBL,NBR,Ali Sherzay Kalay,2411,Nawbahar,??????,Zabul,????,24
5787,5788,USAID AIDVillageView,SNK-003,,0,ZBL-SNK-003,0,Other,9,1500.802002,31.8048,66.7285,ZBL,SNK,Duda,2405,Shinkay,?????,Zabul,????,24
5788,5789,USAID AIDVillageView,SNK-009,,0,ZBL-SNK-009,0,Other,9,1491.453003,31.7907,66.7884,ZBL,SNK,Kitu Sufla Kalay,2405,Shinkay,?????,Zabul,????,24
5831,5832,Yale POP_MASTER,SNK-103,,0,ZBL-SNK-103,227,Other,9,1479.171997,31.818,66.7352,ZBL,SNK,Mullah Baran,2405,Shinkay,?????,Zabul,????,24
5832,5833,Yale POP_MASTER,SNK-107,,0,ZBL-SNK-107,151,Other,9,1522.85498,31.8307,66.718,ZBL,SNK,Nik Mohammad Kalay,2405,Shinkay,?????,Zabul,????,24
5833,5834,Yale POP_MASTER,SNK-116,,0,ZBL-SNK-116,129,Other,9,1484.625977,31.8062,66.7556,ZBL,SNK,Rahim Khel,2405,Shinkay,?????,Zabul,????,24
5834,5835,Yale POP_MASTER,SNK-121,,0,ZBL-SNK-121,165,Other,9,1457.786011,31.7909,66.7517,ZBL,SNK,Salam Khel,2405,Shinkay,?????,Zabul,????,24
5836,5837,USAID AIDVillageView,SNK-021,,0,ZBL-SNK-021,0,Other,9,1768.125977,31.7603,66.9,ZBL,SNK,Takaray Kalay,2405,Shinkay,?????,Zabul,????,24
5837,5838,CSO AIMS Villages (ACSOR),SNK-026,,0,ZBL-SNK-026,0,Other,9,1792.494019,31.8378,66.97669,ZBL,SNK,Khodad,2405,Shinkay,?????,Zabul,????,24
5838,5839,CSO AIMS Villages (ACSOR),SNK-027,,0,ZBL-SNK-027,0,Other,9,1815.987061,31.81849,67.02119,ZBL,SNK,Kuz Komandi,2405,Shinkay,?????,Zabul,????,24
5839,5840,CSO AIMS Villages (ACSOR),SNK-028,,0,ZBL-SNK-028,0,Other,9,2030.426025,31.77339,67.0077,ZBL,SNK,Lwar Komandi,2405,Shinkay,?????,Zabul,????,24
6117,6118,Yale POP_MASTER,SNK-036,,0,ZBL-SNK-036,165,Other,9,1699.959961,31.7833,66.9075,ZBL,SNK,Agha Kalay,2405,Shinkay,?????,Zabul,????,24
6118,6119,Yale POP_MASTER,SNK-054,,0,ZBL-SNK-054,136,Other,9,1750.704956,31.7991,66.9317,ZBL,SNK,China,2405,Shinkay,?????,Zabul,????,24
6119,6120,Yale POP_MASTER,SNK-120,,0,ZBL-SNK-120,219,Other,9,1803.041992,31.8597,67.1018,ZBL,SNK,Rustum Kalay (2),2405,Shinkay,?????,Zabul,????,24
6120,6121,Yale POP_MASTER,SNK-127,,0,ZBL-SNK-127,223,Other,9,1680.718994,31.783,66.8997,ZBL,SNK,Sharwani Kalay,2405,Shinkay,?????,Zabul,????,24
6121,6122,Yale POP_MASTER,SNK-132,,0,ZBL-SNK-132,118,Pashto,2,1926.462036,31.8862,67.1093,ZBL,SNK,Shila Muhammad Gul,2405,Shinkay,?????,Zabul,????,24
6122,6123,Yale POP_MASTER,SNK-133,,0,ZBL-SNK-133,81,Pashto,2,1971.883057,31.8936,67.112,ZBL,SNK,Shila Watan,2405,Shinkay,?????,Zabul,????,24
6126,6127,USAID AIDVillageView,SMZ-002,,0,ZBL-SMZ-002,0,Other,9,1915.453979,31.6483,67.495,ZBL,SMZ,Ambar,2410,Shomulzay,???????,Zabul,????,24
6127,6128,USAID AIDVillageView,SMZ-008,,0,ZBL-SMZ-008,0,Other,9,2020.482056,31.6655,67.5747,ZBL,SMZ,Chengay,2410,Shomulzay,???????,Zabul,????,24
6128,6129,USAID AIDVillageView,SMZ-010,,0,ZBL-SMZ-010,0,Other,9,1933.250977,31.568,67.4459,ZBL,SMZ,China (3),2410,Shomulzay,???????,Zabul,????,24
6129,6130,USAID AIDVillageView,SMZ-011,,0,ZBL-SMZ-011,0,Other,9,1916.171021,31.5987,67.4502,ZBL,SMZ,China (4),2410,Shomulzay,???????,Zabul,????,24
6130,6131,USAID AIDVillageView,SMZ-014,,0,ZBL-SMZ-014,0,Other,9,2134.483887,31.6055,67.566,ZBL,SMZ,Eraqi,2410,Shomulzay,???????,Zabul,????,24
6131,6132,USAID AIDVillageView,SMZ-015,,0,ZBL-SMZ-015,0,Other,9,2056.929932,31.5724,67.5525,ZBL,SMZ,Faqir,2410,Shomulzay,???????,Zabul,????,24
6132,6133,USAID AIDVillageView,SMZ-023,,0,ZBL-SMZ-023,0,Other,9,1965.012939,31.5571,67.4262,ZBL,SMZ,Kaliary,2410,Shomulzay,???????,Zabul,????,24
6133,6134,USAID AIDVillageView,SMZ-024,,0,ZBL-SMZ-024,0,Other,9,1939.795044,31.5576,67.4389,ZBL,SMZ,Karezgay,2410,Shomulzay,???????,Zabul,????,24
6134,6135,USAID AIDVillageView,SMZ-026,,0,ZBL-SMZ-026,0,Other,9,1946.852051,31.5716,67.4645,ZBL,SMZ,Kazhakay,2410,Shomulzay,???????,Zabul,????,24
6135,6136,USAID AIDVillageView,SMZ-027,,0,ZBL-SMZ-027,0,Other,9,1978.814941,31.5235,67.4887,ZBL,SMZ,Kazheh Bela,2410,Shomulzay,???????,Zabul,????,24
6136,6137,USAID AIDVillageView,SMZ-029,,0,ZBL-SMZ-029,0,Other,9,2180.933105,31.6174,67.5268,ZBL,SMZ,Khwaji,2410,Shomulzay,???????,Zabul,????,24
6137,6138,USAID AIDVillageView,SMZ-039,,0,ZBL-SMZ-039,0,Other,9,2024.805054,31.5564,67.6184,ZBL,SMZ,Qala-i-burje Sangi,2410,Shomulzay,???????,Zabul,????,24
6138,6139,USAID AIDVillageView,SMZ-042,,0,ZBL-SMZ-042,0,Other,9,1916.126953,31.6383,67.4739,ZBL,SMZ,Sinagey,2410,Shomulzay,???????,Zabul,????,24
6139,6140,USAID AIDVillageView,SMZ-050,,0,ZBL-SMZ-050,0,Other,9,1980.937988,31.5058,67.5339,ZBL,SMZ,Zarif Kalay(qala-i-zarif),2410,Shomulzay,???????,Zabul,????,24
6140,6141,CSO AIMS Villages (ACSOR),ATR-063,,0,ZBL-ATR-063,0,Other,9,1933.583984,31.6331,67.407,ZBL,ATR,Akhundzadah Shela,2409,Atghar,????,Zabul,????,24
6141,6142,CSO AIMS Villages (ACSOR),ATR-068,,0,ZBL-ATR-068,0,Other,9,1857.678955,31.64869,67.43739,ZBL,ATR,De Surkhab Kalay,2409,Atghar,????,Zabul,????,24
6877,6878,USAID AIDVillageView,KAF-013,,0,ZBL-KAF-013,0,Dari,1,2114.603027,32.9599,67.2588,ZBL,KAF,Gharsang,2407,Kakar,????,Zabul,????,24
6878,6879,CSO AIMS Villages (ACSOR),KAF-061,,0,ZBL-KAF-061,0,Dari,1,1975.137939,32.93762,67.29387,ZBL,KAF,Sherkhan,2407,Kakar,????,Zabul,????,24
6888,6889,Yale POP_MASTER,KAF-070,,0,ZBL-KAF-070,547,Hazaragi,8,2598.62793,33.0515,67.1438,ZBL,KAF,Daiberka,2407,Kakar,????,Zabul,????,24
6889,6890,Yale POP_MASTER,KAF-071,,0,ZBL-KAF-071,962,Dari,1,2493.85498,33.0015,67.1732,ZBL,KAF,Gho Gha,2407,Kakar,????,Zabul,????,24
6890,6891,Yale POP_MASTER,KAF-073,,0,ZBL-KAF-073,591,Hazaragi,8,2910.383057,33.011,67.0743,ZBL,KAF,Khairo,2407,Kakar,????,Zabul,????,24
6891,6892,Yale POP_MASTER,KAF-080,,0,ZBL-KAF-080,466,Dari,1,2870.639893,33.0507,67.1178,ZBL,KAF,Qochanghi,2407,Kakar,????,Zabul,????,24
6892,6893,Yale POP_MASTER,KAF-084,,0,ZBL-KAF-084,82,Dari,1,3196.64209,33.0285,67.0771,ZBL,KAF,Saybak,2407,Kakar,????,Zabul,????,24
6893,6894,Yale POP_MASTER,KAF-112,,0,ZBL-KAF-112,250,Pashto,2,2022.801025,32.949,67.288,ZBL,KAF,Charkhbad,2407,Kakar,????,Zabul,????,24
6894,6895,Yale POP_MASTER,KAF-113,,0,ZBL-KAF-113,250,Pashto,2,2060.061035,32.962,67.2627,ZBL,KAF,Shaftal,2407,Kakar,????,Zabul,????,24
6895,6896,Yale POP_MASTER,KAF-114,,0,ZBL-KAF-114,400,Pashto,2,2108.678955,32.965,67.231,ZBL,KAF,Bangesh,2407,Kakar,????,Zabul,????,24
6896,6897,Yale POP_MASTER,KAF-115,,0,ZBL-KAF-115,500,Pashto,2,2211.935059,32.9655,67.186,ZBL,KAF,Jangali,2407,Kakar,????,Zabul,????,24
8535,8536,USAID AIDVillageView,SNK-002,,0,ZBL-SNK-002,0,Pashto,2,1584.876953,31.8527,66.6984,ZBL,SNK,Akhundzadahkhel,2405,Shinkay,?????,Zabul,????,24
8536,8537,USAID AIDVillageView,SNK-008,,0,ZBL-SNK-008,0,Pashto,2,1563.904053,31.8474,66.7004,ZBL,SNK,Khwaja Mohammad Kalay,2405,Shinkay,?????,Zabul,????,24
8537,8538,USAID AIDVillageView,SNK-010,,0,ZBL-SNK-010,0,Pashto,2,1622.953979,31.8545,66.6858,ZBL,SNK,Kujay,2405,Shinkay,?????,Zabul,????,24
8538,8539,USAID AIDVillageView,SNK-016,,0,ZBL-SNK-016,0,Pashto,2,1546.954956,31.8391,66.7068,ZBL,SNK,Rustam Kalay (1),2405,Shinkay,?????,Zabul,????,24
8539,8540,USAID AIDVillageView,SNK-018,,0,ZBL-SNK-018,0,Pashto,2,1644.755005,31.8477,66.6762,ZBL,SNK,Sharqi Da Nikeh,2405,Shinkay,?????,Zabul,????,24
8734,8735,Yale POP_MASTER,SNK-101,,0,ZBL-SNK-101,80,Pashto,2,2152.461914,31.8344,67.1808,ZBL,SNK,Mohammad Din Kalay,2405,Shinkay,?????,Zabul,????,24
8735,8736,Yale POP_MASTER,ATR-029,,0,ZBL-ATR-029,193,Pashto,2,1790.661011,31.7031,67.2278,ZBL,ATR,Kamal Khel,2409,Atghar,????,Zabul,????,24
8736,8737,Yale POP_MASTER,ATR-051,,0,ZBL-ATR-051,274,Pashto,2,1794.392944,31.7095,67.2354,ZBL,ATR,Sayyid Khel,2409,Atghar,????,Zabul,????,24
8737,8738,Yale POP_MASTER,ATR-083,,0,ZBL-ATR-083,867,Pashto,2,1785.10498,31.6985,67.2248,ZBL,ATR,Khatni Zay,2409,Atghar,????,Zabul,????,24
8738,8739,USAID AIDVillageView,SNK-020,,0,ZBL-SNK-020,0,Pashto,2,1965.274048,31.7943,67.4736,ZBL,SNK,Suri Kalay,2405,Shinkay,?????,Zabul,????,24
8739,8740,CSO AIMS Villages (ACSOR),SNK-032,,0,ZBL-SNK-032,367,Pashto,2,1930.531982,31.78801,67.45901,ZBL,SNK,Qarya Ghuri,2405,Shinkay,?????,Zabul,????,24
8740,8741,CSO AIMS Villages (ACSOR),ATR-067,,0,ZBL-ATR-067,0,Pashto,2,1959.562988,31.7834,67.32839,ZBL,ATR,Chogi Kalay,2409,Atghar,????,Zabul,????,24
8741,8742,CSO AIMS Villages (ACSOR),ATR-069,,0,ZBL-ATR-069,0,Pashto,2,1952.56897,31.8209,67.4035,ZBL,ATR,Eshaqzi Kalay,2409,Atghar,????,Zabul,????,24
8742,8743,CSO AIMS Villages (ACSOR),ATR-071,,0,ZBL-ATR-071,0,Pashto,2,2010.067993,31.67835,67.53851,ZBL,ATR,Karez,2409,Atghar,????,Zabul,????,24
8743,8744,CSO AIMS Villages (ACSOR),ATR-074,,0,ZBL-ATR-074,0,Pashto,2,2121.445068,31.70031,67.55135,ZBL,ATR,Mandozay,2409,Atghar,????,Zabul,????,24
8744,8745,CSO AIMS Villages (ACSOR),ATR-077,,0,ZBL-ATR-077,0,Pashto,2,1901.530029,31.79969,67.3789,ZBL,ATR,Nikehgano Keli,2409,Atghar,????,Zabul,????,24
8745,8746,CSO AIMS Villages (ACSOR),ATR-078,,0,ZBL-ATR-078,0,Pashto,2,1918.043945,31.72469,67.44769,ZBL,ATR,Porta Karezgay Kalay,2409,Atghar,????,Zabul,????,24
8746,8747,CSO AIMS Villages (ACSOR),ATR-079,,0,ZBL-ATR-079,0,Pashto,2,2203.85791,31.7423,67.52284,ZBL,ATR,Shamawun,2409,Atghar,????,Zabul,????,24
8747,8748,CSO AIMS Villages (ACSOR),ATR-081,,0,ZBL-ATR-081,0,Pashto,2,1963.021973,31.69109,67.47469,ZBL,ATR,Sheglon Ghundey,2409,Atghar,????,Zabul,????,24
8748,8749,USAID AIDVillageView,ATR-001,,0,ZBL-ATR-001,0,Pashto,2,1820.208984,31.7195,67.2518,ZBL,ATR,Akhunzadah Kalay,2409,Atghar,????,Zabul,????,24
8749,8750,USAID AIDVillageView,ATR-002,,0,ZBL-ATR-002,0,Pashto,2,1794.963989,31.7423,67.2898,ZBL,ATR,Asilkhel Kalay,2409,Atghar,????,Zabul,????,24
8750,8751,USAID AIDVillageView,ATR-003,,0,ZBL-ATR-003,0,Pashto,2,1734.956055,31.683,67.2926,ZBL,ATR,Babor Ca Kalay,2409,Atghar,????,Zabul,????,24
8751,8752,USAID AIDVillageView,ATR-004,,0,ZBL-ATR-004,0,Pashto,2,1791.425049,31.6524,67.2914,ZBL,ATR,Durkhel,2409,Atghar,????,Zabul,????,24
8752,8753,USAID AIDVillageView,ATR-005,,0,ZBL-ATR-005,0,Pashto,2,1781.192017,31.6577,67.2932,ZBL,ATR,Enjer,2409,Atghar,????,Zabul,????,24
8753,8754,USAID AIDVillageView,ATR-006,,0,ZBL-ATR-006,0,Pashto,2,1855.567017,31.6486,67.305,ZBL,ATR,Lwar Enjer,2409,Atghar,????,Zabul,????,24
8754,8755,USAID AIDVillageView,ATR-007,,0,ZBL-ATR-007,0,Pashto,2,1854.019043,31.7357,67.2597,ZBL,ATR,Rasulkhel Kalay,2409,Atghar,????,Zabul,????,24
8755,8756,CSO AIMS Villages (ACSOR),ATR-064,,0,ZBL-ATR-064,0,Pashto,2,1830.659058,31.75788,67.31904,ZBL,ATR,Atghar (2),2409,Atghar,????,Zabul,????,24
8756,8757,CSO AIMS Villages (ACSOR),ATR-065,,0,ZBL-ATR-065,0,Pashto,2,1877.501953,31.6551,67.3204,ZBL,ATR,Bohara,2409,Atghar,????,Zabul,????,24
8757,8758,CSO AIMS Villages (ACSOR),ATR-066,,0,ZBL-ATR-066,0,Pashto,2,1790.927979,31.6767,67.33239,ZBL,ATR,Changi Kalay,2409,Atghar,????,Zabul,????,24
8758,8759,CSO AIMS Villages (ACSOR),ATR-073,,0,ZBL-ATR-073,0,Pashto,2,1856.848999,31.65739,67.42599,ZBL,ATR,Khodaydost Kalay,2409,Atghar,????,Zabul,????,24
8759,8760,CSO AIMS Villages (ACSOR),ATR-075,,0,ZBL-ATR-075,0,Pashto,2,1783.218994,31.6922,67.3615,ZBL,ATR,Masor Khel Kalay,2409,Atghar,????,Zabul,????,24
8760,8761,CSO AIMS Villages (ACSOR),ATR-076,,0,ZBL-ATR-076,0,Pashto,2,1804.161987,31.6826,67.40489,ZBL,ATR,Mulla Karim Kalay,2409,Atghar,????,Zabul,????,24
8764,8765,Yale POP_MASTER,SMZ-088,,0,ZBL-SMZ-088,39,Other,9,2004.411011,31.6903,67.5753,ZBL,SMZ,Badli,2410,Shomulzay,???????,Zabul,????,24
8765,8766,Yale POP_MASTER,SMZ-110,,0,ZBL-SMZ-110,156,Other,9,2146.539063,31.711,67.5645,ZBL,SMZ,Durani,2410,Shomulzay,???????,Zabul,????,24
8766,8767,Yale POP_MASTER,SMZ-189,,0,ZBL-SMZ-189,34,Other,9,2095.935059,31.6981,67.5542,ZBL,SMZ,Manduzay Kalay,2410,Shomulzay,???????,Zabul,????,24
8767,8768,Yale POP_MASTER,SMZ-254,,0,ZBL-SMZ-254,226,Other,9,1978.811035,31.6754,67.5561,ZBL,SMZ,Tangi Shinkay,2410,Shomulzay,???????,Zabul,????,24
8768,8769,Yale POP_MASTER,SNK-042,,0,ZBL-SNK-042,90,Other,9,1947.979004,31.8152,67.3678,ZBL,SNK,Allah Niya,2405,Shinkay,?????,Zabul,????,24
8769,8770,Yale POP_MASTER,SNK-090,,0,ZBL-SNK-090,167,Pashto,2,2190.409912,31.8561,67.2414,ZBL,SNK,Lur Khuni,2405,Shinkay,?????,Zabul,????,24
8770,8771,Yale POP_MASTER,ATR-009,,0,ZBL-ATR-009,552,Pashto,2,1803.657959,31.7188,67.3841,ZBL,ATR,Abdulah Khan,2409,Atghar,????,Zabul,????,24
8771,8772,Yale POP_MASTER,ATR-010,,0,ZBL-ATR-010,147,Pashto,2,1829.354004,31.7399,67.3626,ZBL,ATR,Alam Kariz,2409,Atghar,????,Zabul,????,24
8772,8773,Yale POP_MASTER,ATR-011,,0,ZBL-ATR-011,18,Pashto,2,2073.343018,31.7055,67.5043,ZBL,ATR,Alamu Kalay (raz Kalay ),2409,Atghar,????,Zabul,????,24
8773,8774,Yale POP_MASTER,ATR-012,,0,ZBL-ATR-012,355,Pashto,2,1848.275024,31.7524,67.4036,ZBL,ATR,Angori,2409,Atghar,????,Zabul,????,24
8774,8775,Yale POP_MASTER,ATR-015,,0,ZBL-ATR-015,164,Pashto,2,2050.698975,31.7577,67.5114,ZBL,ATR,Chagay,2409,Atghar,????,Zabul,????,24
8775,8776,Yale POP_MASTER,ATR-017,,0,ZBL-ATR-017,209,Other,9,1999.422974,31.7893,67.3217,ZBL,ATR,Chawki Abdulrahim,2409,Atghar,????,Zabul,????,24
8776,8777,Yale POP_MASTER,ATR-018,,0,ZBL-ATR-018,301,Pashto,2,1877.665039,31.7663,67.4325,ZBL,ATR,Cuhai Kalay,2409,Atghar,????,Zabul,????,24
8777,8778,Yale POP_MASTER,ATR-019,,0,ZBL-ATR-019,787,Pashto,2,1858.972046,31.7816,67.3939,ZBL,ATR,Daki Kalay,2409,Atghar,????,Zabul,????,24
8778,8779,Yale POP_MASTER,ATR-020,,0,ZBL-ATR-020,516,Pashto,2,1845.495972,31.7607,67.3556,ZBL,ATR,Diwanagi,2409,Atghar,????,Zabul,????,24
8779,8780,Yale POP_MASTER,ATR-022,,0,ZBL-ATR-022,240,Pashto,2,1996.810059,31.7374,67.4838,ZBL,ATR,Ghabargay Kalay,2409,Atghar,????,Zabul,????,24
8780,8781,Yale POP_MASTER,ATR-023,,0,ZBL-ATR-023,243,Pashto,2,1859.552002,31.785,67.411,ZBL,ATR,Ghorya Sah,2409,Atghar,????,Zabul,????,24
8781,8782,Yale POP_MASTER,ATR-025,,0,ZBL-ATR-025,117,Other,9,2004.550049,31.8023,67.3607,ZBL,ATR,Haji Payin,2409,Atghar,????,Zabul,????,24
8782,8783,Yale POP_MASTER,ATR-026,,0,ZBL-ATR-026,79,Other,9,2018.786987,31.6716,67.5248,ZBL,ATR,Ibrahim Mohammad Kalay,2409,Atghar,????,Zabul,????,24
8783,8784,Yale POP_MASTER,ATR-028,,0,ZBL-ATR-028,168,Pashto,2,1842.276978,31.7496,67.3498,ZBL,ATR,Jangal Kalay,2409,Atghar,????,Zabul,????,24
8784,8785,Yale POP_MASTER,ATR-030,,0,ZBL-ATR-030,168,Pashto,2,1825.38501,31.6921,67.4204,ZBL,ATR,Karaizgay Mohammad Ayub,2409,Atghar,????,Zabul,????,24
8785,8786,Yale POP_MASTER,ATR-031,,0,ZBL-ATR-031,197,Pashto,2,2032.697998,31.7536,67.5071,ZBL,ATR,Kariz Umar Khel,2409,Atghar,????,Zabul,????,24
8786,8787,Yale POP_MASTER,ATR-033,,0,ZBL-ATR-033,290,Pashto,2,1901.000977,31.6836,67.4629,ZBL,ATR,Kushta Shaglun,2409,Atghar,????,Zabul,????,24
8787,8788,Yale POP_MASTER,ATR-034,,0,ZBL-ATR-034,48,Other,9,2131.903076,31.702,67.5422,ZBL,ATR,Lanjara Kalay,2409,Atghar,????,Zabul,????,24
8788,8789,Yale POP_MASTER,ATR-038,,0,ZBL-ATR-038,97,Other,9,1927.016968,31.8068,67.3738,ZBL,ATR,Maru Kalay,2409,Atghar,????,Zabul,????,24
8789,8790,Yale POP_MASTER,ATR-039,,0,ZBL-ATR-039,170,Pashto,2,1939.161987,31.7594,67.4505,ZBL,ATR,Mohammad Kalay,2409,Atghar,????,Zabul,????,24
8790,8791,Yale POP_MASTER,ATR-041,,0,ZBL-ATR-041,170,Pashto,2,1830.765991,31.7314,67.3797,ZBL,ATR,Nalak Kalay,2409,Atghar,????,Zabul,????,24
8791,8792,Yale POP_MASTER,ATR-042,,0,ZBL-ATR-042,31,Pashto,2,2148.708984,31.7085,67.5164,ZBL,ATR,Nor Mohammad,2409,Atghar,????,Zabul,????,24
8792,8793,Yale POP_MASTER,ATR-045,,0,ZBL-ATR-045,175,Pashto,2,1940.827026,31.7248,67.4558,ZBL,ATR,Purta Karaiz Gay,2409,Atghar,????,Zabul,????,24
8793,8794,Yale POP_MASTER,ATR-046,,0,ZBL-ATR-046,100,Pashto,2,1995.534058,31.6838,67.4823,ZBL,ATR,Purta Shaglun,2409,Atghar,????,Zabul,????,24
8794,8795,Yale POP_MASTER,ATR-047,,0,ZBL-ATR-047,171,Other,9,1885.640991,31.7966,67.3853,ZBL,ATR,Qarya Nikan,2409,Atghar,????,Zabul,????,24
8795,8796,Yale POP_MASTER,ATR-052,,0,ZBL-ATR-052,625,Pashto,2,2155.188965,31.7355,67.5143,ZBL,ATR,Shmawan,2409,Atghar,????,Zabul,????,24
8796,8797,Yale POP_MASTER,ATR-054,,0,ZBL-ATR-054,353,Pashto,2,1896.870972,31.751,67.436,ZBL,ATR,Tahir Kalay,2409,Atghar,????,Zabul,????,24
8797,8798,Yale POP_MASTER,ATR-056,,0,ZBL-ATR-056,207,Pashto,2,1844.724976,31.7714,67.3825,ZBL,ATR,Turagha Kalay,2409,Atghar,????,Zabul,????,24
8798,8799,Yale POP_MASTER,ATR-060,,0,ZBL-ATR-060,144,Pashto,2,1836.939941,31.7639,67.3263,ZBL,ATR,Zam Kalay,2409,Atghar,????,Zabul,????,24
8799,8800,Yale POP_MASTER,ATR-061,,0,ZBL-ATR-061,187,Pashto,2,1829.552979,31.7528,67.3698,ZBL,ATR,Ziyarat Wardak Ha,2409,Atghar,????,Zabul,????,24
8800,8801,Yale POP_MASTER,ATR-008,,0,ZBL-ATR-008,175,Pashto,2,1796.754028,31.6865,67.3727,ZBL,ATR,Abdul Kalay,2409,Atghar,????,Zabul,????,24
8801,8802,Yale POP_MASTER,ATR-013,,0,ZBL-ATR-013,291,Pashto,2,1775.985962,31.7155,67.2629,ZBL,ATR,Atkhel,2409,Atghar,????,Zabul,????,24
8802,8803,Yale POP_MASTER,ATR-014,,0,ZBL-ATR-014,287,Pashto,2,1822.625977,31.7539,67.3162,ZBL,ATR,Bakar Kalay,2409,Atghar,????,Zabul,????,24
8803,8804,Yale POP_MASTER,ATR-016,,0,ZBL-ATR-016,587,Pashto,2,1787.142944,31.7173,67.3457,ZBL,ATR,Chashma Aho ( Ghundi ),2409,Atghar,????,Zabul,????,24
8804,8805,Yale POP_MASTER,ATR-021,,0,ZBL-ATR-021,188,Other,9,1831.26001,31.7406,67.3443,ZBL,ATR,Gar Kalay,2409,Atghar,????,Zabul,????,24
8805,8806,Yale POP_MASTER,ATR-024,,0,ZBL-ATR-024,214,Pashto,2,1817.19397,31.6953,67.4069,ZBL,ATR,Haji Mohammad Turk Kalay,2409,Atghar,????,Zabul,????,24
8806,8807,Yale POP_MASTER,ATR-032,,0,ZBL-ATR-032,289,Pashto,2,1806.383057,31.7481,67.3111,ZBL,ATR,Khuri Kalay,2409,Atghar,????,Zabul,????,24
8807,8808,Yale POP_MASTER,ATR-035,,0,ZBL-ATR-035,215,Pashto,2,1782.436035,31.6967,67.3722,ZBL,ATR,Lhari Kalay,2409,Atghar,????,Zabul,????,24
8808,8809,Yale POP_MASTER,ATR-037,,0,ZBL-ATR-037,0,Pashto,2,1828.963013,31.7332,67.3538,ZBL,ATR,Markaz Walluswaly,2409,Atghar,????,Zabul,????,24
8809,8810,Yale POP_MASTER,ATR-043,,0,ZBL-ATR-043,1393,Pashto,2,1853.281982,31.6627,67.3694,ZBL,ATR,Pashiy Kariz,2409,Atghar,????,Zabul,????,24
8810,8811,Yale POP_MASTER,ATR-044,,0,ZBL-ATR-044,757,Pashto,2,1818.296997,31.7215,67.3379,ZBL,ATR,Pitaw (chashma Aho ),2409,Atghar,????,Zabul,????,24
8811,8812,Yale POP_MASTER,ATR-048,,0,ZBL-ATR-048,210,Pashto,2,1815.887939,31.74,67.2817,ZBL,ATR,Rasi Khel,2409,Atghar,????,Zabul,????,24
8812,8813,Yale POP_MASTER,ATR-049,,0,ZBL-ATR-049,555,Pashto,2,1798.010986,31.7294,67.2714,ZBL,ATR,Rasul Khel,2409,Atghar,????,Zabul,????,24
8813,8814,Yale POP_MASTER,ATR-050,,0,ZBL-ATR-050,249,Pashto,2,1804.496948,31.7353,67.2743,ZBL,ATR,Salo Khel,2409,Atghar,????,Zabul,????,24
8814,8815,Yale POP_MASTER,ATR-053,,0,ZBL-ATR-053,118,Pashto,2,1782.189941,31.7097,67.2694,ZBL,ATR,Sur Khawari,2409,Atghar,????,Zabul,????,24
8815,8816,Yale POP_MASTER,ATR-055,,0,ZBL-ATR-055,236,Pashto,2,1808.572998,31.7464,67.3009,ZBL,ATR,Tati Kalay,2409,Atghar,????,Zabul,????,24
8816,8817,Yale POP_MASTER,ATR-059,,0,ZBL-ATR-059,92,Pashto,2,1808.496948,31.724,67.2667,ZBL,ATR,Zam Baizay,2409,Atghar,????,Zabul,????,24
8817,8818,Yale POP_MASTER,ATR-062,District,1,ZBL-ATR-062,809,Pashto,2,1833.261963,31.7327,67.3519,ZBL,ATR,Atghar (1),2409,Atghar,????,Zabul,????,24
8819,8820,USAID AIDVillageView,SNK-004,,0,ZBL-SNK-004,0,Pashto,2,2292.072998,32.1435,67.3357,ZBL,SNK,Ez Kalay,2405,Shinkay,?????,Zabul,????,24
8820,8821,USAID AIDVillageView,SNK-005,,0,ZBL-SNK-005,0,Pashto,2,1945.151978,31.9886,67.338,ZBL,SNK,Geru,2405,Shinkay,?????,Zabul,????,24
8821,8822,USAID AIDVillageView,SNK-006,,0,ZBL-SNK-006,0,Pashto,2,1938.53894,31.8552,67.4854,ZBL,SNK,Gharay,2405,Shinkay,?????,Zabul,????,24
8822,8823,USAID AIDVillageView,SNK-007,,0,ZBL-SNK-007,0,Pashto,2,1935.397949,31.8489,67.4533,ZBL,SNK,Heletu,2405,Shinkay,?????,Zabul,????,24
8823,8824,USAID AIDVillageView,SNK-012,,0,ZBL-SNK-012,0,Pashto,2,1878.537964,31.9569,67.2362,ZBL,SNK,Naburhu,2405,Shinkay,?????,Zabul,????,24
8824,8825,USAID AIDVillageView,SNK-014,,0,ZBL-SNK-014,0,Pashto,2,2161.937012,32.1438,67.3541,ZBL,SNK,Pirogi Kalay,2405,Shinkay,?????,Zabul,????,24
8825,8826,USAID AIDVillageView,SNK-015,,0,ZBL-SNK-015,0,Pashto,2,2271.051025,32.1352,67.3328,ZBL,SNK,Qalandarkhel Kalay,2405,Shinkay,?????,Zabul,????,24
8826,8827,USAID AIDVillageView,SNK-022,,0,ZBL-SNK-022,0,Pashto,2,2026.599976,31.9793,67.3601,ZBL,SNK,Wach Kalay,2405,Shinkay,?????,Zabul,????,24
8827,8828,CSO AIMS Villages (ACSOR),SNK-034,,0,ZBL-SNK-034,1226,Pashto,2,2048.150879,31.97399,67.37002,ZBL,SNK,Shah Alam Khel (1),2405,Shinkay,?????,Zabul,????,24
8828,8829,CSO AIMS Villages (ACSOR),QLT-124,,0,ZBL-QLT-124,0,Pashto,2,1850.232056,32.2507,67.24449,ZBL,QLT,Kareze Mirza,2401,Qalat,????,Zabul,????,24
8829,8830,CSO AIMS Villages (ACSOR),QLT-138,,0,ZBL-QLT-138,0,Pashto,2,1806.204956,32.24239,67.2222,ZBL,QLT,Narinak China,2401,Qalat,????,Zabul,????,24
8830,8831,CSO AIMS Villages (ACSOR),QLT-126,,0,ZBL-QLT-126,0,Pashto,2,1812.446045,32.2068,67.20589,ZBL,QLT,Karezgay (2),2401,Qalat,????,Zabul,????,24
8831,8832,CSO AIMS Villages (ACSOR),QLT-111,,0,ZBL-QLT-111,0,Pashto,2,1789.946045,32.214,67.1983,ZBL,QLT,Ebrahimkhel (1),2401,Qalat,????,Zabul,????,24
8832,8833,CSO AIMS Villages (ACSOR),QLT-107,,0,ZBL-QLT-107,0,Pashto,2,1858.656982,32.204,67.23319,ZBL,QLT,Amirjan Kalay,2401,Qalat,????,Zabul,????,24
8833,8834,CSO AIMS Villages (ACSOR),QLT-146,,0,ZBL-QLT-146,0,Pashto,2,1829.422974,32.1993,67.20679,ZBL,QLT,Suhay,2401,Qalat,????,Zabul,????,24
8834,8835,CSO AIMS Villages (ACSOR),QLT-108,,0,ZBL-QLT-108,0,Pashto,2,2103.304932,32.17449,67.2896,ZBL,QLT,Bar Kharoti,2401,Qalat,????,Zabul,????,24
8835,8836,CSO AIMS Villages (ACSOR),QLT-103,,0,ZBL-QLT-103,0,Pashto,2,1909.769043,32.2052,67.2636,ZBL,QLT,Abdulqader Kalay,2401,Qalat,????,Zabul,????,24
8836,8837,CSO AIMS Villages (ACSOR),QLT-141,,0,ZBL-QLT-141,0,Pashto,2,1838.618042,32.21659,67.2272,ZBL,QLT,Qanate Barakzay,2401,Qalat,????,Zabul,????,24
8837,8838,CSO AIMS Villages (ACSOR),QLT-129,,0,ZBL-QLT-129,0,Pashto,2,2158.116943,32.1652,67.28059,ZBL,QLT,Kharoti Kalay,2401,Qalat,????,Zabul,????,24
8838,8839,CSO AIMS Villages (ACSOR),QLT-136,,0,ZBL-QLT-136,0,Pashto,2,1868.230957,32.21009,67.24539,ZBL,QLT,Mohammad Nasim Kalay,2401,Qalat,????,Zabul,????,24
8839,8840,Yale POP_MASTER,NBR-027,,0,ZBL-NBR-027,521,Other,9,2050.979004,31.988,67.4768,ZBL,NBR,Babu Kalay,2411,Nawbahar,??????,Zabul,????,24
8840,8841,Yale POP_MASTER,NBR-078,,0,ZBL-NBR-078,488,Other,9,2066.822998,31.9873,67.4522,ZBL,NBR,Malku Zay,2411,Nawbahar,??????,Zabul,????,24
8841,8842,Yale POP_MASTER,SNK-038,,0,ZBL-SNK-038,86,Pashto,2,2060.253906,32.0815,67.3139,ZBL,SNK,Aini Bala,2405,Shinkay,?????,Zabul,????,24
8842,8843,Yale POP_MASTER,SNK-039,,0,ZBL-SNK-039,67,Pashto,2,1977.725952,32.0589,67.3031,ZBL,SNK,Aini Payin,2405,Shinkay,?????,Zabul,????,24
8843,8844,Yale POP_MASTER,SNK-043,,0,ZBL-SNK-043,336,Pashto,2,2048.181885,31.9573,67.3277,ZBL,SNK,Ashraf Khel,2405,Shinkay,?????,Zabul,????,24
8844,8845,Yale POP_MASTER,SNK-049,,0,ZBL-SNK-049,140,Pashto,2,2420.414063,32.1326,67.3048,ZBL,SNK,Band Kalay,2405,Shinkay,?????,Zabul,????,24
8845,8846,Yale POP_MASTER,SNK-055,,0,ZBL-SNK-055,559,Pashto,2,1975.436035,31.9699,67.3382,ZBL,SNK,Dagar Diyanu Kalay,2405,Shinkay,?????,Zabul,????,24
8846,8847,Yale POP_MASTER,SNK-058,,0,ZBL-SNK-058,64,Pashto,2,1891.470947,31.9076,67.1648,ZBL,SNK,Dost Nabi Kalay,2405,Shinkay,?????,Zabul,????,24
8847,8848,Yale POP_MASTER,SNK-062,,0,ZBL-SNK-062,141,Other,9,1981.407959,32.1385,67.4129,ZBL,SNK,Ghani Champar,2405,Shinkay,?????,Zabul,????,24
8848,8849,Yale POP_MASTER,SNK-064,,0,ZBL-SNK-064,71,Pashto,2,1934.858032,31.9819,67.3344,ZBL,SNK,Giro Kalay Ya Markaz Walluswaly,2405,Shinkay,?????,Zabul,????,24
8849,8850,Yale POP_MASTER,SNK-066,,0,ZBL-SNK-066,98,Pashto,2,2110.280029,32.086,67.2278,ZBL,SNK,Halim Kalay,2405,Shinkay,?????,Zabul,????,24
8850,8851,Yale POP_MASTER,SNK-067,,0,ZBL-SNK-067,237,Pashto,2,2095.274902,32.0497,67.2449,ZBL,SNK,Hamza Khel,2405,Shinkay,?????,Zabul,????,24
8851,8852,Yale POP_MASTER,SNK-070,,0,ZBL-SNK-070,295,Pashto,2,1882.067017,31.9506,67.246,ZBL,SNK,Juhi Kalay,2405,Shinkay,?????,Zabul,????,24
8852,8853,Yale POP_MASTER,SNK-071,,0,ZBL-SNK-071,130,Pashto,2,2301.251953,32.1353,67.3274,ZBL,SNK,Kabiri Kalay,2405,Shinkay,?????,Zabul,????,24
8853,8854,Yale POP_MASTER,SNK-074,,0,ZBL-SNK-074,316,Pashto,2,1929.266968,31.9448,67.2453,ZBL,SNK,Kariz Shaikh Yaqub,2405,Shinkay,?????,Zabul,????,24
8854,8855,Yale POP_MASTER,SNK-085,,0,ZBL-SNK-085,66,Pashto,2,2061.042969,32.0415,67.1868,ZBL,SNK,Kochani Makhi,2405,Shinkay,?????,Zabul,????,24
8855,8856,Yale POP_MASTER,SNK-089,,0,ZBL-SNK-089,246,Pashto,2,1920.916016,32.0481,67.3557,ZBL,SNK,Ludin Kalay,2405,Shinkay,?????,Zabul,????,24
8856,8857,Yale POP_MASTER,SNK-094,,0,ZBL-SNK-094,262,Other,9,2053.699951,32.0316,67.1782,ZBL,SNK,Luya Makhi,2405,Shinkay,?????,Zabul,????,24
8857,8858,Yale POP_MASTER,SNK-099,,0,ZBL-SNK-099,811,Pashto,2,1899.588013,31.973,67.2976,ZBL,SNK,Mandin Khel,2405,Shinkay,?????,Zabul,????,24
8858,8859,Yale POP_MASTER,SNK-105,,0,ZBL-SNK-105,410,Pashto,2,2125.479004,31.9742,67.418,ZBL,SNK,Nari Tui,2405,Shinkay,?????,Zabul,????,24
8859,8860,Yale POP_MASTER,SNK-110,,0,ZBL-SNK-110,127,Other,9,2269.654053,31.9764,67.1359,ZBL,SNK,Pangay Shamali,2405,Shinkay,?????,Zabul,????,24
8860,8861,Yale POP_MASTER,SNK-111,,0,ZBL-SNK-111,242,Pashto,2,2055.768066,32.1145,67.3746,ZBL,SNK,Pataw,2405,Shinkay,?????,Zabul,????,24
8861,8862,Yale POP_MASTER,SNK-115,,0,ZBL-SNK-115,78,Pashto,2,2103.101074,32.0783,67.2249,ZBL,SNK,Rab Kalay,2405,Shinkay,?????,Zabul,????,24
8862,8863,Yale POP_MASTER,SNK-118,,0,ZBL-SNK-118,420,Pashto,2,1995.562012,32.1404,67.4045,ZBL,SNK,Rughani,2405,Shinkay,?????,Zabul,????,24
8863,8864,Yale POP_MASTER,SNK-119,,0,ZBL-SNK-119,896,Pashto,2,2222.959961,32.1375,67.3437,ZBL,SNK,Rughani Tangi,2405,Shinkay,?????,Zabul,????,24
8864,8865,Yale POP_MASTER,SNK-122,,0,ZBL-SNK-122,1047,Pashto,2,1926.239014,31.913,67.2231,ZBL,SNK,Sapidar,2405,Shinkay,?????,Zabul,????,24
8865,8866,Yale POP_MASTER,SNK-123,,0,ZBL-SNK-123,1075,Pashto,2,1911.603027,31.9777,67.312,ZBL,SNK,Sayyido Kalay,2405,Shinkay,?????,Zabul,????,24
8866,8867,Yale POP_MASTER,SNK-125,,0,ZBL-SNK-125,625,Pashto,2,2026.249023,31.9964,67.3793,ZBL,SNK,Shah Hu Khel,2405,Shinkay,?????,Zabul,????,24
8867,8868,Yale POP_MASTER,SNK-126,,0,ZBL-SNK-126,895,Pashto,2,2133.903076,32.1012,67.2431,ZBL,SNK,Shahbaz Khel,2405,Shinkay,?????,Zabul,????,24
8868,8869,Yale POP_MASTER,SNK-134,,0,ZBL-SNK-134,1379,Pashto,2,2071.125977,31.9685,67.3746,ZBL,SNK,Shinkay Kalay,2405,Shinkay,?????,Zabul,????,24
8869,8870,Yale POP_MASTER,SNK-137,,0,ZBL-SNK-137,187,Pashto,2,2042.475952,31.9977,67.36,ZBL,SNK,Tamzayi,2405,Shinkay,?????,Zabul,????,24
8870,8871,Yale POP_MASTER,SNK-140,,0,ZBL-SNK-140,128,Pashto,2,2042.854004,31.9233,67.1496,ZBL,SNK,Umi Kalay,2405,Shinkay,?????,Zabul,????,24
8871,8872,Yale POP_MASTER,SNK-141,,0,ZBL-SNK-141,167,Pashto,2,1967.072998,31.9416,67.2716,ZBL,SNK,Wachkay Kalay,2405,Shinkay,?????,Zabul,????,24
8872,8873,Yale POP_MASTER,SNK-145,,0,ZBL-SNK-145,107,Pashto,2,1909.852051,32.0142,67.2814,ZBL,SNK,Wasti,2405,Shinkay,?????,Zabul,????,24
8873,8874,Yale POP_MASTER,SNK-147,,0,ZBL-SNK-147,65,Pashto,2,1910.600952,31.9452,67.2094,ZBL,SNK,Zalta,2405,Shinkay,?????,Zabul,????,24
8874,8875,Yale POP_MASTER,SNK-149,,0,ZBL-SNK-149,412,Pashto,2,1909.30896,32.027,67.3024,ZBL,SNK,Zara Qala,2405,Shinkay,?????,Zabul,????,24
8875,8876,Yale POP_MASTER,SNK-151,,0,ZBL-SNK-151,1347,Pashto,2,1936.276978,31.9811,67.3338,ZBL,SNK,Hokumate Shinkay,2405,Shinkay,?????,Zabul,????,24
8876,8877,Yale POP_MASTER,SNK-152,District,1,ZBL-SNK-152,750,Pashto,2,2077.810059,31.9671,67.3741,ZBL,SNK,Shinkay,2405,Shinkay,?????,Zabul,????,24
8877,8878,Yale POP_MASTER,QLT-099,,0,ZBL-QLT-099,250,Pashto,2,1789.119019,32.232,67.21,ZBL,QLT,Duri,2401,Qalat,????,Zabul,????,24
8878,8879,Yale POP_MASTER,QLT-101,,0,ZBL-QLT-101,400,Pashto,2,1844.967041,32.2,67.216,ZBL,QLT,Mollayan,2401,Qalat,????,Zabul,????,24
8879,8880,Yale POP_MASTER,QLT-049,,0,ZBL-QLT-049,167,Pashto,2,1935.897949,32.2207,67.2882,ZBL,QLT,Khunani,2401,Qalat,????,Zabul,????,24
8880,8881,Yale POP_MASTER,QLT-102,,0,ZBL-QLT-102,200,Pashto,2,1843.54895,32.24,67.247,ZBL,QLT,Mushmani,2401,Qalat,????,Zabul,????,24
8881,8882,Yale POP_MASTER,QLT-100,,0,ZBL-QLT-100,230,Pashto,2,1850.064941,32.221,67.241,ZBL,QLT,Qanat-e Mandi,2401,Qalat,????,Zabul,????,24
8882,8883,Yale POP_MASTER,SHJ-102,,0,ZBL-SHJ-102,581,Pashto,2,2197.49707,32.2012,67.3698,ZBL,SHJ,Kushta Sur Ghabarg,2406,Shahjoy,??? ???,Zabul,????,24
8883,8884,Yale POP_MASTER,SHJ-166,,0,ZBL-SHJ-166,55,Pashto,2,2190.016113,32.2089,67.3761,ZBL,SHJ,Sur Ghabarg,2406,Shahjoy,??? ???,Zabul,????,24
8884,8885,Yale POP_MASTER,SHJ-164,,0,ZBL-SHJ-164,498,Pashto,2,1976.857056,32.212,67.3056,ZBL,SHJ,Sorkhakan,2406,Shahjoy,??? ???,Zabul,????,24
8885,8886,Yale POP_MASTER,SHJ-086,,0,ZBL-SHJ-086,188,Pashto,2,1979.795044,32.2053,67.299,ZBL,SHJ,Kariz,2406,Shahjoy,??? ???,Zabul,????,24
8886,8887,Yale POP_MASTER,SHJ-167,,0,ZBL-SHJ-167,530,Pashto,2,2037.094971,32.2203,67.3286,ZBL,SHJ,Sur Tangi,2406,Shahjoy,??? ???,Zabul,????,24
8887,8888,USAID AIDVillageView,SMZ-001,,0,ZBL-SMZ-001,0,Pashto,2,2190.418945,31.9144,67.7388,ZBL,SMZ,Abazey,2410,Shomulzay,???????,Zabul,????,24
8888,8889,USAID AIDVillageView,SMZ-003,,0,ZBL-SMZ-003,0,Pashto,2,2111.738037,31.7411,67.8141,ZBL,SMZ,Baba Kere,2410,Shomulzay,???????,Zabul,????,24
8889,8890,USAID AIDVillageView,SMZ-005,,0,ZBL-SMZ-005,0,Pashto,2,2234.353027,31.8166,67.8311,ZBL,SMZ,Basha (2),2410,Shomulzay,???????,Zabul,????,24
8890,8891,USAID AIDVillageView,SMZ-006,,0,ZBL-SMZ-006,0,Pashto,2,2134.36499,32.0479,67.6972,ZBL,SMZ,Chambar (2),2410,Shomulzay,???????,Zabul,????,24
8891,8892,USAID AIDVillageView,SMZ-007,,0,ZBL-SMZ-007,0,Pashto,2,2163.080078,31.922,67.7052,ZBL,SMZ,Chawgay,2410,Shomulzay,???????,Zabul,????,24
8892,8893,USAID AIDVillageView,SMZ-009,,0,ZBL-SMZ-009,0,Pashto,2,2113.083984,31.7985,67.5606,ZBL,SMZ,China (1),2410,Shomulzay,???????,Zabul,????,24
8893,8894,USAID AIDVillageView,SMZ-013,,0,ZBL-SMZ-013,0,Pashto,2,1992.345947,31.8513,67.6339,ZBL,SMZ,Do Rodi,2410,Shomulzay,???????,Zabul,????,24
8894,8895,USAID AIDVillageView,SMZ-018,,0,ZBL-SMZ-018,0,Pashto,2,1965.020996,31.8355,67.5614,ZBL,SMZ,Ghbargay,2410,Shomulzay,???????,Zabul,????,24
8895,8896,USAID AIDVillageView,SMZ-019,,0,ZBL-SMZ-019,0,Pashto,2,2210.424072,32.0287,67.7486,ZBL,SMZ,Ghbargey Kalay,2410,Shomulzay,???????,Zabul,????,24
8896,8897,USAID AIDVillageView,SMZ-021,,0,ZBL-SMZ-021,0,Pashto,2,2207.047119,31.9616,68.0065,ZBL,SMZ,Haji Bayan Kalay,2410,Shomulzay,???????,Zabul,????,24
8897,8898,USAID AIDVillageView,SMZ-025,,0,ZBL-SMZ-025,0,Pashto,2,2031.46106,31.9013,67.5916,ZBL,SMZ,Katley,2410,Shomulzay,???????,Zabul,????,24
8898,8899,USAID AIDVillageView,SMZ-028,,0,ZBL-SMZ-028,0,Pashto,2,2060.832031,31.8726,67.5464,ZBL,SMZ,Khwaja Khel,2410,Shomulzay,???????,Zabul,????,24
8899,8900,USAID AIDVillageView,SMZ-032,,0,ZBL-SMZ-032,0,Pashto,2,2211.035889,31.9541,68.0012,ZBL,SMZ,Mohammad Yar Kalay,2410,Shomulzay,???????,Zabul,????,24
8900,8901,USAID AIDVillageView,SMZ-036,,0,ZBL-SMZ-036,0,Pashto,2,2200.400879,31.9444,67.9889,ZBL,SMZ,Orghumikal,2410,Shomulzay,???????,Zabul,????,24
8901,8902,USAID AIDVillageView,SMZ-038,,0,ZBL-SMZ-038,0,Pashto,2,2363.266113,31.955,67.8836,ZBL,SMZ,Purshey,2410,Shomulzay,???????,Zabul,????,24
8902,8903,USAID AIDVillageView,SMZ-041,,0,ZBL-SMZ-041,0,Pashto,2,2098.947998,31.7933,67.5446,ZBL,SMZ,Shamali Esmailay,2410,Shomulzay,???????,Zabul,????,24
8903,8904,USAID AIDVillageView,SMZ-043,,0,ZBL-SMZ-043,0,Pashto,2,2354.535889,32.0264,67.8117,ZBL,SMZ,Sine Kalay,2410,Shomulzay,???????,Zabul,????,24
8904,8905,USAID AIDVillageView,SMZ-045,,0,ZBL-SMZ-045,0,Pashto,2,2344.688965,31.9869,67.9534,ZBL,SMZ,Tangay(1),2410,Shomulzay,???????,Zabul,????,24
8905,8906,USAID AIDVillageView,SMZ-046,,0,ZBL-SMZ-046,0,Pashto,2,2130.947998,31.8066,67.6264,ZBL,SMZ,Teleray,2410,Shomulzay,???????,Zabul,????,24
8906,8907,USAID AIDVillageView,SMZ-047,,0,ZBL-SMZ-047,0,Pashto,2,2208.740967,31.9659,68.0172,ZBL,SMZ,Terhe Kalay,2410,Shomulzay,???????,Zabul,????,24
8907,8908,USAID AIDVillageView,SMZ-048,,0,ZBL-SMZ-048,0,Pashto,2,2084.204102,31.801,67.5678,ZBL,SMZ,Wechkalay,2410,Shomulzay,???????,Zabul,????,24
8908,8909,USAID AIDVillageView,SMZ-049,,0,ZBL-SMZ-049,0,Pashto,2,2340.87793,31.9622,67.8945,ZBL,SMZ,Wulgey,2410,Shomulzay,???????,Zabul,????,24
8909,8910,CSO AIMS Villages (ACSOR),SMZ-052,,0,ZBL-SMZ-052,28,Pashto,2,2407.455078,31.99531,67.83703,ZBL,SMZ,Akhtar Chawgay,2410,Shomulzay,???????,Zabul,????,24
8910,8911,CSO AIMS Villages (ACSOR),SMZ-053,,0,ZBL-SMZ-053,164,Pashto,2,2213.51001,31.93616,67.72853,ZBL,SMZ,Ambar Tangi Shabargay,2410,Shomulzay,???????,Zabul,????,24
8911,8912,CSO AIMS Villages (ACSOR),SMZ-054,,0,ZBL-SMZ-054,0,Pashto,2,2152.048096,31.81332,67.80331,ZBL,SMZ,Ambargay,2410,Shomulzay,???????,Zabul,????,24
8912,8913,CSO AIMS Villages (ACSOR),SMZ-055,,0,ZBL-SMZ-055,34,Pashto,2,2163.726074,31.8162,67.80327,ZBL,SMZ,Baba Kari,2410,Shomulzay,???????,Zabul,????,24
8913,8914,CSO AIMS Villages (ACSOR),SMZ-057,,0,ZBL-SMZ-057,0,Pashto,2,2128.118896,31.88687,67.89806,ZBL,SMZ,China (2),2410,Shomulzay,???????,Zabul,????,24
8914,8915,CSO AIMS Villages (ACSOR),SMZ-058,,0,ZBL-SMZ-058,0,Pashto,2,2024.275024,31.90589,67.5882,ZBL,SMZ,China (5),2410,Shomulzay,???????,Zabul,????,24
8915,8916,CSO AIMS Villages (ACSOR),SMZ-059,,0,ZBL-SMZ-059,0,Pashto,2,2089.486084,31.73632,67.61991,ZBL,SMZ,Gaday,2410,Shomulzay,???????,Zabul,????,24
8916,8917,CSO AIMS Villages (ACSOR),SMZ-060,,0,ZBL-SMZ-060,29,Pashto,2,2465.537109,31.98432,67.82423,ZBL,SMZ,Ghabargay,2410,Shomulzay,???????,Zabul,????,24
8917,8918,CSO AIMS Villages (ACSOR),SMZ-061,,0,ZBL-SMZ-061,158,Pashto,2,2055.841064,31.89794,67.61826,ZBL,SMZ,Jangi Khel,2410,Shomulzay,???????,Zabul,????,24
8918,8919,CSO AIMS Villages (ACSOR),SMZ-062,,0,ZBL-SMZ-062,0,Pashto,2,2054.282959,32.03249,67.63589,ZBL,SMZ,Kala,2410,Shomulzay,???????,Zabul,????,24
8919,8920,CSO AIMS Villages (ACSOR),SMZ-064,,0,ZBL-SMZ-064,50,Pashto,2,2424.1521,31.99155,67.90011,ZBL,SMZ,Kariz (1),2410,Shomulzay,???????,Zabul,????,24
8920,8921,CSO AIMS Villages (ACSOR),SMZ-065,,0,ZBL-SMZ-065,108,Pashto,2,2083.576904,31.90522,67.64754,ZBL,SMZ,Kariz (2),2410,Shomulzay,???????,Zabul,????,24
8921,8922,CSO AIMS Villages (ACSOR),SMZ-066,,0,ZBL-SMZ-066,0,Pashto,2,2160.522949,32.04349,67.7363,ZBL,SMZ,Myanj Kalay,2410,Shomulzay,???????,Zabul,????,24
8922,8923,CSO AIMS Villages (ACSOR),SMZ-068,,0,ZBL-SMZ-068,0,Pashto,2,2155.749023,31.90224,67.83185,ZBL,SMZ,Shashpey,2410,Shomulzay,???????,Zabul,????,24
8923,8924,CSO AIMS Villages (ACSOR),SMZ-070,,0,ZBL-SMZ-070,0,Pashto,2,2319.61499,31.96094,67.92861,ZBL,SMZ,Tangay (2),2410,Shomulzay,???????,Zabul,????,24
8924,8925,USAID AIDVillageView,SNK-011,,0,ZBL-SNK-011,0,Pashto,2,1995.604004,31.8166,67.5049,ZBL,SNK,Mohammad Kalay (2),2405,Shinkay,?????,Zabul,????,24
8925,8926,CSO AIMS Villages (ACSOR),ATR-070,,0,ZBL-ATR-070,0,Pashto,2,2111.602051,31.76839,67.53124,ZBL,ATR,Gharbi Warghar,2409,Atghar,????,Zabul,????,24
8926,8927,CSO AIMS Villages (ACSOR),ATR-080,,0,ZBL-ATR-080,0,Pashto,2,2232.977051,31.76398,67.54573,ZBL,ATR,Sharqi Warghar,2409,Atghar,????,Zabul,????,24
8927,8928,Yale POP_MASTER,NBR-032,,0,ZBL-NBR-032,146,Other,9,2021.662964,32.0287,67.5702,ZBL,NBR,Chatri,2411,Nawbahar,??????,Zabul,????,24
8928,8929,Yale POP_MASTER,NBR-035,,0,ZBL-NBR-035,78,Other,9,2083.312012,31.9585,67.515,ZBL,NBR,Da Bulbuli Aw Kazh Kay,2411,Nawbahar,??????,Zabul,????,24
8929,8930,Yale POP_MASTER,NBR-044,,0,ZBL-NBR-044,221,Pashto,2,2023.212036,32.0219,67.5874,ZBL,NBR,Ghandan Sultan Zay,2411,Nawbahar,??????,Zabul,????,24
8930,8931,Yale POP_MASTER,NBR-070,,0,ZBL-NBR-070,50,Other,9,2078.740967,31.9679,67.5389,ZBL,NBR,Landay Kalay,2411,Nawbahar,??????,Zabul,????,24
8931,8932,Yale POP_MASTER,NBR-087,,0,ZBL-NBR-087,114,Other,9,2041.063965,31.9736,67.5338,ZBL,NBR,Nabar Hu,2411,Nawbahar,??????,Zabul,????,24
8932,8933,Yale POP_MASTER,SMZ-073,,0,ZBL-SMZ-073,125,Pashto,2,2046.987061,31.9697,67.5918,ZBL,SMZ,Abas Khel,2410,Shomulzay,???????,Zabul,????,24
8933,8934,Yale POP_MASTER,SMZ-074,,0,ZBL-SMZ-074,273,Pashto,2,2220.729004,31.9292,67.7587,ZBL,SMZ,Abazi,2410,Shomulzay,???????,Zabul,????,24
8934,8935,Yale POP_MASTER,SMZ-076,,0,ZBL-SMZ-076,207,Pashto,2,2158.950928,31.7988,67.947,ZBL,SMZ,Adam Cha,2410,Shomulzay,???????,Zabul,????,24
8935,8936,Yale POP_MASTER,SMZ-077,,0,ZBL-SMZ-077,167,Pashto,2,2142.365967,31.7875,67.8672,ZBL,SMZ,Adin China,2410,Shomulzay,???????,Zabul,????,24
8936,8937,Yale POP_MASTER,SMZ-078,,0,ZBL-SMZ-078,57,Pashto,2,1997.36499,31.857,67.6255,ZBL,SMZ,Aduzay,2410,Shomulzay,???????,Zabul,????,24
8937,8938,Yale POP_MASTER,SMZ-079,,0,ZBL-SMZ-079,55,Pashto,2,2038.807983,31.8941,67.5693,ZBL,SMZ,Akhund Kalay,2410,Shomulzay,???????,Zabul,????,24
8938,8939,Yale POP_MASTER,SMZ-080,,0,ZBL-SMZ-080,145,Pashto,2,2097.008057,31.7788,67.7826,ZBL,SMZ,Alam China Darwazagay,2410,Shomulzay,???????,Zabul,????,24
8939,8940,Yale POP_MASTER,SMZ-082,,0,ZBL-SMZ-082,48,Pashto,2,2141.337891,31.9185,67.6882,ZBL,SMZ,Alamuddin,2410,Shomulzay,???????,Zabul,????,24
8940,8941,Yale POP_MASTER,SMZ-083,,0,ZBL-SMZ-083,117,Pashto,2,2203.9729,31.9055,67.7261,ZBL,SMZ,Ali Khel,2410,Shomulzay,???????,Zabul,????,24
8941,8942,Yale POP_MASTER,SMZ-085,,0,ZBL-SMZ-085,74,Pashto,2,2008.43103,31.8358,67.6628,ZBL,SMZ,Atuzay,2410,Shomulzay,???????,Zabul,????,24
8942,8943,Yale POP_MASTER,SMZ-087,,0,ZBL-SMZ-087,140,Pashto,2,2085.657959,31.924,67.6267,ZBL,SMZ,Babur,2410,Shomulzay,???????,Zabul,????,24
8943,8944,Yale POP_MASTER,SMZ-089,,0,ZBL-SMZ-089,242,Pashto,2,2128.040039,32.0546,67.7137,ZBL,SMZ,Bahai Jambar,2410,Shomulzay,???????,Zabul,????,24
8944,8945,Yale POP_MASTER,SMZ-090,,0,ZBL-SMZ-090,81,Pashto,2,2066.962891,31.8138,67.6525,ZBL,SMZ,Bakhtar,2410,Shomulzay,???????,Zabul,????,24
8945,8946,Yale POP_MASTER,SMZ-092,,0,ZBL-SMZ-092,59,Pashto,2,2366.066895,32.0291,67.8857,ZBL,SMZ,Bar Kalay,2410,Shomulzay,???????,Zabul,????,24
8946,8947,Yale POP_MASTER,SMZ-095,,0,ZBL-SMZ-095,200,Pashto,2,2274.865967,31.9431,67.9185,ZBL,SMZ,Bos Khel Wala,2410,Shomulzay,???????,Zabul,????,24
8947,8948,Yale POP_MASTER,SMZ-096,,0,ZBL-SMZ-096,139,Pashto,2,2159.089111,31.8977,67.7768,ZBL,SMZ,Bostan,2410,Shomulzay,???????,Zabul,????,24
8948,8949,Yale POP_MASTER,SMZ-098,,0,ZBL-SMZ-098,28,Pashto,2,2230.573975,31.9868,67.7344,ZBL,SMZ,Chambar (1),2410,Shomulzay,???????,Zabul,????,24
8949,8950,Yale POP_MASTER,SMZ-100,,0,ZBL-SMZ-100,170,Pashto,2,2163.282959,31.9822,67.7066,ZBL,SMZ,Charu Khel,2410,Shomulzay,???????,Zabul,????,24
8950,8951,Yale POP_MASTER,SMZ-102,,0,ZBL-SMZ-102,123,Pashto,2,2076.177002,31.8759,67.679,ZBL,SMZ,Chungay,2410,Shomulzay,???????,Zabul,????,24
8951,8952,Yale POP_MASTER,SMZ-103,,0,ZBL-SMZ-103,38,Pashto,2,2361.305908,31.9459,67.842,ZBL,SMZ,Dadi Kalay,2410,Shomulzay,???????,Zabul,????,24
8952,8953,Yale POP_MASTER,SMZ-104,,0,ZBL-SMZ-104,134,Pashto,2,2104.766113,31.8852,67.6026,ZBL,SMZ,Dahilay Khuda Dad,2410,Shomulzay,???????,Zabul,????,24
8953,8954,Yale POP_MASTER,SMZ-109,,0,ZBL-SMZ-109,47,Pashto,2,2054.89502,32.0488,67.6385,ZBL,SMZ,Diwalgay,2410,Shomulzay,???????,Zabul,????,24
8954,8955,Yale POP_MASTER,SMZ-111,,0,ZBL-SMZ-111,13,Pashto,2,2207.531982,31.7466,67.5639,ZBL,SMZ,Durani,2410,Shomulzay,???????,Zabul,????,24
8955,8956,Yale POP_MASTER,SMZ-112,,0,ZBL-SMZ-112,56,Pashto,2,2022.781982,31.9032,67.5665,ZBL,SMZ,Duzak Kalay,2410,Shomulzay,???????,Zabul,????,24
8956,8957,Yale POP_MASTER,SMZ-118,,0,ZBL-SMZ-118,242,Pashto,2,2082.968018,31.814,67.6349,ZBL,SMZ,Ghat Baso Khel,2410,Shomulzay,???????,Zabul,????,24
8957,8958,Yale POP_MASTER,SMZ-119,,0,ZBL-SMZ-119,39,Pashto,2,2420.834961,31.9875,67.8934,ZBL,SMZ,Ghat Kalay,2410,Shomulzay,???????,Zabul,????,24
8958,8959,Yale POP_MASTER,SMZ-120,,0,ZBL-SMZ-120,55,Pashto,2,2185.207031,31.9053,67.8166,ZBL,SMZ,Ghat Spina,2410,Shomulzay,???????,Zabul,????,24
8959,8960,Yale POP_MASTER,SMZ-122,,0,ZBL-SMZ-122,105,Pashto,2,2429.060059,31.9624,67.8227,ZBL,SMZ,Ghuji Umarzayi,2410,Shomulzay,???????,Zabul,????,24
8960,8961,Yale POP_MASTER,SMZ-123,,0,ZBL-SMZ-123,27,Pashto,2,2388.906006,31.9823,67.9156,ZBL,SMZ,Ghuzhi Basu Khel,2410,Shomulzay,???????,Zabul,????,24
8961,8962,Yale POP_MASTER,SMZ-124,,0,ZBL-SMZ-124,143,Pashto,2,2060.394043,31.8824,67.5665,ZBL,SMZ,Girdi Tughi,2410,Shomulzay,???????,Zabul,????,24
8962,8963,Yale POP_MASTER,SMZ-125,,0,ZBL-SMZ-125,263,Pashto,2,2091.021973,31.8758,67.7751,ZBL,SMZ,Gulistan,2410,Shomulzay,???????,Zabul,????,24
8963,8964,Yale POP_MASTER,SMZ-126,,0,ZBL-SMZ-126,50,Pashto,2,2171.650879,31.8096,67.9064,ZBL,SMZ,Habib China,2410,Shomulzay,???????,Zabul,????,24
8964,8965,Yale POP_MASTER,SMZ-130,,0,ZBL-SMZ-130,208,Pashto,2,2405.260986,31.97,67.8159,ZBL,SMZ,Haji Lalu Kalay,2410,Shomulzay,???????,Zabul,????,24
8965,8966,Yale POP_MASTER,SMZ-134,,0,ZBL-SMZ-134,61,Pashto,2,2095.699951,31.8788,67.8322,ZBL,SMZ,Harifan,2410,Shomulzay,???????,Zabul,????,24
8966,8967,Yale POP_MASTER,SMZ-135,,0,ZBL-SMZ-135,27,Pashto,2,2035.521973,31.8202,67.72,ZBL,SMZ,Hazrat Ali,2410,Shomulzay,???????,Zabul,????,24
8967,8968,Yale POP_MASTER,SMZ-138,,0,ZBL-SMZ-138,149,Pashto,2,2138.989014,31.8938,67.9016,ZBL,SMZ,Hutak China,2410,Shomulzay,???????,Zabul,????,24
8968,8969,Yale POP_MASTER,SMZ-141,,0,ZBL-SMZ-141,112,Pashto,2,2109.553955,31.999,67.6799,ZBL,SMZ,Isa Khel,2410,Shomulzay,???????,Zabul,????,24
8969,8970,Yale POP_MASTER,SMZ-143,,0,ZBL-SMZ-143,144,Pashto,2,2101.125977,31.7247,67.5761,ZBL,SMZ,Ismail Wala,2410,Shomulzay,???????,Zabul,????,24
8970,8971,Yale POP_MASTER,SMZ-144,,0,ZBL-SMZ-144,78,Pashto,2,2232.428955,31.7868,67.5642,ZBL,SMZ,Ismaili,2410,Shomulzay,???????,Zabul,????,24
8971,8972,Yale POP_MASTER,SMZ-145,,0,ZBL-SMZ-145,205,Pashto,2,2050.406006,32.0387,67.628,ZBL,SMZ,Jahangir,2410,Shomulzay,???????,Zabul,????,24
8972,8973,Yale POP_MASTER,SMZ-146,,0,ZBL-SMZ-146,87,Pashto,2,2162.898926,31.9086,67.7117,ZBL,SMZ,Jamal Kariz,2410,Shomulzay,???????,Zabul,????,24
8973,8974,Yale POP_MASTER,SMZ-148,,0,ZBL-SMZ-148,23,Pashto,2,2019.418945,31.8638,67.6404,ZBL,SMZ,Janusi,2410,Shomulzay,???????,Zabul,????,24
8974,8975,Yale POP_MASTER,SMZ-149,,0,ZBL-SMZ-149,129,Pashto,2,2094.361084,31.8916,67.6839,ZBL,SMZ,Jarki,2410,Shomulzay,???????,Zabul,????,24
8975,8976,Yale POP_MASTER,SMZ-150,,0,ZBL-SMZ-150,95,Pashto,2,2362.060059,31.948,67.8711,ZBL,SMZ,Jib Khel ( Jalga Ya Farsi ),2410,Shomulzay,???????,Zabul,????,24
8976,8977,Yale POP_MASTER,SMZ-151,,0,ZBL-SMZ-151,22,Pashto,2,2056.207031,31.7204,67.6096,ZBL,SMZ,Jinab Ismail,2410,Shomulzay,???????,Zabul,????,24
8977,8978,Yale POP_MASTER,SMZ-152,,0,ZBL-SMZ-152,95,Pashto,2,2064.199951,31.7134,67.5825,ZBL,SMZ,Junubi Wala,2410,Shomulzay,???????,Zabul,????,24
8978,8979,Yale POP_MASTER,SMZ-153,,0,ZBL-SMZ-153,88,Pashto,2,2124.708008,31.9314,67.6679,ZBL,SMZ,Kadi Khel,2410,Shomulzay,???????,Zabul,????,24
8979,8980,Yale POP_MASTER,SMZ-155,,0,ZBL-SMZ-155,63,Pashto,2,2233.430908,31.9187,67.7864,ZBL,SMZ,Kakari,2410,Shomulzay,???????,Zabul,????,24
8980,8981,Yale POP_MASTER,SMZ-156,,0,ZBL-SMZ-156,200,Pashto,2,1972.453979,31.8404,67.5809,ZBL,SMZ,Kala Qala,2410,Shomulzay,???????,Zabul,????,24
8981,8982,Yale POP_MASTER,SMZ-161,,0,ZBL-SMZ-161,139,Pashto,2,2049.008057,32.0441,67.6241,ZBL,SMZ,Kandi,2410,Shomulzay,???????,Zabul,????,24
8982,8983,Yale POP_MASTER,SMZ-162,,0,ZBL-SMZ-162,24,Pashto,2,2414.816895,31.9758,67.8756,ZBL,SMZ,Kanki,2410,Shomulzay,???????,Zabul,????,24
8983,8984,Yale POP_MASTER,SMZ-164,,0,ZBL-SMZ-164,154,Pashto,2,2461.787109,31.9662,67.8588,ZBL,SMZ,Kariz Yosuf Zay,2410,Shomulzay,???????,Zabul,????,24
8984,8985,Yale POP_MASTER,SMZ-165,,0,ZBL-SMZ-165,20,Pashto,2,2102.39502,31.7313,67.5926,ZBL,SMZ,Karizgay,2410,Shomulzay,???????,Zabul,????,24
8985,8986,Yale POP_MASTER,SMZ-166,,0,ZBL-SMZ-166,172,Pashto,2,2119.949951,31.7774,67.7125,ZBL,SMZ,Karmi Kughi,2410,Shomulzay,???????,Zabul,????,24
8986,8987,Yale POP_MASTER,SMZ-168,,0,ZBL-SMZ-168,90,Pashto,2,2043.055054,31.868,67.6672,ZBL,SMZ,Khalil Kalay,2410,Shomulzay,???????,Zabul,????,24
8987,8988,Yale POP_MASTER,SMZ-169,,0,ZBL-SMZ-169,34,Pashto,2,2089.981934,31.7003,67.6922,ZBL,SMZ,Khan Kalay,2410,Shomulzay,???????,Zabul,????,24
8988,8989,Yale POP_MASTER,SMZ-170,,0,ZBL-SMZ-170,65,Pashto,2,2072.040039,31.7193,67.5878,ZBL,SMZ,Khulgay,2410,Shomulzay,???????,Zabul,????,24
8989,8990,Yale POP_MASTER,SMZ-171,,0,ZBL-SMZ-171,106,Pashto,2,2375.61499,31.9459,67.8492,ZBL,SMZ,Khuram Kalay,2410,Shomulzay,???????,Zabul,????,24
8990,8991,Yale POP_MASTER,SMZ-172,,0,ZBL-SMZ-172,61,Pashto,2,2125.589111,31.9748,67.6674,ZBL,SMZ,Khusti,2410,Shomulzay,???????,Zabul,????,24
8991,8992,Yale POP_MASTER,SMZ-174,,0,ZBL-SMZ-174,52,Pashto,2,2183.337891,31.9107,67.9055,ZBL,SMZ,Kokajee,2410,Shomulzay,???????,Zabul,????,24
8992,8993,Yale POP_MASTER,SMZ-175,,0,ZBL-SMZ-175,58,Pashto,2,2142.322021,32.0078,67.7078,ZBL,SMZ,Kormi,2410,Shomulzay,???????,Zabul,????,24
8993,8994,Yale POP_MASTER,SMZ-176,,0,ZBL-SMZ-176,124,Pashto,2,2255.476074,31.9301,67.8079,ZBL,SMZ,Kuchni Spina,2410,Shomulzay,???????,Zabul,????,24
8994,8995,Yale POP_MASTER,SMZ-178,,0,ZBL-SMZ-178,49,Pashto,2,2207.962891,31.9143,67.8282,ZBL,SMZ,Lagat,2410,Shomulzay,???????,Zabul,????,24
8995,8996,Yale POP_MASTER,SMZ-179,,0,ZBL-SMZ-179,27,Pashto,2,2178.13501,31.7686,67.6264,ZBL,SMZ,Lakri,2410,Shomulzay,???????,Zabul,????,24
8996,8997,Yale POP_MASTER,SMZ-180,,0,ZBL-SMZ-180,54,Pashto,2,2380.60791,31.9796,67.9218,ZBL,SMZ,Lamar Khizi,2410,Shomulzay,???????,Zabul,????,24
8997,8998,Yale POP_MASTER,SMZ-181,,0,ZBL-SMZ-181,99,Pashto,2,2032.253052,31.8341,67.6303,ZBL,SMZ,Liwani Kalay,2410,Shomulzay,???????,Zabul,????,24
8998,8999,Yale POP_MASTER,SMZ-182,,0,ZBL-SMZ-182,116,Pashto,2,2060.366943,32.0134,67.6358,ZBL,SMZ,Ludin Kalay,2410,Shomulzay,???????,Zabul,????,24
8999,9000,Yale POP_MASTER,SMZ-183,,0,ZBL-SMZ-183,35,Pashto,2,2114.343994,31.7976,67.6808,ZBL,SMZ,Luwar Tari,2410,Shomulzay,???????,Zabul,????,24
9000,9001,Yale POP_MASTER,SMZ-184,,0,ZBL-SMZ-184,434,Pashto,2,2080.471924,32.0058,67.6534,ZBL,SMZ,Luy Kalay,2410,Shomulzay,???????,Zabul,????,24
9001,9002,Yale POP_MASTER,SMZ-185,,0,ZBL-SMZ-185,161,Pashto,2,2310.105957,31.9414,67.7983,ZBL,SMZ,Luy Spina,2410,Shomulzay,???????,Zabul,????,24
9002,9003,Yale POP_MASTER,SMZ-186,,0,ZBL-SMZ-186,82,Pashto,2,2169.001953,31.8109,67.9662,ZBL,SMZ,Luya China,2410,Shomulzay,???????,Zabul,????,24
9003,9004,Yale POP_MASTER,SMZ-188,,0,ZBL-SMZ-188,56,Pashto,2,2219.750977,31.7441,67.5548,ZBL,SMZ,Manduzay,2410,Shomulzay,???????,Zabul,????,24
9004,9005,Yale POP_MASTER,SMZ-190,,0,ZBL-SMZ-190,167,Pashto,2,2329.489014,32.0464,67.8814,ZBL,SMZ,Manjakay,2410,Shomulzay,???????,Zabul,????,24
9005,9006,Yale POP_MASTER,SMZ-191,,0,ZBL-SMZ-191,70,Pashto,2,2130.541992,31.9962,67.6945,ZBL,SMZ,Manjar Khel,2410,Shomulzay,???????,Zabul,????,24
9006,9007,Yale POP_MASTER,SMZ-192,,0,ZBL-SMZ-192,0,Pashto,2,2059.738037,31.9,67.6228,ZBL,SMZ,Markaz Waluswally Shamulzayi,2410,Shomulzay,???????,Zabul,????,24
9007,9008,Yale POP_MASTER,SMZ-193,,0,ZBL-SMZ-193,58,Pashto,2,2075.639893,31.8711,67.8158,ZBL,SMZ,Mili Khel,2410,Shomulzay,???????,Zabul,????,24
9008,9009,Yale POP_MASTER,SMZ-194,,0,ZBL-SMZ-194,206,Pashto,2,2160.50708,31.7991,67.8845,ZBL,SMZ,Miyan China Jangi,2410,Shomulzay,???????,Zabul,????,24
9009,9010,Yale POP_MASTER,SMZ-195,,0,ZBL-SMZ-195,72,Pashto,2,2138.821045,31.8897,67.9164,ZBL,SMZ,Mullah Nik Nazar,2410,Shomulzay,???????,Zabul,????,24
9010,9011,Yale POP_MASTER,SMZ-196,,0,ZBL-SMZ-196,26,Pashto,2,2121.441895,31.8114,67.5993,ZBL,SMZ,Mullah Sar Tur Shila,2410,Shomulzay,???????,Zabul,????,24
9011,9012,Yale POP_MASTER,SMZ-197,,0,ZBL-SMZ-197,208,Pashto,2,2234.506104,31.935,67.9546,ZBL,SMZ,Mullah Yan,2410,Shomulzay,???????,Zabul,????,24
9012,9013,Yale POP_MASTER,SMZ-199,,0,ZBL-SMZ-199,35,Pashto,2,2248.820068,31.9606,67.9748,ZBL,SMZ,Nali Dali Sakhri,2410,Shomulzay,???????,Zabul,????,24
9013,9014,Yale POP_MASTER,SMZ-200,,0,ZBL-SMZ-200,110,Pashto,2,2120.595947,31.927,67.6626,ZBL,SMZ,Nasrullah Khel,2410,Shomulzay,???????,Zabul,????,24
9014,9015,Yale POP_MASTER,SMZ-201,,0,ZBL-SMZ-201,189,Pashto,2,2374.137939,32.0032,67.8287,ZBL,SMZ,Nasu Zay,2410,Shomulzay,???????,Zabul,????,24
9015,9016,Yale POP_MASTER,SMZ-202,,0,ZBL-SMZ-202,116,Pashto,2,2061.596924,31.809,67.5742,ZBL,SMZ,Natwali,2410,Shomulzay,???????,Zabul,????,24
9016,9017,Yale POP_MASTER,SMZ-203,,0,ZBL-SMZ-203,41,Pashto,2,2174.124023,31.8131,67.8186,ZBL,SMZ,Niyazmand,2410,Shomulzay,???????,Zabul,????,24
9017,9018,Yale POP_MASTER,SMZ-204,,0,ZBL-SMZ-204,167,Pashto,2,2135.266113,31.7399,67.591,ZBL,SMZ,Noor Khan Khel,2410,Shomulzay,???????,Zabul,????,24
9018,9019,Yale POP_MASTER,SMZ-205,,0,ZBL-SMZ-205,66,Pashto,2,2056.656982,32.027,67.6356,ZBL,SMZ,Papi,2410,Shomulzay,???????,Zabul,????,24
9019,9020,Yale POP_MASTER,SMZ-206,,0,ZBL-SMZ-206,78,Pashto,2,2129.938965,31.7708,67.6989,ZBL,SMZ,Pashi Kuta,2410,Shomulzay,???????,Zabul,????,24
9020,9021,Yale POP_MASTER,SMZ-207,,0,ZBL-SMZ-207,40,Pashto,2,2133.080078,31.8962,67.8304,ZBL,SMZ,Pasti Khuri,2410,Shomulzay,???????,Zabul,????,24
9021,9022,Yale POP_MASTER,SMZ-208,,0,ZBL-SMZ-208,268,Pashto,2,2254.194092,32.0687,67.8475,ZBL,SMZ,Pay Khel,2410,Shomulzay,???????,Zabul,????,24
9022,9023,Yale POP_MASTER,SMZ-209,,0,ZBL-SMZ-209,248,Pashto,2,2296.704102,32.005,67.7674,ZBL,SMZ,Payin Kalay,2410,Shomulzay,???????,Zabul,????,24
9023,9024,Yale POP_MASTER,SMZ-210,,0,ZBL-SMZ-210,61,Pashto,2,2152.623047,31.9004,67.7169,ZBL,SMZ,Payindi,2410,Shomulzay,???????,Zabul,????,24
9024,9025,Yale POP_MASTER,SMZ-211,,0,ZBL-SMZ-211,123,Pashto,2,2237.173096,31.8407,67.9022,ZBL,SMZ,Piyawar Ghabargay,2410,Shomulzay,???????,Zabul,????,24
9025,9026,Yale POP_MASTER,SMZ-213,,0,ZBL-SMZ-213,110,Pashto,2,2172.282959,32.0398,67.7415,ZBL,SMZ,Purta Kalay Suragha,2410,Shomulzay,???????,Zabul,????,24
9026,9027,Yale POP_MASTER,SMZ-214,,0,ZBL-SMZ-214,58,Pashto,2,2225.85498,31.9102,67.772,ZBL,SMZ,Purta Sukhandar,2410,Shomulzay,???????,Zabul,????,24
9027,9028,Yale POP_MASTER,SMZ-215,,0,ZBL-SMZ-215,40,Pashto,2,2147.22998,31.9043,67.6992,ZBL,SMZ,Puti Malti,2410,Shomulzay,???????,Zabul,????,24
9028,9029,Yale POP_MASTER,SMZ-216,,0,ZBL-SMZ-216,120,Pashto,2,2095.308105,31.8067,67.777,ZBL,SMZ,Qala Nazar Khan,2410,Shomulzay,???????,Zabul,????,24
9029,9030,Yale POP_MASTER,SMZ-220,,0,ZBL-SMZ-220,116,Pashto,2,2135.343018,31.9011,67.9318,ZBL,SMZ,Rod Ghund Pursha,2410,Shomulzay,???????,Zabul,????,24
9030,9031,Yale POP_MASTER,SMZ-224,,0,ZBL-SMZ-224,163,Pashto,2,2068.339111,31.9646,67.6136,ZBL,SMZ,Samugay,2410,Shomulzay,???????,Zabul,????,24
9031,9032,Yale POP_MASTER,SMZ-225,,0,ZBL-SMZ-225,62,Pashto,2,2369.205078,31.9714,67.888,ZBL,SMZ,Sangi Basu Khel,2410,Shomulzay,???????,Zabul,????,24
9032,9033,Yale POP_MASTER,SMZ-227,,0,ZBL-SMZ-227,237,Pashto,2,2192.319092,31.9484,67.7073,ZBL,SMZ,Sarki Tangay,2410,Shomulzay,???????,Zabul,????,24
9033,9034,Yale POP_MASTER,SMZ-228,,0,ZBL-SMZ-228,25,Pashto,2,1993.396973,31.8455,67.5672,ZBL,SMZ,Sarki Tangi,2410,Shomulzay,???????,Zabul,????,24
9034,9035,Yale POP_MASTER,SMZ-230,,0,ZBL-SMZ-230,110,Pashto,2,2109.75293,31.9584,67.649,ZBL,SMZ,Shah Wa Khel,2410,Shomulzay,???????,Zabul,????,24
9035,9036,Yale POP_MASTER,SMZ-232,,0,ZBL-SMZ-232,132,Pashto,2,2131.112061,31.9307,67.6782,ZBL,SMZ,Shama,2410,Shomulzay,???????,Zabul,????,24
9036,9037,Yale POP_MASTER,SMZ-234,,0,ZBL-SMZ-234,320,Pashto,2,2272.774902,31.9457,67.7714,ZBL,SMZ,Shawal,2410,Shomulzay,???????,Zabul,????,24
9037,9038,Yale POP_MASTER,SMZ-235,,0,ZBL-SMZ-235,35,Pashto,2,2130.246094,31.8883,67.8539,ZBL,SMZ,Sher Khan ( Adam Khund ),2410,Shomulzay,???????,Zabul,????,24
9038,9039,Yale POP_MASTER,SMZ-236,,0,ZBL-SMZ-236,178,Other,9,2181.329102,31.9318,67.9811,ZBL,SMZ,Sher Khan Khel,2410,Shomulzay,???????,Zabul,????,24
9039,9040,Yale POP_MASTER,SMZ-237,,0,ZBL-SMZ-237,31,Pashto,2,2192.531982,31.7381,67.561,ZBL,SMZ,Sher Mohammad Kalay,2410,Shomulzay,???????,Zabul,????,24
9040,9041,Yale POP_MASTER,SMZ-239,,0,ZBL-SMZ-239,53,Pashto,2,2292.854004,31.9673,67.9566,ZBL,SMZ,Shin Lugha,2410,Shomulzay,???????,Zabul,????,24
9041,9042,Yale POP_MASTER,SMZ-240,,0,ZBL-SMZ-240,115,Pashto,2,2130.875,31.7514,67.6363,ZBL,SMZ,Shin Shah,2410,Shomulzay,???????,Zabul,????,24
9042,9043,Yale POP_MASTER,SMZ-241,,0,ZBL-SMZ-241,277,Pashto,2,2101.322998,31.7417,67.6213,ZBL,SMZ,Sho Band,2410,Shomulzay,???????,Zabul,????,24
9043,9044,Yale POP_MASTER,SMZ-243,,0,ZBL-SMZ-243,378,Pashto,2,2199.822998,32.0143,67.7402,ZBL,SMZ,Sin Zay,2410,Shomulzay,???????,Zabul,????,24
9044,9045,Yale POP_MASTER,SMZ-245,,0,ZBL-SMZ-245,460,Pashto,2,2085.077881,31.9149,67.6442,ZBL,SMZ,Spina Khuna,2410,Shomulzay,???????,Zabul,????,24
9045,9046,Yale POP_MASTER,SMZ-247,,0,ZBL-SMZ-247,89,Pashto,2,2071.544922,32.0131,67.6514,ZBL,SMZ,Sur Ghat,2410,Shomulzay,???????,Zabul,????,24
9046,9047,Yale POP_MASTER,SMZ-250,,0,ZBL-SMZ-250,186,Pashto,2,2034.787964,31.8616,67.6114,ZBL,SMZ,Surki Zur,2410,Shomulzay,???????,Zabul,????,24
9047,9048,Yale POP_MASTER,SMZ-251,,0,ZBL-SMZ-251,58,Pashto,2,2228.75293,32.0009,67.743,ZBL,SMZ,Talab Qala ( Kalagay ),2410,Shomulzay,???????,Zabul,????,24
9048,9049,Yale POP_MASTER,SMZ-252,,0,ZBL-SMZ-252,40,Pashto,2,2075.388916,31.8025,67.7376,ZBL,SMZ,Tana Darwazagay,2410,Shomulzay,???????,Zabul,????,24
9049,9050,Yale POP_MASTER,SMZ-253,,0,ZBL-SMZ-253,338,Pashto,2,2131.164063,31.8035,67.5875,ZBL,SMZ,Tangi Noor Khel,2410,Shomulzay,???????,Zabul,????,24
9050,9051,Yale POP_MASTER,SMZ-256,,0,ZBL-SMZ-256,57,Pashto,2,2385.083984,32.0082,67.8436,ZBL,SMZ,Tarna,2410,Shomulzay,???????,Zabul,????,24
9051,9052,Yale POP_MASTER,SMZ-257,,0,ZBL-SMZ-257,359,Pashto,2,2312.714111,32.0287,67.8296,ZBL,SMZ,Taru Khel,2410,Shomulzay,???????,Zabul,????,24
9052,9053,Yale POP_MASTER,SMZ-258,,0,ZBL-SMZ-258,188,Pashto,2,2136.383057,31.8609,67.8376,ZBL,SMZ,Taru Khel Shangalun,2410,Shomulzay,???????,Zabul,????,24
9053,9054,Yale POP_MASTER,SMZ-259,,0,ZBL-SMZ-259,55,Pashto,2,2314.89209,32.0351,67.8303,ZBL,SMZ,Taruki Noorulhaq,2410,Shomulzay,???????,Zabul,????,24
9054,9055,Yale POP_MASTER,SMZ-261,,0,ZBL-SMZ-261,32,Pashto,2,2405.125,32.0167,67.8751,ZBL,SMZ,Tur Ghundi,2410,Shomulzay,???????,Zabul,????,24
9055,9056,Yale POP_MASTER,SMZ-263,,0,ZBL-SMZ-263,110,Pashto,2,2098.288086,32.0553,67.6716,ZBL,SMZ,Tur Wam,2410,Shomulzay,???????,Zabul,????,24
9056,9057,Yale POP_MASTER,SMZ-265,,0,ZBL-SMZ-265,29,Pashto,2,2002.282959,31.8256,67.5695,ZBL,SMZ,Uch Aubay,2410,Shomulzay,???????,Zabul,????,24
9057,9058,Yale POP_MASTER,SMZ-266,,0,ZBL-SMZ-266,46,Pashto,2,2171.809082,32.0029,67.7216,ZBL,SMZ,Umar Zay Nasir Khel,2410,Shomulzay,???????,Zabul,????,24
9058,9059,Yale POP_MASTER,SMZ-269,,0,ZBL-SMZ-269,18,Pashto,2,2057.541016,31.8566,67.7751,ZBL,SMZ,Umarin,2410,Shomulzay,???????,Zabul,????,24
9059,9060,Yale POP_MASTER,SMZ-270,,0,ZBL-SMZ-270,63,Pashto,2,2206.466064,31.9888,67.7205,ZBL,SMZ,Umarzay Yahya Khel,2410,Shomulzay,???????,Zabul,????,24
9060,9061,Yale POP_MASTER,SMZ-271,,0,ZBL-SMZ-271,125,Pashto,2,2083.643066,31.7347,67.6093,ZBL,SMZ,Umran,2410,Shomulzay,???????,Zabul,????,24
9061,9062,Yale POP_MASTER,SMZ-273,,0,ZBL-SMZ-273,141,Pashto,2,2169.451904,31.9142,67.9495,ZBL,SMZ,Wala,2410,Shomulzay,???????,Zabul,????,24
9062,9063,Yale POP_MASTER,SMZ-274,,0,ZBL-SMZ-274,68,Pashto,2,2028.926025,31.8531,67.5955,ZBL,SMZ,Wali Kariz,2410,Shomulzay,???????,Zabul,????,24
9063,9064,Yale POP_MASTER,SMZ-277,,0,ZBL-SMZ-277,54,Pashto,2,2067.044922,31.9697,67.6222,ZBL,SMZ,Zara Kala,2410,Shomulzay,???????,Zabul,????,24
9064,9065,Yale POP_MASTER,SMZ-278,,0,ZBL-SMZ-278,30,Pashto,2,2072.871094,31.7755,67.7459,ZBL,SMZ,Zarif Kalay,2410,Shomulzay,???????,Zabul,????,24
9065,9066,Yale POP_MASTER,SMZ-280,,0,ZBL-SMZ-280,250,Pashto,2,2064.840088,31.8561,67.7605,ZBL,SMZ,Zhar Kariz Wa Sha Kariz,2410,Shomulzay,???????,Zabul,????,24
9066,9067,Yale POP_MASTER,SMZ-283,District,1,ZBL-SMZ-283,1490,Pashto,2,2077.894043,31.9103,67.6442,ZBL,SMZ,Shomulzay,2410,Shomulzay,???????,Zabul,????,24
9067,9068,Yale POP_MASTER,SNK-053,,0,ZBL-SNK-053,94,Pashto,2,2102.187988,31.9155,67.5179,ZBL,SNK,Chawki,2405,Shinkay,?????,Zabul,????,24
9068,9069,Yale POP_MASTER,SNK-077,,0,ZBL-SNK-077,365,Pashto,2,1974.727051,31.8396,67.5339,ZBL,SNK,Kashani,2405,Shinkay,?????,Zabul,????,24
9069,9070,Yale POP_MASTER,SNK-117,,0,ZBL-SNK-117,79,Pashto,2,1980.136963,31.8818,67.5304,ZBL,SNK,Roud Basu Khel,2405,Shinkay,?????,Zabul,????,24
9070,9071,Yale POP_MASTER,SNK-135,,0,ZBL-SNK-135,226,Pashto,2,2077.88501,31.9149,67.5249,ZBL,SNK,Spandan,2405,Shinkay,?????,Zabul,????,24
9071,9072,Yale POP_MASTER,SNK-142,,0,ZBL-SNK-142,51,Pashto,2,2116.541992,31.9108,67.5118,ZBL,SNK,Walgay,2405,Shinkay,?????,Zabul,????,24
9072,9073,Yale POP_MASTER,SNK-148,,0,ZBL-SNK-148,64,Pashto,2,2074.075928,31.9202,67.5369,ZBL,SNK,Zar Kariz,2405,Shinkay,?????,Zabul,????,24
9073,9074,Yale POP_MASTER,ATR-058,,0,ZBL-ATR-058,75,Pashto,2,2207.779053,31.7667,67.5536,ZBL,ATR,War Ghar,2409,Atghar,????,Zabul,????,24
9245,9246,CSO AIMS Villages (ACSOR),TWJ-181,,0,ZBL-TWJ-181,56,Pashto,2,1369.581055,31.87012,66.36918,ZBL,TWJ,Shilagay (1),2404,Tarnak Wa Jaldak,???? ? ????,Zabul,????,24
9246,9247,CSO AIMS Villages (ACSOR),TWJ-171,,0,ZBL-TWJ-171,0,Pashto,2,1208.572998,31.75543,66.23737,ZBL,TWJ,Sangar Qarya,2404,Tarnak Wa Jaldak,???? ? ????,Zabul,????,24
9247,9248,CSO AIMS Villages (ACSOR),TWJ-170,,0,ZBL-TWJ-170,0,Pashto,2,1341.087036,31.88089,66.5255,ZBL,TWJ,Rodi Kalay,2404,Tarnak Wa Jaldak,???? ? ????,Zabul,????,24
9248,9249,CSO AIMS Villages (ACSOR),TWJ-175,,0,ZBL-TWJ-175,0,Pashto,2,1295.366943,31.8046,66.2501,ZBL,TWJ,Shahri Safa,2404,Tarnak Wa Jaldak,???? ? ????,Zabul,????,24
9249,9250,CSO AIMS Villages (ACSOR),TWJ-178,,0,ZBL-TWJ-178,239,Pashto,2,1239.296997,31.73152,66.26586,ZBL,TWJ,Sher Ali Khan,2404,Tarnak Wa Jaldak,???? ? ????,Zabul,????,24
9250,9251,CSO AIMS Villages (ACSOR),TWJ-155,,0,ZBL-TWJ-155,0,Pashto,2,1243.155029,31.7681,66.2275,ZBL,TWJ,Kanjak Kariz,2404,Tarnak Wa Jaldak,???? ? ????,Zabul,????,24
9251,9252,CSO AIMS Villages (ACSOR),TWJ-154,,0,ZBL-TWJ-154,0,Pashto,2,1428.255005,31.72196,66.35802,ZBL,TWJ,Kadu,2404,Tarnak Wa Jaldak,???? ? ????,Zabul,????,24
9252,9253,CSO AIMS Villages (ACSOR),TWJ-144,,0,ZBL-TWJ-144,0,Pashto,2,1316.034058,31.84893,66.33812,ZBL,TWJ,Aghojan,2404,Tarnak Wa Jaldak,???? ? ????,Zabul,????,24
9253,9254,CSO AIMS Villages (ACSOR),TWJ-164,,0,ZBL-TWJ-164,63,Pashto,2,1219.978027,31.7628,66.27924,ZBL,TWJ,Mohammad Zaiy (1),2404,Tarnak Wa Jaldak,???? ? ????,Zabul,????,24
9254,9255,CSO AIMS Villages (ACSOR),TWJ-148,,0,ZBL-TWJ-148,0,Pashto,2,1403.064941,31.77659,66.4285,ZBL,TWJ,De Sayed Shelah Kalay,2404,Tarnak Wa Jaldak,???? ? ????,Zabul,????,24
9255,9256,CSO AIMS Villages (ACSOR),TWJ-159,,0,ZBL-TWJ-159,115,Pashto,2,1433.262939,31.75931,66.38219,ZBL,TWJ,Kariz Gay (1),2404,Tarnak Wa Jaldak,???? ? ????,Zabul,????,24
9256,9257,CSO AIMS Villages (ACSOR),TWJ-158,,0,ZBL-TWJ-158,0,Pashto,2,1433.262939,31.7589,66.38219,ZBL,TWJ,Kariz (1),2404,Tarnak Wa Jaldak,???? ? ????,Zabul,????,24
9257,9258,CSO AIMS Villages (ACSOR),TWJ-146,,0,ZBL-TWJ-146,0,Pashto,2,1353.232056,31.72359,66.3313,ZBL,TWJ,Darrah,2404,Tarnak Wa Jaldak,???? ? ????,Zabul,????,24
9258,9259,CSO AIMS Villages (ACSOR),TWJ-184,,0,ZBL-TWJ-184,0,Pashto,2,1400.030029,31.88109,66.4557,ZBL,TWJ,Wulgi Janubi,2404,Tarnak Wa Jaldak,???? ? ????,Zabul,????,24
9259,9260,CSO AIMS Villages (ACSOR),TWJ-156,,0,ZBL-TWJ-156,0,Pashto,2,1249.55896,31.79709,66.31219,ZBL,TWJ,Kareze Mazar,2404,Tarnak Wa Jaldak,???? ? ????,Zabul,????,24
9260,9261,CSO AIMS Villages (ACSOR),TWJ-143,,0,ZBL-TWJ-143,61,Pashto,2,1228.19397,31.77449,66.27005,ZBL,TWJ,Agha Jan Kalay (1),2404,Tarnak Wa Jaldak,???? ? ????,Zabul,????,24
9261,9262,CSO AIMS Villages (ACSOR),TWJ-153,,0,ZBL-TWJ-153,0,Pashto,2,1214.165039,31.7528,66.23569,ZBL,TWJ,Hindu Kariz,2404,Tarnak Wa Jaldak,???? ? ????,Zabul,????,24
9262,9263,CSO AIMS Villages (ACSOR),TWJ-185,,0,ZBL-TWJ-185,0,Pashto,2,1386.561035,31.88846,66.45709,ZBL,TWJ,Wulgi Shamali,2404,Tarnak Wa Jaldak,???? ? ????,Zabul,????,24
9263,9264,CSO AIMS Villages (ACSOR),TWJ-180,,0,ZBL-TWJ-180,30,Pashto,2,1437.250977,31.81146,66.52174,ZBL,TWJ,Shilagay (2),2404,Tarnak Wa Jaldak,???? ? ????,Zabul,????,24
9264,9265,CSO AIMS Villages (ACSOR),TWJ-160,,0,ZBL-TWJ-160,207,Pashto,2,1371.751953,31.86295,66.51835,ZBL,TWJ,Kariz Gay (2),2404,Tarnak Wa Jaldak,???? ? ????,Zabul,????,24
9265,9266,CSO AIMS Villages (ACSOR),TWJ-173,,0,ZBL-TWJ-173,170,Pashto,2,1234.064941,31.74483,66.2686,ZBL,TWJ,Sayyid Akbar Shah,2404,Tarnak Wa Jaldak,???? ? ????,Zabul,????,24
9266,9267,CSO AIMS Villages (ACSOR),TWJ-161,,0,ZBL-TWJ-161,0,Pashto,2,1310.718994,31.84114,66.36883,ZBL,TWJ,Khurshayd,2404,Tarnak Wa Jaldak,???? ? ????,Zabul,????,24
9267,9268,CSO AIMS Villages (ACSOR),TWJ-142,,0,ZBL-TWJ-142,27,Pashto,2,1338.631958,31.86318,66.34345,ZBL,TWJ,Agha Jan Kalay (2),2404,Tarnak Wa Jaldak,???? ? ????,Zabul,????,24
9268,9269,CSO AIMS Villages (ACSOR),TWJ-179,,0,ZBL-TWJ-179,50,Pashto,2,1239.442017,31.77263,66.26008,ZBL,TWJ,Shila Gay,2404,Tarnak Wa Jaldak,???? ? ????,Zabul,????,24
9295,9296,Yale POP_MASTER,TWJ-141,District,1,ZBL-TWJ-141,400,Pashto,2,1258.865967,31.8012,66.3223,ZBL,TWJ,Tarnak Wa Jaldak,2404,Tarnak Wa Jaldak,???? ? ????,Zabul,????,24
9296,9297,Yale POP_MASTER,TWJ-123,,0,ZBL-TWJ-123,60,Pashto,2,1290.811035,31.8208,66.3252,ZBL,TWJ,Tanginak,2404,Tarnak Wa Jaldak,???? ? ????,Zabul,????,24
9297,9298,Yale POP_MASTER,TWJ-032,,0,ZBL-TWJ-032,46,Pashto,2,1496.140015,31.8825,66.6152,ZBL,TWJ,Dawud Shah Kalay,2404,Tarnak Wa Jaldak,???? ? ????,Zabul,????,24
9298,9299,Yale POP_MASTER,TWJ-035,,0,ZBL-TWJ-035,144,Pashto,2,1323.350952,31.8531,66.4084,ZBL,TWJ,Dwla,2404,Tarnak Wa Jaldak,???? ? ????,Zabul,????,24
9299,9300,Yale POP_MASTER,TWJ-111,,0,ZBL-TWJ-111,353,Pashto,2,1312.89502,31.8511,66.4659,ZBL,TWJ,Shahi Kalay,2404,Tarnak Wa Jaldak,???? ? ????,Zabul,????,24
9300,9301,Yale POP_MASTER,TWJ-028,,0,ZBL-TWJ-028,724,Pashto,2,1381.982056,31.8724,66.2971,ZBL,TWJ,Damalizai,2404,Tarnak Wa Jaldak,???? ? ????,Zabul,????,24
9301,9302,Yale POP_MASTER,TWJ-112,,0,ZBL-TWJ-112,393,Pashto,2,1257.719971,31.8012,66.3228,ZBL,TWJ,Shahr Safa,2404,Tarnak Wa Jaldak,???? ? ????,Zabul,????,24
9302,9303,Yale POP_MASTER,TWJ-115,,0,ZBL-TWJ-115,103,Pashto,2,1281.328979,31.827,66.3488,ZBL,TWJ,Shamali Dola,2404,Tarnak Wa Jaldak,???? ? ????,Zabul,????,24
9303,9304,Yale POP_MASTER,TWJ-024,,0,ZBL-TWJ-024,47,Pashto,2,1296.540039,31.8106,66.3971,ZBL,TWJ,Chinar,2404,Tarnak Wa Jaldak,???? ? ????,Zabul,????,24
9304,9305,Yale POP_MASTER,TWJ-091,,0,ZBL-TWJ-091,38,Pashto,2,1222.963013,31.7781,66.2953,ZBL,TWJ,Naray,2404,Tarnak Wa Jaldak,???? ? ????,Zabul,????,24
9305,9306,Yale POP_MASTER,TWJ-098,,0,ZBL-TWJ-098,204,Pashto,2,1228.208008,31.7689,66.2415,ZBL,TWJ,Puti Kalay,2404,Tarnak Wa Jaldak,???? ? ????,Zabul,????,24
9306,9307,Yale POP_MASTER,TWJ-033,,0,ZBL-TWJ-033,112,Pashto,2,1392.920044,31.8632,66.5321,ZBL,TWJ,Diwalak,2404,Tarnak Wa Jaldak,???? ? ????,Zabul,????,24
9307,9308,Yale POP_MASTER,TWJ-130,,0,ZBL-TWJ-130,61,Pashto,2,1372.545044,31.7747,66.3799,ZBL,TWJ,Tura,2404,Tarnak Wa Jaldak,???? ? ????,Zabul,????,24
9308,9309,Yale POP_MASTER,TWJ-133,,0,ZBL-TWJ-133,34,Pashto,2,1456.27002,31.821,66.5394,ZBL,TWJ,Walgay Chuki,2404,Tarnak Wa Jaldak,???? ? ????,Zabul,????,24
9309,9310,Yale POP_MASTER,TWJ-086,,0,ZBL-TWJ-086,131,Pashto,2,1257.024048,31.799,66.2831,ZBL,TWJ,Mamki Kalay,2404,Tarnak Wa Jaldak,???? ? ????,Zabul,????,24
9310,9311,Yale POP_MASTER,TWJ-037,,0,ZBL-TWJ-037,41,Other,9,1375.817993,31.8805,66.3903,ZBL,TWJ,Fazal Karam Kariz,2404,Tarnak Wa Jaldak,???? ? ????,Zabul,????,24
9311,9312,Yale POP_MASTER,TWJ-013,,0,ZBL-TWJ-013,34,Pashto,2,1239.29895,31.778,66.2621,ZBL,TWJ,Babaji,2404,Tarnak Wa Jaldak,???? ? ????,Zabul,????,24
9312,9313,Yale POP_MASTER,TWJ-044,,0,ZBL-TWJ-044,46,Pashto,2,1299.050049,31.8455,66.3913,ZBL,TWJ,Haji Abdullah Kalay,2404,Tarnak Wa Jaldak,???? ? ????,Zabul,????,24
9313,9314,Yale POP_MASTER,TWJ-127,,0,ZBL-TWJ-127,57,Pashto,2,1388.511963,31.8932,66.4947,ZBL,TWJ,Tughan Junubi,2404,Tarnak Wa Jaldak,???? ? ????,Zabul,????,24
9314,9315,Yale POP_MASTER,TWJ-036,,0,ZBL-TWJ-036,44,Pashto,2,1356.182983,31.8752,66.4201,ZBL,TWJ,Fatih Khan,2404,Tarnak Wa Jaldak,???? ? ????,Zabul,????,24
9315,9316,Yale POP_MASTER,TWJ-121,,0,ZBL-TWJ-121,154,Pashto,2,1380.115967,31.8851,66.4632,ZBL,TWJ,Sukhta Shamali,2404,Tarnak Wa Jaldak,???? ? ????,Zabul,????,24
9316,9317,Yale POP_MASTER,TWJ-122,,0,ZBL-TWJ-122,287,Pashto,2,1409.965942,31.9269,66.5135,ZBL,TWJ,Sunjid,2404,Tarnak Wa Jaldak,???? ? ????,Zabul,????,24
9317,9318,Yale POP_MASTER,TWJ-034,,0,ZBL-TWJ-034,96,Pashto,2,1369.712036,31.8857,66.495,ZBL,TWJ,Dola,2404,Tarnak Wa Jaldak,???? ? ????,Zabul,????,24
9318,9319,Yale POP_MASTER,TWJ-042,,0,ZBL-TWJ-042,100,Pashto,2,1267.449951,31.8129,66.3353,ZBL,TWJ,Gul Mohammad Kalay,2404,Tarnak Wa Jaldak,???? ? ????,Zabul,????,24
9319,9320,Yale POP_MASTER,TWJ-093,,0,ZBL-TWJ-093,334,Pashto,2,1296.03894,31.8346,66.3381,ZBL,TWJ,Nazar Kalay,2404,Tarnak Wa Jaldak,???? ? ????,Zabul,????,24
9320,9321,Yale POP_MASTER,TWJ-089,,0,ZBL-TWJ-089,40,Pashto,2,1410.437988,31.8951,66.3973,ZBL,TWJ,Mohammad Zay Faiz Mohammad Kariz,2404,Tarnak Wa Jaldak,???? ? ????,Zabul,????,24
9321,9322,Yale POP_MASTER,TWJ-100,,0,ZBL-TWJ-100,162,Pashto,2,1424.978027,31.9041,66.4765,ZBL,TWJ,Qalacha Wa Haji Nazar Jan,2404,Tarnak Wa Jaldak,???? ? ????,Zabul,????,24
9322,9323,Yale POP_MASTER,TWJ-138,,0,ZBL-TWJ-138,23,Pashto,2,1348.714966,31.8815,66.5151,ZBL,TWJ,Zor Kalay,2404,Tarnak Wa Jaldak,???? ? ????,Zabul,????,24
9323,9324,Yale POP_MASTER,TWJ-046,,0,ZBL-TWJ-046,206,Pashto,2,1385.578979,31.9029,66.5123,ZBL,TWJ,Haji Abdulrauf,2404,Tarnak Wa Jaldak,???? ? ????,Zabul,????,24
9324,9325,Yale POP_MASTER,TWJ-105,,0,ZBL-TWJ-105,15,Pashto,2,1338.100952,31.812,66.4109,ZBL,TWJ,Saduzay,2404,Tarnak Wa Jaldak,???? ? ????,Zabul,????,24
9325,9326,Yale POP_MASTER,TWJ-073,,0,ZBL-TWJ-073,74,Pashto,2,1316.655029,31.8407,66.3769,ZBL,TWJ,Khurshid Ya Khushi,2404,Tarnak Wa Jaldak,???? ? ????,Zabul,????,24
9326,9327,Yale POP_MASTER,TWJ-079,,0,ZBL-TWJ-079,42,Pashto,2,1510.437988,31.7777,66.4737,ZBL,TWJ,Lalay,2404,Tarnak Wa Jaldak,???? ? ????,Zabul,????,24
9327,9328,Yale POP_MASTER,TWJ-120,,0,ZBL-TWJ-120,246,Pashto,2,1329.067993,31.8648,66.4604,ZBL,TWJ,Sukhta Kalan,2404,Tarnak Wa Jaldak,???? ? ????,Zabul,????,24
9328,9329,Yale POP_MASTER,TWJ-099,,0,ZBL-TWJ-099,105,Pashto,2,1316.659058,31.8415,66.3515,ZBL,TWJ,Qalacha,2404,Tarnak Wa Jaldak,???? ? ????,Zabul,????,24
9329,9330,Yale POP_MASTER,TWJ-016,,0,ZBL-TWJ-016,82,Pashto,2,1233.769043,31.7583,66.281,ZBL,TWJ,Bawari,2404,Tarnak Wa Jaldak,???? ? ????,Zabul,????,24
9330,9331,Yale POP_MASTER,TWJ-066,,0,ZBL-TWJ-066,115,Pashto,2,1271.662964,31.8243,66.3741,ZBL,TWJ,Khairullah Khan,2404,Tarnak Wa Jaldak,???? ? ????,Zabul,????,24
9331,9332,Yale POP_MASTER,TWJ-103,,0,ZBL-TWJ-103,57,Pashto,2,1258.802002,31.7949,66.2869,ZBL,TWJ,Raghi Kalay,2404,Tarnak Wa Jaldak,???? ? ????,Zabul,????,24
9332,9333,Yale POP_MASTER,TWJ-136,,0,ZBL-TWJ-136,111,Pashto,2,1362.207031,31.8767,66.4012,ZBL,TWJ,Zari Khuni Junubi,2404,Tarnak Wa Jaldak,???? ? ????,Zabul,????,24
9333,9334,Yale POP_MASTER,TWJ-039,,0,ZBL-TWJ-039,59,Pashto,2,1531.21106,31.8688,66.6197,ZBL,TWJ,Gharbi Nika Kalay,2404,Tarnak Wa Jaldak,???? ? ????,Zabul,????,24
9334,9335,Yale POP_MASTER,TWJ-050,,0,ZBL-TWJ-050,116,Pashto,2,1309.947021,31.8269,66.4127,ZBL,TWJ,Haji Min Shah Kalay,2404,Tarnak Wa Jaldak,???? ? ????,Zabul,????,24
9335,9336,Yale POP_MASTER,TWJ-062,,0,ZBL-TWJ-062,178,Pashto,2,1368.411011,31.894,66.5122,ZBL,TWJ,Kakaran,2404,Tarnak Wa Jaldak,???? ? ????,Zabul,????,24
9336,9337,Yale POP_MASTER,TWJ-076,,0,ZBL-TWJ-076,106,Pashto,2,1374.240967,31.8785,66.3791,ZBL,TWJ,Lagharay,2404,Tarnak Wa Jaldak,???? ? ????,Zabul,????,24
9337,9338,Yale POP_MASTER,TWJ-081,,0,ZBL-TWJ-081,249,Pashto,2,1300.172974,31.7801,66.3493,ZBL,TWJ,Luy Dragay Kochnay Dragay,2404,Tarnak Wa Jaldak,???? ? ????,Zabul,????,24
9338,9339,Yale POP_MASTER,TWJ-002,,0,ZBL-TWJ-002,38,Pashto,2,1416.921021,31.8056,66.4852,ZBL,TWJ,Abdkay,2404,Tarnak Wa Jaldak,???? ? ????,Zabul,????,24
9339,9340,Yale POP_MASTER,TWJ-092,,0,ZBL-TWJ-092,133,Pashto,2,1320.353027,31.8156,66.4205,ZBL,TWJ,Narlit,2404,Tarnak Wa Jaldak,???? ? ????,Zabul,????,24
9340,9341,Yale POP_MASTER,TWJ-023,,0,ZBL-TWJ-023,88,Pashto,2,1394.359985,31.9051,66.5512,ZBL,TWJ,China,2404,Tarnak Wa Jaldak,???? ? ????,Zabul,????,24
9341,9342,Yale POP_MASTER,TWJ-078,,0,ZBL-TWJ-078,156,Pashto,2,1368.39502,31.8972,66.5452,ZBL,TWJ,Lala Kay Kalay,2404,Tarnak Wa Jaldak,???? ? ????,Zabul,????,24
9342,9343,Yale POP_MASTER,TWJ-058,,0,ZBL-TWJ-058,135,Pashto,2,1343.735962,31.8676,66.3419,ZBL,TWJ,Jalil Khan,2404,Tarnak Wa Jaldak,???? ? ????,Zabul,????,24
9343,9344,Yale POP_MASTER,TWJ-043,,0,ZBL-TWJ-043,61,Pashto,2,1387.671997,31.8915,66.4233,ZBL,TWJ,Haji Abdullah,2404,Tarnak Wa Jaldak,???? ? ????,Zabul,????,24
9344,9345,Yale POP_MASTER,TWJ-019,,0,ZBL-TWJ-019,173,Pashto,2,1283.537964,31.8239,66.3431,ZBL,TWJ,Brim,2404,Tarnak Wa Jaldak,???? ? ????,Zabul,????,24
9345,9346,Yale POP_MASTER,TWJ-040,,0,ZBL-TWJ-040,20,Pashto,2,1388.862061,31.8966,66.5769,ZBL,TWJ,Ghulam Mohammad Kalay,2404,Tarnak Wa Jaldak,???? ? ????,Zabul,????,24
9346,9347,Yale POP_MASTER,TWJ-003,,0,ZBL-TWJ-003,60,Pashto,2,1416.567993,31.8935,66.4041,ZBL,TWJ,Abdul Baqi,2404,Tarnak Wa Jaldak,???? ? ????,Zabul,????,24
9347,9348,Yale POP_MASTER,TWJ-109,,0,ZBL-TWJ-109,729,Pashto,2,1240.93103,31.792,66.3137,ZBL,TWJ,Sayyid Mohammad Kalay,2404,Tarnak Wa Jaldak,???? ? ????,Zabul,????,24
9348,9349,Yale POP_MASTER,TWJ-128,,0,ZBL-TWJ-128,122,Pashto,2,1411.484009,31.9111,66.4954,ZBL,TWJ,Tughan Shamali,2404,Tarnak Wa Jaldak,???? ? ????,Zabul,????,24
9349,9350,Yale POP_MASTER,TWJ-038,,0,ZBL-TWJ-038,144,Pashto,2,1364.234985,31.8927,66.5174,ZBL,TWJ,Fulad Gay,2404,Tarnak Wa Jaldak,???? ? ????,Zabul,????,24
9350,9351,Yale POP_MASTER,TWJ-061,,0,ZBL-TWJ-061,39,Pashto,2,1228.93103,31.7693,66.293,ZBL,TWJ,Junubi Dala,2404,Tarnak Wa Jaldak,???? ? ????,Zabul,????,24
9351,9352,Yale POP_MASTER,TWJ-053,,0,ZBL-TWJ-053,151,Pashto,2,1250.974976,31.7881,66.2642,ZBL,TWJ,Haji Zafar Kalay,2404,Tarnak Wa Jaldak,???? ? ????,Zabul,????,24
9352,9353,Yale POP_MASTER,TWJ-108,,0,ZBL-TWJ-108,94,Pashto,2,1299.272949,31.8248,66.4012,ZBL,TWJ,Sayyid Karim,2404,Tarnak Wa Jaldak,???? ? ????,Zabul,????,24
9353,9354,Yale POP_MASTER,TWJ-087,,0,ZBL-TWJ-087,32,Pashto,2,1366.685059,31.9041,66.5714,ZBL,TWJ,Mohammad Jan Kalay,2404,Tarnak Wa Jaldak,???? ? ????,Zabul,????,24
9354,9355,Yale POP_MASTER,TWJ-137,,0,ZBL-TWJ-137,74,Pashto,2,1437.240967,31.9045,66.4139,ZBL,TWJ,Ziyarat,2404,Tarnak Wa Jaldak,???? ? ????,Zabul,????,24
9355,9356,Yale POP_MASTER,TWJ-124,,0,ZBL-TWJ-124,86,Pashto,2,1278.029053,31.7854,66.3432,ZBL,TWJ,Tara Wakay,2404,Tarnak Wa Jaldak,???? ? ????,Zabul,????,24
9356,9357,Yale POP_MASTER,TWJ-113,,0,ZBL-TWJ-113,39,Pashto,2,1378.732056,31.876,66.4575,ZBL,TWJ,Shahrak,2404,Tarnak Wa Jaldak,???? ? ????,Zabul,????,24
9357,9358,Yale POP_MASTER,TWJ-068,,0,ZBL-TWJ-068,183,Pashto,2,1236.954956,31.7812,66.2727,ZBL,TWJ,Khan Zai,2404,Tarnak Wa Jaldak,???? ? ????,Zabul,????,24
9358,9359,Yale POP_MASTER,TWJ-004,,0,ZBL-TWJ-004,53,Pashto,2,1374.707031,31.8717,66.5355,ZBL,TWJ,Abdul Qaum,2404,Tarnak Wa Jaldak,???? ? ????,Zabul,????,24
9359,9360,Yale POP_MASTER,TWJ-063,,0,ZBL-TWJ-063,41,Pashto,2,1282.088989,31.8269,66.3586,ZBL,TWJ,Kariz (2),2404,Tarnak Wa Jaldak,???? ? ????,Zabul,????,24
9360,9361,Yale POP_MASTER,TWJ-031,,0,ZBL-TWJ-031,25,Pashto,2,1292.628052,31.8348,66.3763,ZBL,TWJ,Darw,2404,Tarnak Wa Jaldak,???? ? ????,Zabul,????,24
9361,9362,Yale POP_MASTER,TWJ-006,,0,ZBL-TWJ-006,27,Pashto,2,1401.657959,31.9114,66.551,ZBL,TWJ,Agha Mohammad Kalay,2404,Tarnak Wa Jaldak,???? ? ????,Zabul,????,24
9362,9363,Yale POP_MASTER,TWJ-072,,0,ZBL-TWJ-072,138,Pashto,2,1309.015991,31.8309,66.3032,ZBL,TWJ,Khatunak,2404,Tarnak Wa Jaldak,???? ? ????,Zabul,????,24
9363,9364,Yale POP_MASTER,TWJ-007,,0,ZBL-TWJ-007,24,Pashto,2,1340.843994,31.7439,66.3418,ZBL,TWJ,Aslam Kalay,2404,Tarnak Wa Jaldak,???? ? ????,Zabul,????,24
9364,9365,Yale POP_MASTER,TWJ-140,,0,ZBL-TWJ-140,100,Pashto,2,1316.517944,31.8333,66.3667,ZBL,TWJ,Jaldak,2404,Tarnak Wa Jaldak,???? ? ????,Zabul,????,24
9365,9366,Yale POP_MASTER,TWJ-139,,0,ZBL-TWJ-139,154,Pashto,2,1318.052002,31.8421,66.3599,ZBL,TWJ,Zur Kalay,2404,Tarnak Wa Jaldak,???? ? ????,Zabul,????,24
9366,9367,Yale POP_MASTER,TWJ-106,,0,ZBL-TWJ-106,74,Pashto,2,1374.593018,31.8748,66.3581,ZBL,TWJ,Samandar,2404,Tarnak Wa Jaldak,???? ? ????,Zabul,????,24
9367,9368,Yale POP_MASTER,TWJ-097,,0,ZBL-TWJ-097,45,Pashto,2,1287.199951,31.797,66.3652,ZBL,TWJ,Pul Sabz,2404,Tarnak Wa Jaldak,???? ? ????,Zabul,????,24
9368,9369,Yale POP_MASTER,TWJ-052,,0,ZBL-TWJ-052,103,Pashto,2,1305.662964,31.8484,66.4019,ZBL,TWJ,Haji Sayyid Rahmat,2404,Tarnak Wa Jaldak,???? ? ????,Zabul,????,24
9369,9370,Yale POP_MASTER,TWJ-015,,0,ZBL-TWJ-015,21,Pashto,2,1258.357056,31.809,66.3487,ZBL,TWJ,Bamizai,2404,Tarnak Wa Jaldak,???? ? ????,Zabul,????,24
9370,9371,Yale POP_MASTER,TWJ-075,,0,ZBL-TWJ-075,251,Pashto,2,1336.131958,31.8108,66.427,ZBL,TWJ,Kotizay,2404,Tarnak Wa Jaldak,???? ? ????,Zabul,????,24
9371,9372,Yale POP_MASTER,TWJ-104,,0,ZBL-TWJ-104,60,Pashto,2,1287.232056,31.837,66.4004,ZBL,TWJ,Raz Mohammad Kalay,2404,Tarnak Wa Jaldak,???? ? ????,Zabul,????,24
9372,9373,Yale POP_MASTER,TWJ-101,,0,ZBL-TWJ-101,103,Pashto,2,1508.968994,31.7867,66.5135,ZBL,TWJ,Qari Kariz,2404,Tarnak Wa Jaldak,???? ? ????,Zabul,????,24
9373,9374,Yale POP_MASTER,TWJ-082,,0,ZBL-TWJ-082,143,Pashto,2,1300.147949,31.8324,66.371,ZBL,TWJ,Luy Tiray,2404,Tarnak Wa Jaldak,???? ? ????,Zabul,????,24
9374,9375,Yale POP_MASTER,TWJ-011,,0,ZBL-TWJ-011,62,Pashto,2,1224.371948,31.7767,66.3001,ZBL,TWJ,Azam Kalay,2404,Tarnak Wa Jaldak,???? ? ????,Zabul,????,24
9375,9376,Yale POP_MASTER,TWJ-056,,0,ZBL-TWJ-056,71,Pashto,2,1307.536987,31.849,66.3891,ZBL,TWJ,Isahq Zai,2404,Tarnak Wa Jaldak,???? ? ????,Zabul,????,24
9376,9377,Yale POP_MASTER,TWJ-014,,0,ZBL-TWJ-014,43,Pashto,2,1295.699951,31.7286,66.3042,ZBL,TWJ,Baghak,2404,Tarnak Wa Jaldak,???? ? ????,Zabul,????,24
9377,9378,Yale POP_MASTER,TWJ-049,,0,ZBL-TWJ-049,78,Pashto,2,1476.321045,31.807,66.534,ZBL,TWJ,Haji Fatihullah Khan,2404,Tarnak Wa Jaldak,???? ? ????,Zabul,????,24
9378,9379,Yale POP_MASTER,TWJ-009,,0,ZBL-TWJ-009,66,Pashto,2,1334.708984,31.8238,66.4377,ZBL,TWJ,Atzargay,2404,Tarnak Wa Jaldak,???? ? ????,Zabul,????,24
9384,9385,USAID AIDVillageView,NBR-004,,0,ZBL-NBR-004,0,Pashto,2,2300.835938,32.4424,67.5977,ZBL,NBR,De Chat Koruna,2411,Nawbahar,??????,Zabul,????,24
9385,9386,CSO AIMS Villages (ACSOR),SHJ-177,,0,ZBL-SHJ-177,172,Pashto,2,2009.479004,32.49256,67.48164,ZBL,SHJ,Basu Khel (1),2406,Shahjoy,??? ???,Zabul,????,24
9386,9387,CSO AIMS Villages (ACSOR),SHJ-182,,0,ZBL-SHJ-182,0,Pashto,2,1976.430054,32.4671,67.44669,ZBL,SHJ,China (1),2406,Shahjoy,??? ???,Zabul,????,24
9387,9388,CSO AIMS Villages (ACSOR),SHJ-202,,0,ZBL-SHJ-202,63,Pashto,2,1917.448975,32.54648,67.52434,ZBL,SHJ,Sarzay,2406,Shahjoy,??? ???,Zabul,????,24
9388,9389,CSO AIMS Villages (ACSOR),SHJ-203,,0,ZBL-SHJ-203,0,Pashto,2,2009.479004,32.49229,67.4816,ZBL,SHJ,Sawtkhel,2406,Shahjoy,??? ???,Zabul,????,24
9389,9390,CSO AIMS Villages (ACSOR),QLT-154,,0,ZBL-QLT-154,27,Pashto,2,1740.484985,32.31454,67.22254,ZBL,QLT,Naw Abad (1),2401,Qalat,????,Zabul,????,24
9390,9391,CSO AIMS Villages (ACSOR),SHJ-190,,0,ZBL-SHJ-190,307,Pashto,2,1861.030029,32.52123,67.42596,ZBL,SHJ,Khan Kalay (1),2406,Shahjoy,??? ???,Zabul,????,24
