,OBJECTID,SOURCE,VIL_UID,CENTER,CNTR_CODE,AFG_UID,POPULATION,LANGUAGE_,LANG_CODE,ELEVATION,LAT_Y,LON_X,MISTI_PROV,MISTI_DIST,VILLAGE_NA,DIST_CODE,DIST_NA_EN,DIST_NA_DA,PROV_NA_EN,PROV_NA_DA,PROV_CODE
10092,10093,Yale POP_MASTER,MYN-029,,0,JWJ-MYN-029,911,Uzbek,3,286.2284851,37.0275,66.3571,JWJ,MYN,Farooq Qala Turknaniya,2708,Mardyan,??????,Jawzjan,??????,27
10093,10094,USAID AIDVillageView,AQA-040,,0,JWJ-AQA-040,0,Uzbek,3,286.0761108,36.9578,66.1666,JWJ,AQA,Jangal Bagh,2707,Aqcha,????,Jawzjan,??????,27
10094,10095,USAID AIDVillageView,AQA-052,,0,JWJ-AQA-052,0,Uzbek,3,289.69049069999994,36.9431,66.165,JWJ,AQA,Surkhi,2707,Aqcha,????,Jawzjan,??????,27
10095,10096,USAID AIDVillageView,AQA-059,,0,JWJ-AQA-059,0,Uzbek,3,290.842804,36.9291,66.1556,JWJ,AQA,Yang Ariq (2),2707,Aqcha,????,Jawzjan,??????,27
10096,10097,Yale POP_MASTER,AQA-013,,0,JWJ-AQA-013,1233,Uzbek,3,288.0441895,36.9448,66.1452,JWJ,AQA,Jeza,2707,Aqcha,????,Jawzjan,??????,27
10097,10098,Yale POP_MASTER,AQA-015,,0,JWJ-AQA-015,1135,Pashto,2,290.2199097,36.9286,66.1726,JWJ,AQA,Kharabat Kocha,2707,Aqcha,????,Jawzjan,??????,27
10098,10099,Yale POP_MASTER,AQA-029,,0,JWJ-AQA-029,313,Uzbek,3,287.72601319999995,36.9368,66.1576,JWJ,AQA,Qemaraq Watani,2707,Aqcha,????,Jawzjan,??????,27
10099,10100,Yale POP_MASTER,AQA-031,,0,JWJ-AQA-031,1406,Turkmen,4,288.15631099999996,36.9436,66.1738,JWJ,AQA,Shairak,2707,Aqcha,????,Jawzjan,??????,27
10100,10101,Yale POP_MASTER,MJK-054,,0,JWJ-MJK-054,162,Dari,1,288.7419128,36.9349,66.1398,JWJ,MJK,Mangaraq Surkh,2702,Mingajik,?????,Jawzjan,??????,27
10101,10102,Yale POP_MASTER,MJK-033,,0,JWJ-MJK-033,455,Hazaragi,8,288.03930660000003,36.9091,66.0272,JWJ,MJK,Air Kalay,2702,Mingajik,?????,Jawzjan,??????,27
10102,10103,Yale POP_MASTER,KQA-017,,0,JWJ-KQA-017,77,Turkmen,4,291.8250122,36.8668,66.0324,JWJ,KQA,Qara Poyen Taza Nahr,2706,Khanaqa,?????,Jawzjan,??????,27
10103,10104,Yale POP_MASTER,KQA-020,,0,JWJ-KQA-020,344,Uzbek,3,289.36648560000003,36.8806,66.02,JWJ,KQA,Taza Nahr,2706,Khanaqa,?????,Jawzjan,??????,27
10136,10137,USAID AIDVillageView,KDK-005,,0,JWJ-KDK-005,0,Uzbek,3,276.969696,36.9924,65.4843,JWJ,KDK,Jar Quduq,2703,Khwajadukoh,????? ?????,Jawzjan,??????,27
10137,10138,USAID AIDVillageView,KDK-014,,0,JWJ-KDK-014,0,Uzbek,3,301.56579589999996,36.8464,65.5866,JWJ,KDK,Taza Qishlaq,2703,Khwajadukoh,????? ?????,Jawzjan,??????,27
10138,10139,Yale POP_MASTER,KDK-024,,0,JWJ-KDK-024,60,Uzbek,3,300.8223877,36.8405,65.5772,JWJ,KDK,Khoja Dokoh Afghaniya,2703,Khwajadukoh,????? ?????,Jawzjan,??????,27
10139,10140,USAID AIDVillageView,FB2-002,,0,JWJ-FB2-002,0,Dari,1,315.2983093,36.7775,66.491,JWJ,FB2,Bezgak,2705,Fayzabad,??? ????,Jawzjan,??????,27
10140,10141,USAID AIDVillageView,FB2-008,,0,JWJ-FB2-008,0,Dari,1,315.8020935,36.7752,66.4838,JWJ,FB2,Qaraboyni Lab Dar,2705,Fayzabad,??? ????,Jawzjan,??????,27
10141,10142,USAID AIDVillageView,FB2-009,,0,JWJ-FB2-009,0,Dari,1,313.67910770000003,36.785,66.4568,JWJ,FB2,Seesha Khana-i-turkmaniya,2705,Fayzabad,??? ????,Jawzjan,??????,27
10143,10144,Yale POP_MASTER,FB2-011,,0,JWJ-FB2-011,883,Turkmen,4,311.1552124,36.8013,66.4041,JWJ,FB2,Ali Abad,2705,Fayzabad,??? ????,Jawzjan,??????,27
10144,10145,Yale POP_MASTER,FB2-013,,0,JWJ-FB2-013,342,Dari,1,314.50399780000004,36.7425,66.4447,JWJ,FB2,Arab Qeshlaq Salar Tepa,2705,Fayzabad,??? ????,Jawzjan,??????,27
10145,10146,Yale POP_MASTER,FB2-015,,0,JWJ-FB2-015,72,Turkmen,4,307.9981079,36.8154,66.4315,JWJ,FB2,Balochan,2705,Fayzabad,??? ????,Jawzjan,??????,27
10146,10147,Yale POP_MASTER,FB2-019,,0,JWJ-FB2-019,262,Uzbek,3,307.34359739999996,36.8465,66.4685,JWJ,FB2,Char Bagh Yandark,2705,Fayzabad,??? ????,Jawzjan,??????,27
10147,10148,Yale POP_MASTER,FB2-023,,0,JWJ-FB2-023,133,Uzbek,3,307.35159300000004,36.8378,66.4277,JWJ,FB2,Fazel Abad Now Warid,2705,Fayzabad,??? ????,Jawzjan,??????,27
10148,10149,Yale POP_MASTER,FB2-024,,0,JWJ-FB2-024,139,Pashto,2,307.64428710000004,36.8393,66.4459,JWJ,FB2,Fazel Abad Watani,2705,Fayzabad,??? ????,Jawzjan,??????,27
10149,10150,Yale POP_MASTER,FB2-025,,0,JWJ-FB2-025,1176,Turkmen,4,317.90148930000004,36.7702,66.5111,JWJ,FB2,Garjag,2705,Fayzabad,??? ????,Jawzjan,??????,27
10150,10151,Yale POP_MASTER,FB2-028,,0,JWJ-FB2-028,153,Uzbek,3,312.0577087,36.8057,66.4778,JWJ,FB2,Haidar Abad,2705,Fayzabad,??? ????,Jawzjan,??????,27
10151,10152,Yale POP_MASTER,FB2-029,,0,JWJ-FB2-029,1181,Dari,1,311.5032043,36.7923,66.5048,JWJ,FB2,Haidar Abad Beazgag,2705,Fayzabad,??? ????,Jawzjan,??????,27
10152,10153,Yale POP_MASTER,FB2-030,,0,JWJ-FB2-030,1128,Dari,1,312.91540530000003,36.8083,66.4931,JWJ,FB2,Haidar Abad Watani,2705,Fayzabad,??? ????,Jawzjan,??????,27
10153,10154,Yale POP_MASTER,FB2-032,,0,JWJ-FB2-032,182,Dari,1,310.8250122,36.8019,66.4327,JWJ,FB2,Jowi Wazir,2705,Fayzabad,??? ????,Jawzjan,??????,27
10154,10155,Yale POP_MASTER,FB2-033,,0,JWJ-FB2-033,185,Uzbek,3,312.00500489999996,36.7731,66.4412,JWJ,FB2,Khair Abad,2705,Fayzabad,??? ????,Jawzjan,??????,27
10157,10158,Yale POP_MASTER,FB2-044,,0,JWJ-FB2-044,2212,Pashto,2,311.350708,36.8204,66.4564,JWJ,FB2,Markaz Wollus Waly,2705,Fayzabad,??? ????,Jawzjan,??????,27
10158,10159,Yale POP_MASTER,FB2-052,,0,JWJ-FB2-052,81,Dari,1,308.6066895,36.8391,66.5102,JWJ,FB2,Nowa Qoul Haidar Abad,2705,Fayzabad,??? ????,Jawzjan,??????,27
10159,10160,Yale POP_MASTER,FB2-053,,0,JWJ-FB2-053,196,Dari,1,310.184906,36.8185,66.5127,JWJ,FB2,Nowa Qoul Qanchaq,2705,Fayzabad,??? ????,Jawzjan,??????,27
10160,10161,Yale POP_MASTER,FB2-054,,0,JWJ-FB2-054,782,Pashto,2,312.574585,36.7572,66.4228,JWJ,FB2,Nowarid Sallar Tepa,2705,Fayzabad,??? ????,Jawzjan,??????,27
10161,10162,Yale POP_MASTER,FB2-057,,0,JWJ-FB2-057,1036,Pashto,2,313.6944885,36.821999999999996,66.53399999999999,JWJ,FB2,Qamchaq Afghaniya,2705,Fayzabad,??? ????,Jawzjan,??????,27
10162,10163,Yale POP_MASTER,FB2-063,,0,JWJ-FB2-063,592,Pashto,2,311.9569092,36.7685,66.4225,JWJ,FB2,Salar Tepa,2705,Fayzabad,??? ????,Jawzjan,??????,27
10163,10164,Yale POP_MASTER,FB2-064,,0,JWJ-FB2-064,602,Uzbek,3,311.3656006,36.8117,66.4678,JWJ,FB2,Sanis,2705,Fayzabad,??? ????,Jawzjan,??????,27
10164,10165,Yale POP_MASTER,FB2-066,,0,JWJ-FB2-066,274,Dari,1,315.0067139,36.7786,66.4714,JWJ,FB2,Sea Darakht,2705,Fayzabad,??? ????,Jawzjan,??????,27
10165,10166,Yale POP_MASTER,FB2-071,,0,JWJ-FB2-071,875,Dari,1,312.8182068,36.7874,66.4423,JWJ,FB2,Shesha Khana Afghaniya,2705,Fayzabad,??? ????,Jawzjan,??????,27
10166,10167,Yale POP_MASTER,FB2-072,,0,JWJ-FB2-072,1174,Pashto,2,313.93368530000004,36.7761,66.4571,JWJ,FB2,Shesha Khana Arabya,2705,Fayzabad,??? ????,Jawzjan,??????,27
10167,10168,Yale POP_MASTER,FB2-073,,0,JWJ-FB2-073,432,Pashto,2,315.47109989999996,36.7684,66.47800000000001,JWJ,FB2,Shesha Khana Turkmani,2705,Fayzabad,??? ????,Jawzjan,??????,27
10168,10169,Yale POP_MASTER,FB2-074,,0,JWJ-FB2-074,1048,Turkmen,4,313.64248660000004,36.7811,66.4368,JWJ,FB2,Shesha Khana Uzbeki,2705,Fayzabad,??? ????,Jawzjan,??????,27
10169,10170,Yale POP_MASTER,FB2-076,District,1,JWJ-FB2-076,2384,Dari,1,309.41430660000003,36.825,66.4573,JWJ,FB2,Fayz Abad,2705,Fayzabad,??? ????,Jawzjan,??????,27
10170,10171,USAID AIDVillageView,SBG-017,,0,JWJ-SBG-017,0,Dari,1,325.0509033,36.7628,65.8386,JWJ,SBG,Islam Joy,2701,Shiberghan,??????,Jawzjan,??????,27
10171,10172,USAID AIDVillageView,SBG-025,,0,JWJ-SBG-025,0,Dari,1,320.895813,36.7765,65.8229,JWJ,SBG,Mesrabad-i-naw,2701,Shiberghan,??????,Jawzjan,??????,27
10172,10173,USAID AIDVillageView,SBG-029,,0,JWJ-SBG-029,0,Dari,1,335.1073914,36.7283,65.8165,JWJ,SBG,Qanjowgheh,2701,Shiberghan,??????,Jawzjan,??????,27
10173,10174,USAID AIDVillageView,SBG-031,,0,JWJ-SBG-031,0,Dari,1,336.1372986,36.7212,65.8361,JWJ,SBG,Qum Sai,2701,Shiberghan,??????,Jawzjan,??????,27
10174,10175,Yale POP_MASTER,SBG-060,,0,JWJ-SBG-060,591,Pashto,2,334.7043152,36.7302,65.8507,JWJ,SBG,Char Shanba,2701,Shiberghan,??????,Jawzjan,??????,27
10175,10176,Yale POP_MASTER,SBG-066,,0,JWJ-SBG-066,1010,Uzbek,3,321.4794922,36.7645,65.8553,JWJ,SBG,Hassan Abad,2701,Shiberghan,??????,Jawzjan,??????,27
10176,10177,Yale POP_MASTER,SBG-088,,0,JWJ-SBG-088,3917,Turkmen,4,324.00250239999997,36.7681,65.8349,JWJ,SBG,Maser Abad,2701,Shiberghan,??????,Jawzjan,??????,27
10177,10178,Yale POP_MASTER,SBG-092,,0,JWJ-SBG-092,1092,Uzbek,3,326.5581055,36.755,65.8369,JWJ,SBG,Nakar Abad,2701,Shiberghan,??????,Jawzjan,??????,27
10178,10179,Yale POP_MASTER,SBG-094,,0,JWJ-SBG-094,788,Uzbek,3,331.7542114,36.7348,65.8539,JWJ,SBG,Ora Maz,2701,Shiberghan,??????,Jawzjan,??????,27
10179,10180,Yale POP_MASTER,SBG-095,,0,JWJ-SBG-095,805,Pashto,2,338.4229126,36.7143,65.8287,JWJ,SBG,Qam Sai,2701,Shiberghan,??????,Jawzjan,??????,27
10180,10181,Yale POP_MASTER,SBG-096,,0,JWJ-SBG-096,115,Uzbek,3,336.55239869999997,36.7174,65.8492,JWJ,SBG,Qam Sai Shani Khail,2701,Shiberghan,??????,Jawzjan,??????,27
10181,10182,Yale POP_MASTER,SBG-097,,0,JWJ-SBG-097,1196,Turkmen,4,330.74929810000003,36.7403,65.8314,JWJ,SBG,Qanjogha,2701,Shiberghan,??????,Jawzjan,??????,27
10182,10183,Yale POP_MASTER,SBG-098,,0,JWJ-SBG-098,436,Uzbek,3,335.06961060000003,36.7284,65.8386,JWJ,SBG,Qanjogha Turkmaniya,2701,Shiberghan,??????,Jawzjan,??????,27
10183,10184,Yale POP_MASTER,SBG-118,,0,JWJ-SBG-118,3470,Dari,1,335.3409119,36.7297,65.8019,JWJ,SBG,Yangi Aregh,2701,Shiberghan,??????,Jawzjan,??????,27
10184,10185,USAID AIDVillageView,SBG-001,,0,JWJ-SBG-001,0,Uzbek,3,357.58288569999996,36.6801,65.7453,JWJ,SBG,Abshar Khana,2701,Shiberghan,??????,Jawzjan,??????,27
10185,10186,USAID AIDVillageView,SBG-006,,0,JWJ-SBG-006,0,Uzbek,3,356.973114,36.664,65.7076,JWJ,SBG,Bakawal Khorasan,2701,Shiberghan,??????,Jawzjan,??????,27
10186,10187,USAID AIDVillageView,SBG-007,,0,JWJ-SBG-007,0,Uzbek,3,364.1087036,36.6587,65.7407,JWJ,SBG,Chaghsay,2701,Shiberghan,??????,Jawzjan,??????,27
10187,10188,USAID AIDVillageView,SBG-012,,0,JWJ-SBG-012,0,Uzbek,3,362.3465881,36.6645,65.7432,JWJ,SBG,Deed Wa Moosh,2701,Shiberghan,??????,Jawzjan,??????,27
10188,10189,USAID AIDVillageView,SBG-013,,0,JWJ-SBG-013,0,Uzbek,3,357.8494873,36.6684,65.7294,JWJ,SBG,Deewana Khana,2701,Shiberghan,??????,Jawzjan,??????,27
10189,10190,USAID AIDVillageView,SBG-014,,0,JWJ-SBG-014,0,Uzbek,3,359.27529910000004,36.6673,65.7346,JWJ,SBG,Eed Mahala,2701,Shiberghan,??????,Jawzjan,??????,27
10190,10191,USAID AIDVillageView,SBG-015,,0,JWJ-SBG-015,0,Uzbek,3,356.87100219999996,36.6741,65.7137,JWJ,SBG,Gholmala,2701,Shiberghan,??????,Jawzjan,??????,27
10191,10192,USAID AIDVillageView,SBG-021,,0,JWJ-SBG-021,0,Uzbek,3,355.91558839999993,36.6765,65.7223,JWJ,SBG,Kinara,2701,Shiberghan,??????,Jawzjan,??????,27
10192,10193,USAID AIDVillageView,SBG-027,,0,JWJ-SBG-027,0,Uzbek,3,360.50329589999996,36.6651,65.7247,JWJ,SBG,Pash Kapa,2701,Shiberghan,??????,Jawzjan,??????,27
10193,10194,USAID AIDVillageView,SBG-028,,0,JWJ-SBG-028,0,Uzbek,3,364.276886,36.6544,65.7345,JWJ,SBG,Peer Mundeeka Tapa,2701,Shiberghan,??????,Jawzjan,??????,27
10194,10195,USAID AIDVillageView,SBG-037,,0,JWJ-SBG-037,0,Uzbek,3,360.83441160000007,36.6633,65.7347,JWJ,SBG,Yaka Chinar,2701,Shiberghan,??????,Jawzjan,??????,27
10195,10196,USAID AIDVillageView,SBG-038,,0,JWJ-SBG-038,0,Uzbek,3,357.62249760000003,36.6731,65.7247,JWJ,SBG,Yanga Kint,2701,Shiberghan,??????,Jawzjan,??????,27
10196,10197,USAID AIDVillageView,SBG-040,,0,JWJ-SBG-040,0,Uzbek,3,363.2619019,36.6612,65.7437,JWJ,SBG,Zargar Khana Wa Khilwat Khana,2701,Shiberghan,??????,Jawzjan,??????,27
10197,10198,CSO AIMS Villages (ACSOR),SBG-043,,0,JWJ-SBG-043,1198,Uzbek,3,353.08828739999996,36.68827,65.759,JWJ,SBG,Yaka Kent,2701,Shiberghan,??????,Jawzjan,??????,27
10198,10199,Yale POP_MASTER,SBG-050,,0,JWJ-SBG-050,642,Uzbek,3,352.26010130000003,36.6872,65.7308,JWJ,SBG,Ashraf,2701,Shiberghan,??????,Jawzjan,??????,27
10199,10200,Yale POP_MASTER,SBG-051,,0,JWJ-SBG-051,2741,Uzbek,3,344.7763977,36.7054,65.7584,JWJ,SBG,Baba Ali,2701,Shiberghan,??????,Jawzjan,??????,27
10200,10201,Yale POP_MASTER,SBG-054,,0,JWJ-SBG-054,467,Uzbek,3,375.3869934,36.6549,65.695,JWJ,SBG,Bakawol Khurasan,2701,Shiberghan,??????,Jawzjan,??????,27
10201,10202,Yale POP_MASTER,SBG-063,,0,JWJ-SBG-063,118,Turkmen,4,353.1474915,36.6824,65.712,JWJ,SBG,Eid Muhala Beash Kapa,2701,Shiberghan,??????,Jawzjan,??????,27
10202,10203,Yale POP_MASTER,SBG-079,,0,JWJ-SBG-079,377,Turkmen,4,344.9569092,36.6702,65.6998,JWJ,SBG,Lab Jar Khurasan,2701,Shiberghan,??????,Jawzjan,??????,27
10203,10204,Yale POP_MASTER,SBG-087,,0,JWJ-SBG-087,949,Uzbek,3,348.3754883,36.6999,65.7267,JWJ,SBG,Maranjan,2701,Shiberghan,??????,Jawzjan,??????,27
10204,10205,Yale POP_MASTER,SBG-117,,0,JWJ-SBG-117,1198,Uzbek,3,355.6841125,36.6884,65.7401,JWJ,SBG,Yaka Kent,2701,Shiberghan,??????,Jawzjan,??????,27
10205,10206,Yale POP_MASTER,SBG-122,Provincial,2,JWJ-SBG-122,38100,Pashto,2,359.8045959,36.6696,65.7491,JWJ,SBG,Shiberghan,2701,Shiberghan,??????,Jawzjan,??????,27
10206,10207,USAID AIDVillageView,SBG-009,,0,JWJ-SBG-009,0,Pashto,2,312.4666138,36.7718,65.94,JWJ,SBG,Chiqchi Taghan Arigh Turkmaniya,2701,Shiberghan,??????,Jawzjan,??????,27
10207,10208,USAID AIDVillageView,SBG-033,,0,JWJ-SBG-033,0,Pashto,2,299.54629520000003,36.8047,66.0095,JWJ,SBG,Shor Aregh,2701,Shiberghan,??????,Jawzjan,??????,27
10208,10209,USAID AIDVillageView,SBG-035,,0,JWJ-SBG-035,0,Pashto,2,300.80429080000005,36.8065,65.9865,JWJ,SBG,Taghan Arigh,2701,Shiberghan,??????,Jawzjan,??????,27
10209,10210,CSO AIMS Villages (ACSOR),SBG-041,,0,JWJ-SBG-041,89,Pashto,2,305.09909060000007,36.78212,65.98586,JWJ,SBG,Shor Arugh Afghaniya Bekal,2701,Shiberghan,??????,Jawzjan,??????,27
10210,10211,Yale POP_MASTER,SBG-049,,0,JWJ-SBG-049,1214,Pashto,2,300.138092,36.8006,66.0032,JWJ,SBG,Areq Afghaniya,2701,Shiberghan,??????,Jawzjan,??????,27
10211,10212,Yale POP_MASTER,SBG-056,,0,JWJ-SBG-056,608,Turkmen,4,302.5502014,36.8042,65.965,JWJ,SBG,Chaqche,2701,Shiberghan,??????,Jawzjan,??????,27
10212,10213,Yale POP_MASTER,SBG-057,,0,JWJ-SBG-057,47,Turkmen,4,299.8920898,36.81,65.9798,JWJ,SBG,Chaqche Naqelin,2701,Shiberghan,??????,Jawzjan,??????,27
10213,10214,Yale POP_MASTER,SBG-058,,0,JWJ-SBG-058,541,Turkmen,4,307.0820923,36.7913,65.9499,JWJ,SBG,Chaqche Taghan Aregh Turkmanya,2701,Shiberghan,??????,Jawzjan,??????,27
10214,10215,Yale POP_MASTER,SBG-109,,0,JWJ-SBG-109,549,Turkmen,4,310.42669680000006,36.772,65.9481,JWJ,SBG,Shor Arugh,2701,Shiberghan,??????,Jawzjan,??????,27
10215,10216,Yale POP_MASTER,SBG-112,,0,JWJ-SBG-112,520,Pashto,2,304.219696,36.7994,65.9707,JWJ,SBG,Taghan Aregh Afghaniya,2701,Shiberghan,??????,Jawzjan,??????,27
10216,10217,USAID AIDVillageView,SBG-003,,0,JWJ-SBG-003,0,Pashto,2,366.07281489999997,36.6565,65.7512,JWJ,SBG,Arab Khana,2701,Shiberghan,??????,Jawzjan,??????,27
10217,10218,USAID AIDVillageView,SBG-008,,0,JWJ-SBG-008,0,Pashto,2,361.3703918,36.6245,65.8117,JWJ,SBG,Chil Mard,2701,Shiberghan,??????,Jawzjan,??????,27
10218,10219,USAID AIDVillageView,SBG-010,,0,JWJ-SBG-010,0,Pashto,2,367.4389954,36.6418,65.7673,JWJ,SBG,Chitgar Khana,2701,Shiberghan,??????,Jawzjan,??????,27
10219,10220,USAID AIDVillageView,SBG-016,,0,JWJ-SBG-016,0,Pashto,2,368.2013855,36.6507,65.7531,JWJ,SBG,Ghora,2701,Shiberghan,??????,Jawzjan,??????,27
10220,10221,USAID AIDVillageView,SBG-018,,0,JWJ-SBG-018,0,Pashto,2,359.4258118,36.6398,65.811,JWJ,SBG,Jeg,2701,Shiberghan,??????,Jawzjan,??????,27
10221,10222,USAID AIDVillageView,SBG-020,,0,JWJ-SBG-020,0,Pashto,2,366.4779968,36.6532,65.7587,JWJ,SBG,Kilak,2701,Shiberghan,??????,Jawzjan,??????,27
10222,10223,USAID AIDVillageView,SBG-022,,0,JWJ-SBG-022,0,Pashto,2,366.0397034,36.6455,65.7602,JWJ,SBG,Koh Gunbad,2701,Shiberghan,??????,Jawzjan,??????,27
10223,10224,USAID AIDVillageView,SBG-024,,0,JWJ-SBG-024,0,Pashto,2,373.7034912,36.6285,65.7541,JWJ,SBG,Marghab,2701,Shiberghan,??????,Jawzjan,??????,27
10224,10225,USAID AIDVillageView,SBG-030,,0,JWJ-SBG-030,0,Pashto,2,358.7044067,36.6695,65.7694,JWJ,SBG,Qeranchi,2701,Shiberghan,??????,Jawzjan,??????,27
10225,10226,USAID AIDVillageView,SBG-034,,0,JWJ-SBG-034,0,Pashto,2,360.3250122,36.6462,65.8127,JWJ,SBG,Sufi Qala (w),2701,Shiberghan,??????,Jawzjan,??????,27
10226,10227,USAID AIDVillageView,SBG-039,,0,JWJ-SBG-039,0,Pashto,2,370.70599369999996,36.6234,65.7752,JWJ,SBG,Yateem Qala,2701,Shiberghan,??????,Jawzjan,??????,27
10227,10228,CSO AIMS Villages (ACSOR),SBG-042,,0,JWJ-SBG-042,108,Pashto,2,358.30868530000004,36.62464,65.73706,JWJ,SBG,Tarnow Uzbekya Wa Shabiya Afghaniya,2701,Shiberghan,??????,Jawzjan,??????,27
10228,10229,Yale POP_MASTER,SBG-048,,0,JWJ-SBG-048,2199,Uzbek,3,360.35391239999996,36.6507,65.7955,JWJ,SBG,Alta Khowja,2701,Shiberghan,??????,Jawzjan,??????,27
10229,10230,Yale POP_MASTER,SBG-052,,0,JWJ-SBG-052,303,Uzbek,3,358.98449710000006,36.647,65.8315,JWJ,SBG,Baba Dahqan,2701,Shiberghan,??????,Jawzjan,??????,27
10230,10231,Yale POP_MASTER,SBG-053,,0,JWJ-SBG-053,127,Uzbek,3,320.5069885,36.762,65.8935,JWJ,SBG,Bakawol Afghaniya,2701,Shiberghan,??????,Jawzjan,??????,27
10231,10232,Yale POP_MASTER,SBG-055,,0,JWJ-SBG-055,197,Pashto,2,321.3298035,36.7565,65.8898,JWJ,SBG,Bakawol Turkmanya,2701,Shiberghan,??????,Jawzjan,??????,27
10232,10233,Yale POP_MASTER,SBG-062,,0,JWJ-SBG-062,141,Uzbek,3,353.0107117,36.6821,65.7998,JWJ,SBG,Chehl Mard,2701,Shiberghan,??????,Jawzjan,??????,27
10233,10234,Yale POP_MASTER,SBG-067,,0,JWJ-SBG-067,193,Uzbek,3,320.8713989,36.7809,65.865,JWJ,SBG,Hassan Abad Naqelin,2701,Shiberghan,??????,Jawzjan,??????,27
10234,10235,Yale POP_MASTER,SBG-068,,0,JWJ-SBG-068,903,Pashto,2,371.7012939,36.6213,65.7643,JWJ,SBG,Hassan Taben Ghazgi,2701,Shiberghan,??????,Jawzjan,??????,27
10235,10236,Yale POP_MASTER,SBG-069,,0,JWJ-SBG-069,1143,Other,9,326.677887,36.7511,65.8656,JWJ,SBG,Iraghly,2701,Shiberghan,??????,Jawzjan,??????,27
10236,10237,Yale POP_MASTER,SBG-070,,0,JWJ-SBG-070,1161,Hazaragi,8,319.956604,36.7688,65.8733,JWJ,SBG,Islam Jowi,2701,Shiberghan,??????,Jawzjan,??????,27
10237,10238,Yale POP_MASTER,SBG-072,,0,JWJ-SBG-072,2183,Pashto,2,315.7625122,36.7774,65.8897,JWJ,SBG,Jalal Abad,2701,Shiberghan,??????,Jawzjan,??????,27
10238,10239,Yale POP_MASTER,SBG-075,,0,JWJ-SBG-075,590,Uzbek,3,342.22659300000004,36.7018,65.8217,JWJ,SBG,Khaton Qala,2701,Shiberghan,??????,Jawzjan,??????,27
10239,10240,Yale POP_MASTER,SBG-091,,0,JWJ-SBG-091,614,Pashto,2,373.3033142,36.6119,65.7426,JWJ,SBG,Murghan,2701,Shiberghan,??????,Jawzjan,??????,27
10240,10241,Yale POP_MASTER,SBG-106,,0,JWJ-SBG-106,454,Pashto,2,376.1744995,36.6045,65.7622,JWJ,SBG,Shakar Kon,2701,Shiberghan,??????,Jawzjan,??????,27
10241,10242,Yale POP_MASTER,SBG-110,,0,JWJ-SBG-110,565,Uzbek,3,347.68710330000005,36.6792,65.8232,JWJ,SBG,Sofi Qala,2701,Shiberghan,??????,Jawzjan,??????,27
10242,10243,Yale POP_MASTER,SBG-111,,0,JWJ-SBG-111,18,Pashto,2,323.35171510000004,36.7558,65.8834,JWJ,SBG,Sultan Kot,2701,Shiberghan,??????,Jawzjan,??????,27
10243,10244,Yale POP_MASTER,SBG-114,,0,JWJ-SBG-114,2216,Pashto,2,374.331604,36.6074,65.7906,JWJ,SBG,Tonukeya Uzbekya,2701,Shiberghan,??????,Jawzjan,??????,27
10244,10245,Yale POP_MASTER,SBG-116,,0,JWJ-SBG-116,1861,Uzbek,3,351.1156921,36.6885,65.7693,JWJ,SBG,Yaka Bagh,2701,Shiberghan,??????,Jawzjan,??????,27
10245,10246,Yale POP_MASTER,SBG-119,,0,JWJ-SBG-119,309,Uzbek,3,366.4410095,36.6273,65.7885,JWJ,SBG,Yatem Qala,2701,Shiberghan,??????,Jawzjan,??????,27
10246,10247,Yale POP_MASTER,SBG-065,,0,JWJ-SBG-065,408,Uzbek,3,381.7052917,36.5826,65.8312,JWJ,SBG,Gulgon Toghe,2701,Shiberghan,??????,Jawzjan,??????,27
10247,10248,Yale POP_MASTER,SBG-089,,0,JWJ-SBG-089,167,Uzbek,3,375.1257935,36.6004,65.8335,JWJ,SBG,Mir Shakar Hulya,2701,Shiberghan,??????,Jawzjan,??????,27
10248,10249,Yale POP_MASTER,SBG-090,,0,JWJ-SBG-090,216,Turkmen,4,368.7544861,36.6145,65.8408,JWJ,SBG,Mir Shakar Sufla,2701,Shiberghan,??????,Jawzjan,??????,27
10249,10250,Yale POP_MASTER,SBG-100,,0,JWJ-SBG-100,255,Uzbek,3,365.99969480000004,36.6272,65.8327,JWJ,SBG,Qara Boyen,2701,Shiberghan,??????,Jawzjan,??????,27
10250,10251,Yale POP_MASTER,SBG-102,,0,JWJ-SBG-102,1041,Uzbek,3,384.9848938,36.574,65.8259,JWJ,SBG,Qochen,2701,Shiberghan,??????,Jawzjan,??????,27
10251,10252,USAID AIDVillageView,SBG-002,,0,JWJ-SBG-002,0,Pashto,2,440.7539063,36.4571,65.8083,JWJ,SBG,Afzal Khan,2701,Shiberghan,??????,Jawzjan,??????,27
10252,10253,Yale POP_MASTER,SBG-071,,0,JWJ-SBG-071,311,Pashto,2,436.38061519999997,36.4697,65.812,JWJ,SBG,Jagdailak,2701,Shiberghan,??????,Jawzjan,??????,27
10253,10254,Yale POP_MASTER,SBG-073,,0,JWJ-SBG-073,105,Pashto,2,492.2088013,36.5095,65.8374,JWJ,SBG,Joghe,2701,Shiberghan,??????,Jawzjan,??????,27
10254,10255,Yale POP_MASTER,SBG-074,,0,JWJ-SBG-074,474,Pashto,2,483.3237,36.4082,65.6184,JWJ,SBG,Kantapa Dar Ya Kapa Dar,2701,Shiberghan,??????,Jawzjan,??????,27
10255,10256,Yale POP_MASTER,SBG-077,,0,JWJ-SBG-077,449,Pashto,2,411.74899289999996,36.5453,65.8287,JWJ,SBG,Khowja Bolan Arabya,2701,Shiberghan,??????,Jawzjan,??????,27
10256,10257,Yale POP_MASTER,SBG-078,,0,JWJ-SBG-078,623,Uzbek,3,414.0783997,36.5112,65.8085,JWJ,SBG,Kodi,2701,Shiberghan,??????,Jawzjan,??????,27
10257,10258,Yale POP_MASTER,SBG-084,,0,JWJ-SBG-084,199,Dari,1,481.7573853,36.4791,65.8232,JWJ,SBG,Mangote Afghaniya,2701,Shiberghan,??????,Jawzjan,??????,27
10258,10259,Yale POP_MASTER,SBG-085,,0,JWJ-SBG-085,393,Pashto,2,432.2103882,36.4852,65.815,JWJ,SBG,Mangote Afghaniya Char Juft,2701,Shiberghan,??????,Jawzjan,??????,27
10259,10260,Yale POP_MASTER,SBG-086,,0,JWJ-SBG-086,666,Dari,1,480.02938839999996,36.4724,65.8281,JWJ,SBG,Mangote Arabya,2701,Shiberghan,??????,Jawzjan,??????,27
10260,10261,Yale POP_MASTER,SBG-099,,0,JWJ-SBG-099,209,Pashto,2,468.211792,36.5226,65.8387,JWJ,SBG,Qaqaran,2701,Shiberghan,??????,Jawzjan,??????,27
10261,10262,Yale POP_MASTER,SBG-104,,0,JWJ-SBG-104,146,Pashto,2,427.40249630000005,36.4868,65.7996,JWJ,SBG,Sea Shanba Afghaniya,2701,Shiberghan,??????,Jawzjan,??????,27
10262,10263,Yale POP_MASTER,SBG-115,,0,JWJ-SBG-115,55,Pashto,2,441.89828489999996,36.4701,65.7862,JWJ,SBG,Turkmanya,2701,Shiberghan,??????,Jawzjan,??????,27
10263,10264,Yale POP_MASTER,SBG-120,,0,JWJ-SBG-120,109,Pashto,2,440.3189087,36.4621,65.7981,JWJ,SBG,Zaka Gul Mohammad,2701,Shiberghan,??????,Jawzjan,??????,27
10264,10265,Yale POP_MASTER,SBG-121,,0,JWJ-SBG-121,59,Pashto,2,490.3215942,36.4483,65.7807,JWJ,SBG,Zaka Kamal Khan,2701,Shiberghan,??????,Jawzjan,??????,27
10265,10266,Yale POP_MASTER,SBG-123,,0,JWJ-SBG-123,250,Uzbek,3,420.16830439999995,36.492,65.806,JWJ,SBG,Zaghdaleh,2701,Shiberghan,??????,Jawzjan,??????,27
10308,10309,Yale POP_MASTER,MYN-030,,0,JWJ-MYN-030,1184,Uzbek,3,293.64691160000007,36.9373,66.3083,JWJ,MYN,Fatah Abad Afghaniya,2708,Mardyan,??????,Jawzjan,??????,27
10309,10310,Yale POP_MASTER,MYN-031,,0,JWJ-MYN-031,1564,Uzbek,3,291.7824097,36.9502,66.3273,JWJ,MYN,Fatah Abad Watani,2708,Mardyan,??????,Jawzjan,??????,27
10310,10311,Yale POP_MASTER,MYN-037,,0,JWJ-MYN-037,614,Pashto,2,286.973114,36.9844,66.291,JWJ,MYN,Mardeyan Parmasha,2708,Mardyan,??????,Jawzjan,??????,27
10311,10312,Yale POP_MASTER,MYN-040,,0,JWJ-MYN-040,720,Uzbek,3,296.8572998,36.9033,66.3239,JWJ,MYN,Qoureqa Turkmanya,2708,Mardyan,??????,Jawzjan,??????,27
10312,10313,USAID AIDVillageView,AQA-036,,0,JWJ-AQA-036,0,Pashto,2,291.3926086,36.9301,66.2068,JWJ,AQA,Baysh Aregh,2707,Aqcha,????,Jawzjan,??????,27
10313,10314,USAID AIDVillageView,AQA-042,,0,JWJ-AQA-042,0,Pashto,2,296.8579102,36.900999999999996,66.2588,JWJ,AQA,Komaki Hakim,2707,Aqcha,????,Jawzjan,??????,27
10314,10315,USAID AIDVillageView,AQA-047,,0,JWJ-AQA-047,0,Pashto,2,296.6264954,36.9036,66.2241,JWJ,AQA,Sharagh (korana Naqar),2707,Aqcha,????,Jawzjan,??????,27
10315,10316,USAID AIDVillageView,AQA-049,,0,JWJ-AQA-049,0,Pashto,2,290.832489,36.9236,66.2124,JWJ,AQA,Shinwari,2707,Aqcha,????,Jawzjan,??????,27
10316,10317,USAID AIDVillageView,MYN-003,,0,JWJ-MYN-003,0,Pashto,2,298.9699097,36.8874,66.2943,JWJ,MYN,Bajgir,2708,Mardyan,??????,Jawzjan,??????,27
10317,10318,USAID AIDVillageView,AQA-037,,0,JWJ-AQA-037,0,Pashto,2,300.8671875,36.8806,66.2627,JWJ,AQA,Chakush-i-kor Korak (2),2707,Aqcha,????,Jawzjan,??????,27
10318,10319,USAID AIDVillageView,AQA-041,,0,JWJ-AQA-041,0,Pashto,2,302.8605957,36.858000000000004,66.2622,JWJ,AQA,Kalya Shakh,2707,Aqcha,????,Jawzjan,??????,27
10319,10320,USAID AIDVillageView,AQA-046,,0,JWJ-AQA-046,0,Pashto,2,300.3145142,36.874,66.2323,JWJ,AQA,Qara-i-laghamani,2707,Aqcha,????,Jawzjan,??????,27
10320,10321,USAID AIDVillageView,AQA-055,,0,JWJ-AQA-055,0,Pashto,2,304.64898680000005,36.8259,66.2672,JWJ,AQA,Yandagh Ariq (3),2707,Aqcha,????,Jawzjan,??????,27
10321,10322,USAID AIDVillageView,AQA-056,,0,JWJ-AQA-056,0,Pashto,2,302.4648132,36.8468,66.2309,JWJ,AQA,Yandagh Ariq (1),2707,Aqcha,????,Jawzjan,??????,27
10322,10323,USAID AIDVillageView,AQA-057,,0,JWJ-AQA-057,0,Pashto,2,304.2898865,36.8259,66.2677,JWJ,AQA,Yandagh Ariq (2),2707,Aqcha,????,Jawzjan,??????,27
10323,10324,USAID AIDVillageView,FB2-003,,0,JWJ-FB2-003,0,Pashto,2,305.35699460000006,36.826,66.3015,JWJ,FB2,Chakishi Sarband,2705,Fayzabad,??? ????,Jawzjan,??????,27
10324,10325,USAID AIDVillageView,MYN-013,,0,JWJ-MYN-013,0,Pashto,2,300.6011963,36.8639,66.3074,JWJ,MYN,Saltug,2708,Mardyan,??????,Jawzjan,??????,27
10393,10394,Yale POP_MASTER,AQA-001,,0,JWJ-AQA-001,930,Turkmen,4,289.4406128,36.9452,66.2252,JWJ,AQA,Alim Kaik Bala,2707,Aqcha,????,Jawzjan,??????,27
10394,10395,Yale POP_MASTER,AQA-003,,0,JWJ-AQA-003,354,Turkmen,4,293.73889160000004,36.8988,66.1952,JWJ,AQA,Bate Kot,2707,Aqcha,????,Jawzjan,??????,27
10395,10396,Yale POP_MASTER,AQA-007,,0,JWJ-AQA-007,937,Dari,1,290.3334045,36.9229,66.1992,JWJ,AQA,Beash Aroq Awalmeya,2707,Aqcha,????,Jawzjan,??????,27
10396,10397,Yale POP_MASTER,AQA-008,,0,JWJ-AQA-008,1733,Turkmen,4,289.05490110000005,36.9343,66.1989,JWJ,AQA,Beash Aroq Watani,2707,Aqcha,????,Jawzjan,??????,27
10397,10398,Yale POP_MASTER,AQA-011,,0,JWJ-AQA-011,2803,Dari,1,291.2615967,36.925,66.2407,JWJ,AQA,Haidar Abad,2707,Aqcha,????,Jawzjan,??????,27
10398,10399,Yale POP_MASTER,AQA-012,,0,JWJ-AQA-012,72,Uzbek,3,295.1307983,36.8995,66.2249,JWJ,AQA,Haidar Abad Shenwari,2707,Aqcha,????,Jawzjan,??????,27
10399,10400,Yale POP_MASTER,AQA-017,,0,JWJ-AQA-017,947,Pashto,2,291.4921875,36.9126,66.1977,JWJ,AQA,Kolya Qal,2707,Aqcha,????,Jawzjan,??????,27
10400,10401,Yale POP_MASTER,AQA-018,,0,JWJ-AQA-018,1035,Dari,1,296.3656006,36.8911,66.2328,JWJ,AQA,Komak Hakim,2707,Aqcha,????,Jawzjan,??????,27
10401,10402,Yale POP_MASTER,AQA-021,,0,JWJ-AQA-021,521,Turkmen,4,293.0,36.9138,66.2123,JWJ,AQA,Kotana Qar (1),2707,Aqcha,????,Jawzjan,??????,27
10402,10403,Yale POP_MASTER,AQA-023,,0,JWJ-AQA-023,469,Uzbek,3,296.34790039999996,36.8878,66.2057,JWJ,AQA,Laghmani,2707,Aqcha,????,Jawzjan,??????,27
10403,10404,Yale POP_MASTER,AQA-024,,0,JWJ-AQA-024,178,Pashto,2,293.8519897,36.9113,66.2411,JWJ,AQA,Now Abad Haidar Abad,2707,Aqcha,????,Jawzjan,??????,27
10404,10405,Yale POP_MASTER,AQA-027,,0,JWJ-AQA-027,1381,Uzbek,3,292.8862915,36.9154,66.1815,JWJ,AQA,Qemaraq Bala,2707,Aqcha,????,Jawzjan,??????,27
10405,10406,Yale POP_MASTER,AQA-035,District,1,JWJ-AQA-035,35300,Turkmen,4,292.1896057,36.9159,66.1895,JWJ,AQA,Aqcha,2707,Aqcha,????,Jawzjan,??????,27
10406,10407,Yale POP_MASTER,MYN-017,,0,JWJ-MYN-017,98,Uzbek,3,288.02819819999996,36.9568,66.2325,JWJ,MYN,Alim Laik Haidar Abad Dehli,2708,Mardyan,??????,Jawzjan,??????,27
10407,10408,Yale POP_MASTER,MYN-032,,0,JWJ-MYN-032,514,Turkmen,4,291.8165894,36.9279,66.2611,JWJ,MYN,Hundo Kush Afghaniya,2708,Mardyan,??????,Jawzjan,??????,27
10408,10409,Yale POP_MASTER,MYN-033,,0,JWJ-MYN-033,1653,Turkmen,4,297.2619934,36.9022,66.2642,JWJ,MYN,Hundokush Turkmanya,2708,Mardyan,??????,Jawzjan,??????,27
10409,10410,Yale POP_MASTER,MYN-034,,0,JWJ-MYN-034,414,Turkmen,4,288.9489136,36.9526,66.2391,JWJ,MYN,Jangal Arekh Watani,2708,Mardyan,??????,Jawzjan,??????,27
10410,10411,USAID AIDVillageView,MYN-001,,0,JWJ-MYN-001,0,Pashto,2,287.5300903,36.9883,66.3252,JWJ,MYN,Akhund Zada(mula Burhanuddin),2708,Mardyan,??????,Jawzjan,??????,27
10411,10412,USAID AIDVillageView,MYN-002,,0,JWJ-MYN-002,0,Pashto,2,286.01669310000005,36.9942,66.3292,JWJ,MYN,Andari,2708,Mardyan,??????,Jawzjan,??????,27
10412,10413,USAID AIDVillageView,MYN-009,,0,JWJ-MYN-009,0,Pashto,2,294.7471008,36.9157,66.3235,JWJ,MYN,Hindukushi Turkmaniya,2708,Mardyan,??????,Jawzjan,??????,27
10413,10414,USAID AIDVillageView,MYN-012,,0,JWJ-MYN-012,0,Pashto,2,287.88031010000003,36.9831,66.2994,JWJ,MYN,Mardyani Afghaniya,2708,Mardyan,??????,Jawzjan,??????,27
10414,10415,CSO AIMS Villages (ACSOR),MYN-015,,0,JWJ-MYN-015,4866,Pashto,2,289.0054016,36.95585,66.25811999999999,JWJ,MYN,Jangal Araq Mahjet,2708,Mardyan,??????,Jawzjan,??????,27
10415,10416,USAID AIDVillageView,MYN-014,,0,JWJ-MYN-014,0,Pashto,2,300.2420959,36.8686,66.3195,JWJ,MYN,Saltuq,2708,Mardyan,??????,Jawzjan,??????,27
10416,10417,Yale POP_MASTER,FB2-017,,0,JWJ-FB2-017,139,Pashto,2,296.85958860000005,36.9141,66.3778,JWJ,FB2,Chakush,2705,Fayzabad,??? ????,Jawzjan,??????,27
10417,10418,Yale POP_MASTER,MYN-018,,0,JWJ-MYN-018,784,Pashto,2,292.06750489999996,36.9871,66.4367,JWJ,MYN,Aranje,2708,Mardyan,??????,Jawzjan,??????,27
10418,10419,Yale POP_MASTER,MYN-019,,0,JWJ-MYN-019,718,Turkmen,4,295.956604,36.9147,66.2935,JWJ,MYN,Aranje Ghasha,2708,Mardyan,??????,Jawzjan,??????,27
10419,10420,Yale POP_MASTER,AQA-002,,0,JWJ-AQA-002,651,Turkmen,4,302.0505981,36.8451,66.2334,JWJ,AQA,Banda Aruq,2707,Aqcha,????,Jawzjan,??????,27
10420,10421,Yale POP_MASTER,AQA-009,,0,JWJ-AQA-009,886,Turkmen,4,303.521698,36.842,66.2701,JWJ,AQA,Chakush,2707,Aqcha,????,Jawzjan,??????,27
10421,10422,Yale POP_MASTER,AQA-010,,0,JWJ-AQA-010,125,Turkmen,4,301.6505127,36.8671,66.2613,JWJ,AQA,Chakush-i-kor Korak (1),2707,Aqcha,????,Jawzjan,??????,27
10422,10423,Yale POP_MASTER,AQA-014,,0,JWJ-AQA-014,667,Turkmen,4,302.24960330000005,36.8598,66.2577,JWJ,AQA,Kal Ta Shakh Payen,2707,Aqcha,????,Jawzjan,??????,27
10423,10424,Yale POP_MASTER,AQA-020,,0,JWJ-AQA-020,1203,Dari,1,299.4056091,36.8735,66.2256,JWJ,AQA,Komak Omer Khan,2707,Aqcha,????,Jawzjan,??????,27
10424,10425,Yale POP_MASTER,AQA-022,,0,JWJ-AQA-022,649,Turkmen,4,299.18771360000005,36.8741,66.2429,JWJ,AQA,Kotana Qar (2),2707,Aqcha,????,Jawzjan,??????,27
10425,10426,Yale POP_MASTER,MYN-041,,0,JWJ-MYN-041,1438,Turkmen,4,299.81320189999997,36.8614,66.2877,JWJ,MYN,Saltaq Turkmanaya,2708,Mardyan,??????,Jawzjan,??????,27
10473,10474,USAID AIDVillageView,FB2-004,,0,JWJ-FB2-004,0,Pashto,2,308.262207,36.8062,66.359,JWJ,FB2,Kuhna Qishlaqi Kokal Dash,2705,Fayzabad,??? ????,Jawzjan,??????,27
10477,10478,Yale POP_MASTER,FB2-014,,0,JWJ-FB2-014,732,Turkmen,4,297.1748962,36.9143,66.4067,JWJ,FB2,Awonpekal,2705,Fayzabad,??? ????,Jawzjan,??????,27
10484,10485,Yale POP_MASTER,FB2-042,,0,JWJ-FB2-042,1167,Uzbek,3,297.4005127,36.9235,66.4702,JWJ,FB2,Mardeyan Watani Payen,2705,Fayzabad,??? ????,Jawzjan,??????,27
10485,10486,Yale POP_MASTER,FB2-043,,0,JWJ-FB2-043,1203,Uzbek,3,298.7359924,36.9369,66.4788,JWJ,FB2,Mardeyan Bala,2705,Fayzabad,??? ????,Jawzjan,??????,27
10486,10487,Yale POP_MASTER,FB2-065,,0,JWJ-FB2-065,137,Pashto,2,304.074585,36.8861,66.5048,JWJ,FB2,Sar Asiyab,2705,Fayzabad,??? ????,Jawzjan,??????,27
10487,10488,Yale POP_MASTER,FB2-018,,0,JWJ-FB2-018,569,Turkmen,4,305.579895,36.8626,66.4634,JWJ,FB2,Char Bagh,2705,Fayzabad,??? ????,Jawzjan,??????,27
10488,10489,Yale POP_MASTER,FB2-034,,0,JWJ-FB2-034,911,Uzbek,3,306.6386108,36.8245,66.3998,JWJ,FB2,Khanumi,2705,Fayzabad,??? ????,Jawzjan,??????,27
10489,10490,Yale POP_MASTER,FB2-036,,0,JWJ-FB2-036,1243,Turkmen,4,306.58041380000003,36.7933,66.3344,JWJ,FB2,Kokal Dash,2705,Fayzabad,??? ????,Jawzjan,??????,27
10490,10491,Yale POP_MASTER,FB2-037,,0,JWJ-FB2-037,93,Turkmen,4,307.99468989999997,36.8108,66.3431,JWJ,FB2,Kokal Dash Kohna,2705,Fayzabad,??? ????,Jawzjan,??????,27
10491,10492,Yale POP_MASTER,FB2-038,,0,JWJ-FB2-038,1008,Pashto,2,306.05218510000003,36.8028,66.3156,JWJ,FB2,Kokal Dash Watani,2705,Fayzabad,??? ????,Jawzjan,??????,27
10501,10502,Yale POP_MASTER,FB2-039,,0,JWJ-FB2-039,1189,Dari,1,318.96148680000005,36.7952,66.5643,JWJ,FB2,Koshkak,2705,Fayzabad,??? ????,Jawzjan,??????,27
10502,10503,Yale POP_MASTER,FB2-040,,0,JWJ-FB2-040,939,Dari,1,318.8615112,36.8061,66.5645,JWJ,FB2,Koshkak Payen Dahi,2705,Fayzabad,??? ????,Jawzjan,??????,27
10503,10504,Yale POP_MASTER,FB2-041,,0,JWJ-FB2-041,2363,Pashto,2,309.434906,36.8444,66.5247,JWJ,FB2,Mamlak,2705,Fayzabad,??? ????,Jawzjan,??????,27
10504,10505,Yale POP_MASTER,FB2-046,,0,JWJ-FB2-046,15,Uzbek,3,302.144104,36.8691,66.4425,JWJ,FB2,Naqelin Char Bagh,2705,Fayzabad,??? ????,Jawzjan,??????,27
10505,10506,Yale POP_MASTER,FB2-047,,0,JWJ-FB2-047,605,Pashto,2,309.688385,36.7644,66.3864,JWJ,FB2,Nasiri,2705,Fayzabad,??? ????,Jawzjan,??????,27
10506,10507,Yale POP_MASTER,FB2-048,,0,JWJ-FB2-048,1165,Uzbek,3,302.91931150000005,36.8671,66.4046,JWJ,FB2,Nasrat Abad,2705,Fayzabad,??? ????,Jawzjan,??????,27
10507,10508,Yale POP_MASTER,FB2-049,,0,JWJ-FB2-049,766,Uzbek,3,305.9755859,36.8234,66.3702,JWJ,FB2,Now Abad,2705,Fayzabad,??? ????,Jawzjan,??????,27
10508,10509,Yale POP_MASTER,FB2-050,,0,JWJ-FB2-050,212,Pashto,2,312.91101069999996,36.7588,66.3557,JWJ,FB2,Now Abad Jowi Wazir Lab Barya,2705,Fayzabad,??? ????,Jawzjan,??????,27
10509,10510,Yale POP_MASTER,FB2-051,,0,JWJ-FB2-051,194,Uzbek,3,301.1133118,36.8746,66.4094,JWJ,FB2,Now Darad Nasrat Abad,2705,Fayzabad,??? ????,Jawzjan,??????,27
10510,10511,Yale POP_MASTER,FB2-055,,0,JWJ-FB2-055,1152,Pashto,2,312.5945129,36.8125,66.5451,JWJ,FB2,Qab Chaq Watani,2705,Fayzabad,??? ????,Jawzjan,??????,27
10511,10512,Yale POP_MASTER,FB2-058,,0,JWJ-FB2-058,321,Turkmen,4,310.97860719999994,36.7779,66.389,JWJ,FB2,Qara Boyen,2705,Fayzabad,??? ????,Jawzjan,??????,27
10512,10513,Yale POP_MASTER,FB2-060,,0,JWJ-FB2-060,118,Turkmen,4,305.4507141,36.8102,66.3061,JWJ,FB2,Qazel Gardab,2705,Fayzabad,??? ????,Jawzjan,??????,27
10513,10514,Yale POP_MASTER,FB2-068,,0,JWJ-FB2-068,605,Dari,1,314.0910034,36.8308,66.5537,JWJ,FB2,Shah Salim,2705,Fayzabad,??? ????,Jawzjan,??????,27
10514,10515,Yale POP_MASTER,FB2-070,,0,JWJ-FB2-070,513,Pashto,2,307.02920530000006,36.835,66.37,JWJ,FB2,Shaikh Abad,2705,Fayzabad,??? ????,Jawzjan,??????,27
10975,10976,USAID AIDVillageView,AQA-051,,0,JWJ-AQA-051,0,Dari,1,296.8659058,36.8902,66.1646,JWJ,AQA,Surkh (besh Kapa-i-surkh),2707,Aqcha,????,Jawzjan,??????,27
10976,10977,USAID AIDVillageView,AQA-054,,0,JWJ-AQA-054,0,Dari,1,291.90090939999993,36.9137,66.1703,JWJ,AQA,Uzbaki,2707,Aqcha,????,Jawzjan,??????,27
10977,10978,USAID AIDVillageView,AQA-058,,0,JWJ-AQA-058,0,Dari,1,291.7019959,36.9057,66.1467,JWJ,AQA,Yang Ariq (1),2707,Aqcha,????,Jawzjan,??????,27
10978,10979,USAID AIDVillageView,AQA-043,,0,JWJ-AQA-043,0,Dari,1,297.638092,36.8798,66.1787,JWJ,AQA,Komaki Mansur,2707,Aqcha,????,Jawzjan,??????,27
10979,10980,USAID AIDVillageView,AQA-045,,0,JWJ-AQA-045,0,Dari,1,299.42639160000004,36.8668,66.1898,JWJ,AQA,Qara Boien,2707,Aqcha,????,Jawzjan,??????,27
10980,10981,USAID AIDVillageView,AQA-050,,0,JWJ-AQA-050,0,Dari,1,295.9119873,36.8867,66.1579,JWJ,AQA,Surkh,2707,Aqcha,????,Jawzjan,??????,27
10981,10982,USAID AIDVillageView,AQA-053,,0,JWJ-AQA-053,0,Dari,1,297.0646057,36.8843,66.181,JWJ,AQA,Tabai,2707,Aqcha,????,Jawzjan,??????,27
10982,10983,Yale POP_MASTER,AQA-028,,0,JWJ-AQA-028,986,Uzbek,3,291.1098938,36.9216,66.1643,JWJ,AQA,Qemaraq Payan,2707,Aqcha,????,Jawzjan,??????,27
10983,10984,Yale POP_MASTER,AQA-030,,0,JWJ-AQA-030,265,Turkmen,4,292.81149289999996,36.9102,66.1409,JWJ,AQA,Saqas Kol,2707,Aqcha,????,Jawzjan,??????,27
10984,10985,Yale POP_MASTER,AQA-032,,0,JWJ-AQA-032,2495,Turkmen,4,290.8167114,36.9045,66.158,JWJ,AQA,Yangaraq Turkmanya,2707,Aqcha,????,Jawzjan,??????,27
10985,10986,Yale POP_MASTER,AQA-033,,0,JWJ-AQA-033,1261,Turkmen,4,290.0741882,36.9213,66.1496,JWJ,AQA,Yangaraq Uzbaki,2707,Aqcha,????,Jawzjan,??????,27
10986,10987,Yale POP_MASTER,AQA-004,,0,JWJ-AQA-004,727,Pashto,2,297.70239260000005,36.8724,66.2033,JWJ,AQA,Bate Kot Afghaniya,2707,Aqcha,????,Jawzjan,??????,27
10987,10988,Yale POP_MASTER,AQA-005,,0,JWJ-AQA-005,408,Turkmen,4,296.1846008,36.8776,66.1761,JWJ,AQA,Bati,2707,Aqcha,????,Jawzjan,??????,27
10988,10989,Yale POP_MASTER,AQA-016,,0,JWJ-AQA-016,293,Uzbek,3,296.6979065,36.8822,66.1604,JWJ,AQA,Khna Aqa Arabya Sufla,2707,Aqcha,????,Jawzjan,??????,27
10989,10990,Yale POP_MASTER,AQA-019,,0,JWJ-AQA-019,944,Pashto,2,297.4421082,36.8838,66.1865,JWJ,AQA,Komak Mansoor,2707,Aqcha,????,Jawzjan,??????,27
10990,10991,Yale POP_MASTER,AQA-025,,0,JWJ-AQA-025,230,Dari,1,297.7956848,36.8646,66.212,JWJ,AQA,Qara Boyen Arabya,2707,Aqcha,????,Jawzjan,??????,27
10991,10992,Yale POP_MASTER,AQA-026,,0,JWJ-AQA-026,728,Dari,1,302.0694885,36.8395,66.2299,JWJ,AQA,Qara Boyen Hulya,2707,Aqcha,????,Jawzjan,??????,27
10992,10993,Yale POP_MASTER,AQA-034,,0,JWJ-AQA-034,649,Turkmen,4,300.2676086,36.8623,66.1955,JWJ,AQA,Zargar Kocha,2707,Aqcha,????,Jawzjan,??????,27
10993,10994,Yale POP_MASTER,KQA-012,,0,JWJ-KQA-012,2627,Pashto,2,297.46038819999995,36.861,66.1685,JWJ,KQA,Khan Aqa,2706,Khanaqa,?????,Jawzjan,??????,27
10994,10995,Yale POP_MASTER,KQA-013,,0,JWJ-KQA-013,322,Uzbek,3,298.5656128,36.8406,66.1667,JWJ,KQA,Khan Aqa Arabya Hulya,2706,Khanaqa,?????,Jawzjan,??????,27
10995,10996,Yale POP_MASTER,KQA-016,,0,JWJ-KQA-016,627,Dari,1,301.0,36.8534,66.2039,JWJ,KQA,Qara Boyen Sufla,2706,Khanaqa,?????,Jawzjan,??????,27
10996,10997,USAID AIDVillageView,SBG-019,,0,JWJ-SBG-019,0,Dari,1,592.7454834,36.6634,66.0151,JWJ,SBG,Khwaja Gogerdak,2701,Shiberghan,??????,Jawzjan,??????,27
10997,10998,USAID AIDVillageView,FB2-001,,0,JWJ-FB2-001,0,Dari,1,373.6751099,36.6547,66.1735,JWJ,FB2,Ali Mughul,2705,Fayzabad,??? ????,Jawzjan,??????,27
10998,10999,USAID AIDVillageView,FB2-010,,0,JWJ-FB2-010,0,Dari,1,539.0109252999999,36.5248,66.2259,JWJ,FB2,Torli Bash Kamar,2705,Fayzabad,??? ????,Jawzjan,??????,27
10999,11000,USAID AIDVillageView,KQA-001,,0,JWJ-KQA-001,0,Dari,1,292.8523865,36.8428,66.0991,JWJ,KQA,Khanabad,2706,Khanaqa,?????,Jawzjan,??????,27
11000,11001,Yale POP_MASTER,KQA-007,,0,JWJ-KQA-007,1232,Pashto,2,290.28930660000003,36.8937,66.0995,JWJ,KQA,Bakawol Muquri,2706,Khanaqa,?????,Jawzjan,??????,27
11001,11002,Yale POP_MASTER,MJK-052,,0,JWJ-MJK-052,1095,Turkmen,4,290.0057983,36.9175,66.1089,JWJ,MJK,Mangajek Farari,2702,Mingajik,?????,Jawzjan,??????,27
11002,11003,Yale POP_MASTER,MJK-053,,0,JWJ-MJK-053,865,Turkmen,4,287.81320189999997,36.931999999999995,66.1095,JWJ,MJK,Mangajek Qoul Ghajar,2702,Mingajik,?????,Jawzjan,??????,27
11003,11004,Yale POP_MASTER,MJK-067,,0,JWJ-MJK-067,1662,Turkmen,4,285.01928710000004,36.9153,66.0504,JWJ,MJK,Sultan Arieq,2702,Mingajik,?????,Jawzjan,??????,27
11004,11005,Yale POP_MASTER,MJK-068,,0,JWJ-MJK-068,307,Turkmen,4,289.7573853,36.914,66.1193,JWJ,MJK,Zadran,2702,Mingajik,?????,Jawzjan,??????,27
11005,11006,Yale POP_MASTER,FB2-026,,0,JWJ-FB2-026,199,Dari,1,439.61410520000004,36.5776,66.2266,JWJ,FB2,Gul Ha,2705,Fayzabad,??? ????,Jawzjan,??????,27
11006,11007,Yale POP_MASTER,FB2-067,,0,JWJ-FB2-067,340,Dari,1,442.908905,36.5857,66.2274,JWJ,FB2,Seya Kamar Sufla,2705,Fayzabad,??? ????,Jawzjan,??????,27
11007,11008,Yale POP_MASTER,KQA-003,,0,JWJ-KQA-003,766,Turkmen,4,292.40008539999997,36.8626,66.0859,JWJ,KQA,Al Yali Mahjer,2706,Khanaqa,?????,Jawzjan,??????,27
11008,11009,Yale POP_MASTER,KQA-004,,0,JWJ-KQA-004,935,Turkmen,4,293.48980710000006,36.821999999999996,66.097,JWJ,KQA,Alak Rabat Awalam,2706,Khanaqa,?????,Jawzjan,??????,27
11009,11010,Yale POP_MASTER,KQA-005,,0,JWJ-KQA-005,1050,Turkmen,4,296.1465149,36.855,66.1221,JWJ,KQA,Aliyale Watani,2706,Khanaqa,?????,Jawzjan,??????,27
11010,11011,Yale POP_MASTER,KQA-006,,0,JWJ-KQA-006,823,Uzbek,3,293.0501099,36.8677,66.1099,JWJ,KQA,Awgam,2706,Khanaqa,?????,Jawzjan,??????,27
11011,11012,Yale POP_MASTER,KQA-008,,0,JWJ-KQA-008,580,Pashto,2,291.23199460000006,36.8725,66.0375,JWJ,KQA,Choob Bash,2706,Khanaqa,?????,Jawzjan,??????,27
11012,11013,Yale POP_MASTER,KQA-009,,0,JWJ-KQA-009,303,Turkmen,4,291.5698853,36.8455,66.0832,JWJ,KQA,Kaf Geer,2706,Khanaqa,?????,Jawzjan,??????,27
11013,11014,Yale POP_MASTER,KQA-010,,0,JWJ-KQA-010,1225,Turkmen,4,297.15811160000004,36.8571,66.1387,JWJ,KQA,Kalata Shakh Bala,2706,Khanaqa,?????,Jawzjan,??????,27
11014,11015,Yale POP_MASTER,KQA-011,,0,JWJ-KQA-011,606,Uzbek,3,295.7121887,36.8372,66.1135,JWJ,KQA,Khan Abad Arabya,2706,Khanaqa,?????,Jawzjan,??????,27
11015,11016,Yale POP_MASTER,KQA-014,,0,JWJ-KQA-014,690,Dari,1,292.60308839999993,36.8139,66.0758,JWJ,KQA,Mesriya,2706,Khanaqa,?????,Jawzjan,??????,27
11016,11017,Yale POP_MASTER,KQA-015,,0,JWJ-KQA-015,1198,Dari,1,296.36389160000004,36.8807,66.1364,JWJ,KQA,Qalich Abad,2706,Khanaqa,?????,Jawzjan,??????,27
11017,11018,Yale POP_MASTER,KQA-018,,0,JWJ-KQA-018,751,Dari,1,296.1854858,36.8476,66.1418,JWJ,KQA,Shah Mirza,2706,Khanaqa,?????,Jawzjan,??????,27
11018,11019,Yale POP_MASTER,KQA-019,,0,JWJ-KQA-019,323,Dari,1,290.90829469999994,36.8347,66.0706,JWJ,KQA,Sorkh Khan Abad,2706,Khanaqa,?????,Jawzjan,??????,27
11019,11020,Yale POP_MASTER,KQA-021,,0,JWJ-KQA-021,2254,Turkmen,4,291.7672119,36.8796,66.0771,JWJ,KQA,Yangi Qala,2706,Khanaqa,?????,Jawzjan,??????,27
11020,11021,Yale POP_MASTER,KQA-022,,0,JWJ-KQA-022,158,Dari,1,291.6679993,36.8784,66.0512,JWJ,KQA,Yangi Qala Afghaniya,2706,Khanaqa,?????,Jawzjan,??????,27
11021,11022,Yale POP_MASTER,KQA-023,District,1,JWJ-KQA-023,9685,Turkmen,4,293.1200867,36.868,66.0895,JWJ,KQA,Khanaqa,2706,Khanaqa,?????,Jawzjan,??????,27
11389,11390,Yale POP_MASTER,FB2-012,,0,JWJ-FB2-012,143,Pashto,2,783.7487183,36.5847,66.4411,JWJ,FB2,Amir Bai Gaza Sufla,2705,Fayzabad,??? ????,Jawzjan,??????,27
11390,11391,Yale POP_MASTER,FB2-016,,0,JWJ-FB2-016,66,Dari,1,774.3737183,36.5871,66.4621,JWJ,FB2,Chak Bashi Gaza Sufla,2705,Fayzabad,??? ????,Jawzjan,??????,27
11391,11392,Yale POP_MASTER,FB2-020,,0,JWJ-FB2-020,92,Dari,1,386.58358760000004,36.6443,66.4061,JWJ,FB2,Chashma Gozara,2705,Fayzabad,??? ????,Jawzjan,??????,27
11392,11393,Yale POP_MASTER,FB2-021,,0,JWJ-FB2-021,196,Turkmen,4,926.7697754000001,36.5891,66.4806,JWJ,FB2,Chely Sang Ab Gaza Sufla,2705,Fayzabad,??? ????,Jawzjan,??????,27
11393,11394,Yale POP_MASTER,FB2-022,,0,JWJ-FB2-022,241,Pashto,2,536.4738159,36.5387,66.3306,JWJ,FB2,Dara Gok Seya Shakar Qoul,2705,Fayzabad,??? ????,Jawzjan,??????,27
11394,11395,Yale POP_MASTER,FB2-027,,0,JWJ-FB2-027,410,Pashto,2,456.5999146000001,36.5854,66.2882,JWJ,FB2,Haft Mazar Shakar Qoul,2705,Fayzabad,??? ????,Jawzjan,??????,27
11395,11396,Yale POP_MASTER,FB2-031,,0,JWJ-FB2-031,78,Dari,1,510.9963074,36.605,66.2972,JWJ,FB2,Jar Sai Shakar Qoul,2705,Fayzabad,??? ????,Jawzjan,??????,27
11396,11397,Yale POP_MASTER,FB2-035,,0,JWJ-FB2-035,744,Hazaragi,8,583.9542847,36.5109,66.2806,JWJ,FB2,Khulmi Ha Shakar,2705,Fayzabad,??? ????,Jawzjan,??????,27
11445,11446,Yale POP_MASTER,FB2-045,,0,JWJ-FB2-045,143,Dari,1,652.4448242000001,36.5726,66.4205,JWJ,FB2,Mullah Jalat Gaza Sufla,2705,Fayzabad,??? ????,Jawzjan,??????,27
11446,11447,Yale POP_MASTER,FB2-056,,0,JWJ-FB2-056,135,Dari,1,454.98950199999996,36.5817,66.2432,JWJ,FB2,Qadogh Shahid,2705,Fayzabad,??? ????,Jawzjan,??????,27
11447,11448,Yale POP_MASTER,FB2-059,,0,JWJ-FB2-059,297,Pashto,2,547.5385742000001,36.585,66.3057,JWJ,FB2,Qarawol Shakar Qoul,2705,Fayzabad,??? ????,Jawzjan,??????,27
11549,11550,Yale POP_MASTER,FB2-061,,0,JWJ-FB2-061,190,Uzbek,3,511.7752075,36.5712,66.3054,JWJ,FB2,Qezel Halqa Shakar Qoul,2705,Fayzabad,??? ????,Jawzjan,??????,27
11550,11551,Yale POP_MASTER,FB2-062,,0,JWJ-FB2-062,125,Hazaragi,8,507.30090329999996,36.5581,66.3055,JWJ,FB2,Qezel Kotal Shakar Qoul,2705,Fayzabad,??? ????,Jawzjan,??????,27
11551,11552,Yale POP_MASTER,FB2-069,,0,JWJ-FB2-069,16,Pashto,2,586.1812133999999,36.5746,66.3207,JWJ,FB2,Shah Wali Shakar Qoul,2705,Fayzabad,??? ????,Jawzjan,??????,27
11552,11553,Yale POP_MASTER,FB2-075,,0,JWJ-FB2-075,84,Pashto,2,562.1066284,36.5912,66.3467,JWJ,FB2,Taraghly Shakar Qoul,2705,Fayzabad,??? ????,Jawzjan,??????,27
14905,14906,USAID AIDVillageView,KDK-003,,0,JWJ-KDK-003,0,Turkmen,4,315.47030639999997,36.7891,65.6097,JWJ,KDK,Chob Bash-i-naw,2703,Khwajadukoh,????? ?????,Jawzjan,??????,27
14906,14907,USAID AIDVillageView,KDK-004,,0,JWJ-KDK-004,0,Turkmen,4,310.3716125,36.8109,65.638,JWJ,KDK,Gaday Tapmas,2703,Khwajadukoh,????? ?????,Jawzjan,??????,27
14907,14908,USAID AIDVillageView,KDK-007,,0,JWJ-KDK-007,0,Turkmen,4,307.3294983,36.8242,65.6261,JWJ,KDK,Nawabad,2703,Khwajadukoh,????? ?????,Jawzjan,??????,27
14908,14909,USAID AIDVillageView,KDK-009,,0,JWJ-KDK-009,0,Turkmen,4,299.93069460000004,36.8634,65.6863,JWJ,KDK,Qizil Ayaqi Khurd,2703,Khwajadukoh,????? ?????,Jawzjan,??????,27
14909,14910,USAID AIDVillageView,KDK-010,,0,JWJ-KDK-010,0,Turkmen,4,304.4708862,36.8342,65.6183,JWJ,KDK,Qizil Bash,2703,Khwajadukoh,????? ?????,Jawzjan,??????,27
14910,14911,USAID AIDVillageView,KDK-013,,0,JWJ-KDK-013,0,Turkmen,4,307.3817139,36.8201,65.6336,JWJ,KDK,Tawash,2703,Khwajadukoh,????? ?????,Jawzjan,??????,27
14911,14912,Yale POP_MASTER,KDK-015,,0,JWJ-KDK-015,1111,Turkmen,4,309.2825012,36.8153,65.6455,JWJ,KDK,Aitroq,2703,Khwajadukoh,????? ?????,Jawzjan,??????,27
14912,14913,Yale POP_MASTER,KDK-016,,0,JWJ-KDK-016,1704,Uzbek,3,306.8385925,36.83,65.631,JWJ,KDK,Arab Qarlaq,2703,Khwajadukoh,????? ?????,Jawzjan,??????,27
14913,14914,Yale POP_MASTER,KDK-017,,0,JWJ-KDK-017,1129,Uzbek,3,303.7485046,36.8404,65.6331,JWJ,KDK,Aymaq Hulya,2703,Khwajadukoh,????? ?????,Jawzjan,??????,27
14914,14915,Yale POP_MASTER,KDK-018,,0,JWJ-KDK-018,196,Pashto,2,314.9560852,36.7917,65.6393,JWJ,KDK,Aymaq Kohna,2703,Khwajadukoh,????? ?????,Jawzjan,??????,27
14915,14916,Yale POP_MASTER,KDK-019,,0,JWJ-KDK-019,744,Uzbek,3,303.1648865,36.8386,65.6451,JWJ,KDK,Aymaq Sufla,2703,Khwajadukoh,????? ?????,Jawzjan,??????,27
14916,14917,Yale POP_MASTER,KDK-020,,0,JWJ-KDK-020,519,Turkmen,4,321.70858760000004,36.7632,65.6348,JWJ,KDK,Chobash Khord Afghaniya,2703,Khwajadukoh,????? ?????,Jawzjan,??????,27
14917,14918,Yale POP_MASTER,KDK-021,,0,JWJ-KDK-021,1126,Turkmen,4,323.17340089999993,36.7639,65.6078,JWJ,KDK,Chobash Khord Turkmaniya,2703,Khwajadukoh,????? ?????,Jawzjan,??????,27
14918,14919,Yale POP_MASTER,KDK-025,,0,JWJ-KDK-025,386,Uzbek,3,304.69769289999994,36.8387,65.6127,JWJ,KDK,Khoja Dokoh Now Abad,2703,Khwajadukoh,????? ?????,Jawzjan,??????,27
14919,14920,Yale POP_MASTER,KDK-026,,0,JWJ-KDK-026,358,Turkmen,4,328.16821289999996,36.7386,65.6364,JWJ,KDK,Lab Jar Tayefa Bai,2703,Khwajadukoh,????? ?????,Jawzjan,??????,27
14920,14921,Yale POP_MASTER,KDK-027,,0,JWJ-KDK-027,905,Turkmen,4,310.1228943,36.8143,65.661,JWJ,KDK,Mangajek,2703,Khwajadukoh,????? ?????,Jawzjan,??????,27
14921,14922,Yale POP_MASTER,KDK-028,,0,JWJ-KDK-028,4312,Uzbek,3,309.1336975,36.8188,65.6222,JWJ,KDK,Markaz Wolluswaly,2703,Khwajadukoh,????? ?????,Jawzjan,??????,27
14922,14923,Yale POP_MASTER,KDK-029,,0,JWJ-KDK-029,1013,Turkmen,4,305.34741210000004,36.8444,65.7006,JWJ,KDK,Masjed Khalifa Qazel Ayaq,2703,Khwajadukoh,????? ?????,Jawzjan,??????,27
14923,14924,Yale POP_MASTER,KDK-030,,0,JWJ-KDK-030,180,Uzbek,3,303.1965027,36.827,65.5777,JWJ,KDK,Nazar Abad,2703,Khwajadukoh,????? ?????,Jawzjan,??????,27
14924,14925,Yale POP_MASTER,KDK-031,,0,JWJ-KDK-031,541,Turkmen,4,316.24438480000003,36.7892,65.6665,JWJ,KDK,Qarba Qarough,2703,Khwajadukoh,????? ?????,Jawzjan,??????,27
14925,14926,Yale POP_MASTER,KDK-032,,0,JWJ-KDK-032,998,Turkmen,4,308.120697,36.8265,65.6897,JWJ,KDK,Qazel Ayaq Kalan,2703,Khwajadukoh,????? ?????,Jawzjan,??????,27
14926,14927,Yale POP_MASTER,KDK-033,,0,JWJ-KDK-033,282,Turkmen,4,353.2804871,36.696,65.5771,JWJ,KDK,Rahmat Abad Mahjeren,2703,Khwajadukoh,????? ?????,Jawzjan,??????,27
14927,14928,Yale POP_MASTER,KDK-034,,0,JWJ-KDK-034,278,Turkmen,4,314.1973877,36.7964,65.6157,JWJ,KDK,Sal Taq Afghaniya,2703,Khwajadukoh,????? ?????,Jawzjan,??????,27
14928,14929,Yale POP_MASTER,KDK-035,,0,JWJ-KDK-035,862,Turkmen,4,318.3785095,36.7723,65.6246,JWJ,KDK,Sal Taq Khord,2703,Khwajadukoh,????? ?????,Jawzjan,??????,27
14929,14930,Yale POP_MASTER,KDK-036,,0,JWJ-KDK-036,1147,Turkmen,4,304.4672852,36.8475,65.6692,JWJ,KDK,Sal Teq Kalan,2703,Khwajadukoh,????? ?????,Jawzjan,??????,27
14930,14931,Yale POP_MASTER,KDK-037,,0,JWJ-KDK-037,889,Pashto,2,325.0244141,36.7537,65.6123,JWJ,KDK,Shakarak Bazar,2703,Khwajadukoh,????? ?????,Jawzjan,??????,27
14931,14932,Yale POP_MASTER,KDK-038,,0,JWJ-KDK-038,554,Turkmen,4,331.15991210000004,36.7206,65.6374,JWJ,KDK,Tafan Turkmanya,2703,Khwajadukoh,????? ?????,Jawzjan,??????,27
14932,14933,Yale POP_MASTER,KDK-039,District,1,JWJ-KDK-039,1490,Turkmen,4,304.33898930000004,36.8377,65.6135,JWJ,KDK,Khwaja Do Koh,2703,Khwajadukoh,????? ?????,Jawzjan,??????,27
14933,14934,USAID AIDVillageView,KAB-002,,0,JWJ-KAB-002,0,Turkmen,4,259.0026855,37.4871,65.8269,JWJ,KAB,Chobil Tapa,2710,Khamyab,?????,Jawzjan,??????,27
14934,14935,Yale POP_MASTER,QRQ-011,,0,JWJ-QRQ-011,573,Turkmen,4,259.6022949,37.4618,65.8695,JWJ,QRQ,Chopal Tapa,2709,Qarqin,?????,Jawzjan,??????,27
14935,14936,Yale POP_MASTER,KAB-007,,0,JWJ-KAB-007,3543,Turkmen,4,256.7970886,37.4926,65.8241,JWJ,KAB,Bozaraq,2710,Khamyab,?????,Jawzjan,??????,27
14936,14937,Yale POP_MASTER,KAB-008,,0,JWJ-KAB-008,1214,Turkmen,4,260.4043884,37.5287,65.7687,JWJ,KAB,Dahan Haji,2710,Khamyab,?????,Jawzjan,??????,27
14937,14938,Yale POP_MASTER,KAB-009,,0,JWJ-KAB-009,533,Turkmen,4,257.8807068,37.4771,65.8425,JWJ,KAB,Now Abad,2710,Khamyab,?????,Jawzjan,??????,27
14938,14939,Yale POP_MASTER,KAB-010,,0,JWJ-KAB-010,6654,Turkmen,4,255.62710570000002,37.5248,65.7314,JWJ,KAB,Qarnas,2710,Khamyab,?????,Jawzjan,??????,27
14939,14940,Yale POP_MASTER,KAB-011,District,1,JWJ-KAB-011,1399,Turkmen,4,255.0292969,37.5284,65.7205,JWJ,KAB,Khamyab,2710,Khamyab,?????,Jawzjan,??????,27
14940,14941,USAID AIDVillageView,QRQ-001,,0,JWJ-QRQ-001,0,Turkmen,4,259.3153076,37.4546,65.9039,JWJ,QRQ,Jangali Saliq Bay,2709,Qarqin,?????,Jawzjan,??????,27
14941,14942,USAID AIDVillageView,QRQ-002,,0,JWJ-QRQ-002,0,Turkmen,4,269.1565857,37.3469,66.2493,JWJ,QRQ,Keleft,2709,Qarqin,?????,Jawzjan,??????,27
14942,14943,USAID AIDVillageView,QRQ-003,,0,JWJ-QRQ-003,0,Turkmen,4,262.0451965,37.411,66.0353,JWJ,QRQ,Khan Tapa,2709,Qarqin,?????,Jawzjan,??????,27
14943,14944,USAID AIDVillageView,QRQ-006,,0,JWJ-QRQ-006,0,Turkmen,4,262.5924988,37.4271,66.02,JWJ,QRQ,Qarqin (dinar),2709,Qarqin,?????,Jawzjan,??????,27
14944,14945,USAID AIDVillageView,QRQ-007,,0,JWJ-QRQ-007,0,Turkmen,4,261.66610719999994,37.4184,66.0529,JWJ,QRQ,Qarqin (joy Saray),2709,Qarqin,?????,Jawzjan,??????,27
14945,14946,USAID AIDVillageView,QRQ-008,,0,JWJ-QRQ-008,0,Turkmen,4,263.9809875,37.4205,66.0141,JWJ,QRQ,Qarqin (khan Tepa),2709,Qarqin,?????,Jawzjan,??????,27
14946,14947,USAID AIDVillageView,QRQ-009,,0,JWJ-QRQ-009,0,Turkmen,4,263.86318969999996,37.4201,66.0256,JWJ,QRQ,Qarqin (shor Tepa),2709,Qarqin,?????,Jawzjan,??????,27
14947,14948,USAID AIDVillageView,QRQ-010,,0,JWJ-QRQ-010,0,Turkmen,4,262.89819339999997,37.4079,66.0754,JWJ,QRQ,Shor Tapa,2709,Qarqin,?????,Jawzjan,??????,27
14948,14949,Yale POP_MASTER,QRQ-012,,0,JWJ-QRQ-012,6629,Turkmen,4,262.24209590000004,37.436,65.967,JWJ,QRQ,Denar,2709,Qarqin,?????,Jawzjan,??????,27
14949,14950,Yale POP_MASTER,QRQ-013,,0,JWJ-QRQ-013,1455,Turkmen,4,265.2244873,37.3426,66.2028,JWJ,QRQ,Kok,2709,Qarqin,?????,Jawzjan,??????,27
14950,14951,Yale POP_MASTER,QRQ-014,,0,JWJ-QRQ-014,5645,Turkmen,4,263.0815125,37.4118,66.0542,JWJ,QRQ,Shor Tapa,2709,Qarqin,?????,Jawzjan,??????,27
14951,14952,Yale POP_MASTER,QRQ-015,District,1,JWJ-QRQ-015,10600,Turkmen,4,263.4393921,37.4127,66.0364,JWJ,QRQ,Qarqin,2709,Qarqin,?????,Jawzjan,??????,27
14952,14953,USAID AIDVillageView,MJK-001,,0,JWJ-MJK-001,0,Turkmen,4,277.7998962,37.0537,66.0466,JWJ,MJK,Ab Kolok (joyi Ghurz),2702,Mingajik,?????,Jawzjan,??????,27
14953,14954,USAID AIDVillageView,MJK-002,,0,JWJ-MJK-002,0,Turkmen,4,277.498291,37.0662,66.0502,JWJ,MJK,Ab Kuluk,2702,Mingajik,?????,Jawzjan,??????,27
14954,14955,USAID AIDVillageView,MJK-003,,0,JWJ-MJK-003,0,Turkmen,4,278.5455933,37.0253,65.95100000000001,JWJ,MJK,Alam Lek,2702,Mingajik,?????,Jawzjan,??????,27
14955,14956,USAID AIDVillageView,MJK-009,,0,JWJ-MJK-009,0,Turkmen,4,282.7199097,36.9519,66.009,JWJ,MJK,Islam Aq Maydan,2702,Mingajik,?????,Jawzjan,??????,27
14956,14957,USAID AIDVillageView,MJK-010,,0,JWJ-MJK-010,0,Turkmen,4,277.79748539999997,37.0543,66.0435,JWJ,MJK,Joy Uraz,2702,Mingajik,?????,Jawzjan,??????,27
14957,14958,USAID AIDVillageView,MJK-011,,0,JWJ-MJK-011,0,Turkmen,4,280.6886902,36.9765,66.039,JWJ,MJK,Kilik Arigh,2702,Mingajik,?????,Jawzjan,??????,27
14958,14959,USAID AIDVillageView,MJK-012,,0,JWJ-MJK-012,0,Turkmen,4,278.2146912,37.0358,65.9815,JWJ,MJK,Kowinli,2702,Mingajik,?????,Jawzjan,??????,27
14959,14960,USAID AIDVillageView,MJK-014,,0,JWJ-MJK-014,0,Turkmen,4,283.09320069999995,37.0015,66.1012,JWJ,MJK,Mingajik (3),2702,Mingajik,?????,Jawzjan,??????,27
14960,14961,USAID AIDVillageView,MJK-015,,0,JWJ-MJK-015,0,Turkmen,4,279.5723877,37.01,66.0614,JWJ,MJK,Mingajik (2),2702,Mingajik,?????,Jawzjan,??????,27
14961,14962,USAID AIDVillageView,MJK-018,,0,JWJ-MJK-018,0,Turkmen,4,275.8403015,37.0689,65.9479,JWJ,MJK,Qara Adir,2702,Mingajik,?????,Jawzjan,??????,27
14962,14963,USAID AIDVillageView,MJK-020,,0,JWJ-MJK-020,0,Turkmen,4,279.0039063,36.9956,66.0195,JWJ,MJK,Qazan Narraw,2702,Mingajik,?????,Jawzjan,??????,27
14963,14964,USAID AIDVillageView,MJK-023,,0,JWJ-MJK-023,0,Turkmen,4,276.7990112,37.0431,65.9717,JWJ,MJK,Qulli,2702,Mingajik,?????,Jawzjan,??????,27
14964,14965,USAID AIDVillageView,MJK-024,,0,JWJ-MJK-024,0,Turkmen,4,277.5502014,37.0364,65.9729,JWJ,MJK,Qulli Watani,2702,Mingajik,?????,Jawzjan,??????,27
14965,14966,USAID AIDVillageView,MJK-025,,0,JWJ-MJK-025,0,Turkmen,4,275.60940550000004,37.0728,66.0525,JWJ,MJK,Safar Wali Dowum,2702,Mingajik,?????,Jawzjan,??????,27
14966,14967,USAID AIDVillageView,MJK-027,,0,JWJ-MJK-027,0,Turkmen,4,278.6210938,37.0995,66.1136,JWJ,MJK,Safarwali Awal,2702,Mingajik,?????,Jawzjan,??????,27
14967,14968,USAID AIDVillageView,MJK-028,,0,JWJ-MJK-028,0,Turkmen,4,275.0274963,37.0853,65.9944,JWJ,MJK,Sayidabad,2702,Mingajik,?????,Jawzjan,??????,27
14968,14969,USAID AIDVillageView,MJK-030,,0,JWJ-MJK-030,0,Turkmen,4,274.94378660000007,37.0813,66.0185,JWJ,MJK,Seyyedabad,2702,Mingajik,?????,Jawzjan,??????,27
14969,14970,USAID AIDVillageView,MJK-031,,0,JWJ-MJK-031,0,Turkmen,4,276.7099915,37.0494,65.9202,JWJ,MJK,Sulaiman,2702,Mingajik,?????,Jawzjan,??????,27
14970,14971,USAID AIDVillageView,MJK-032,,0,JWJ-MJK-032,0,Turkmen,4,278.1408997,37.0579,66.0738,JWJ,MJK,Taghan,2702,Mingajik,?????,Jawzjan,??????,27
14971,14972,Yale POP_MASTER,MYN-025,,0,JWJ-MYN-025,915,Turkmen,4,277.6890869,37.0876,66.1833,JWJ,MYN,Chapak Kol,2708,Mardyan,??????,Jawzjan,??????,27
14972,14973,Yale POP_MASTER,MJK-034,,0,JWJ-MJK-034,451,Turkmen,4,277.7315979,37.0576,66.0459,JWJ,MJK,Balja Abdulrahman,2702,Mingajik,?????,Jawzjan,??????,27
14973,14974,Yale POP_MASTER,MJK-035,,0,JWJ-MJK-035,2649,Turkmen,4,281.14608760000004,37.0041,66.0684,JWJ,MJK,Char Changho,2702,Mingajik,?????,Jawzjan,??????,27
14974,14975,Yale POP_MASTER,MJK-036,,0,JWJ-MJK-036,252,Turkmen,4,276.1528015,37.0589,65.979,JWJ,MJK,Daly Islam Abad,2702,Mingajik,?????,Jawzjan,??????,27
14975,14976,Yale POP_MASTER,MJK-038,,0,JWJ-MJK-038,791,Turkmen,4,281.0851135,37.0074,66.1698,JWJ,MJK,Daly Watani,2702,Mingajik,?????,Jawzjan,??????,27
14976,14977,Yale POP_MASTER,MJK-039,,0,JWJ-MJK-039,1194,Turkmen,4,283.2839966,36.9604,66.0828,JWJ,MJK,Habas,2702,Mingajik,?????,Jawzjan,??????,27
14977,14978,Yale POP_MASTER,MJK-041,,0,JWJ-MJK-041,1622,Turkmen,4,280.36468510000003,37.0117,66.1053,JWJ,MJK,Haroon Awal,2702,Mingajik,?????,Jawzjan,??????,27
14978,14979,Yale POP_MASTER,MJK-042,,0,JWJ-MJK-042,1025,Turkmen,4,280.6152039,37.0106,66.0905,JWJ,MJK,Haroon Doum,2702,Mingajik,?????,Jawzjan,??????,27
14979,14980,Yale POP_MASTER,MJK-043,,0,JWJ-MJK-043,381,Turkmen,4,283.3927002,36.9623,66.0047,JWJ,MJK,Islam Aq Maidan Now Abad,2702,Mingajik,?????,Jawzjan,??????,27
14980,14981,Yale POP_MASTER,MJK-044,,0,JWJ-MJK-044,344,Turkmen,4,286.13500980000003,36.9434,66.0133,JWJ,MJK,Islam Aq Maidan Watani,2702,Mingajik,?????,Jawzjan,??????,27
14981,14982,Yale POP_MASTER,MJK-045,,0,JWJ-MJK-045,524,Turkmen,4,282.59729,36.9768,66.0747,JWJ,MJK,Jaja Bacha Arieq,2702,Mingajik,?????,Jawzjan,??????,27
14982,14983,Yale POP_MASTER,MJK-046,,0,JWJ-MJK-046,475,Turkmen,4,273.7090149,37.095,66.0315,JWJ,MJK,Jowi Balja Chagli,2702,Mingajik,?????,Jawzjan,??????,27
14983,14984,Yale POP_MASTER,MJK-047,,0,JWJ-MJK-047,458,Turkmen,4,278.2390137,37.0527,66.0314,JWJ,MJK,Jowi Howraz Dowlat Bai,2702,Mingajik,?????,Jawzjan,??????,27
14984,14985,Yale POP_MASTER,MJK-048,,0,JWJ-MJK-048,582,Turkmen,4,275.9675903,37.0776,66.0094,JWJ,MJK,Jowi Shah Khan,2702,Mingajik,?????,Jawzjan,??????,27
14985,14986,Yale POP_MASTER,MJK-049,,0,JWJ-MJK-049,406,Uzbek,3,273.9165955,37.0759,65.9222,JWJ,MJK,Kalak,2702,Mingajik,?????,Jawzjan,??????,27
14986,14987,Yale POP_MASTER,MJK-050,,0,JWJ-MJK-050,489,Uzbek,3,285.7979126,36.9632,66.104,JWJ,MJK,Khatab,2702,Mingajik,?????,Jawzjan,??????,27
14987,14988,Yale POP_MASTER,MJK-051,,0,JWJ-MJK-051,1356,Turkmen,4,279.31320189999997,37.0279,66.1229,JWJ,MJK,Mangajek Alla Barn,2702,Mingajik,?????,Jawzjan,??????,27
14988,14989,Yale POP_MASTER,MJK-055,,0,JWJ-MJK-055,1138,Turkmen,4,276.1111145,37.0627,65.9527,JWJ,MJK,Qara Bak,2702,Mingajik,?????,Jawzjan,??????,27
14989,14990,Yale POP_MASTER,MJK-056,,0,JWJ-MJK-056,940,Dari,1,281.2211914,36.9892,66.017,JWJ,MJK,Qazam Narow,2702,Mingajik,?????,Jawzjan,??????,27
14990,14991,Yale POP_MASTER,MJK-057,,0,JWJ-MJK-057,456,Uzbek,3,280.69439700000004,36.9699,66.0351,JWJ,MJK,Qazan Kalak,2702,Mingajik,?????,Jawzjan,??????,27
14991,14992,Yale POP_MASTER,MJK-058,,0,JWJ-MJK-058,588,Turkmen,4,280.7604065,36.9784,66.0337,JWJ,MJK,Qazan Narow Uzbekya Bala,2702,Mingajik,?????,Jawzjan,??????,27
14992,14993,Yale POP_MASTER,MJK-059,,0,JWJ-MJK-059,670,Turkmen,4,280.433197,36.9954,66.0079,JWJ,MJK,Qazan Narow Uzbekya Payen,2702,Mingajik,?????,Jawzjan,??????,27
14993,14994,Yale POP_MASTER,MYN-035,,0,JWJ-MYN-035,705,Turkmen,4,284.0466919,37.0206,66.3049,JWJ,MYN,Khan Araq,2708,Mardyan,??????,Jawzjan,??????,27
14994,14995,Yale POP_MASTER,MYN-036,,0,JWJ-MYN-036,214,Turkmen,4,287.89248660000004,36.9878,66.2668,JWJ,MYN,Khan Shor Qala,2708,Mardyan,??????,Jawzjan,??????,27
14995,14996,Yale POP_MASTER,MYN-038,,0,JWJ-MYN-038,901,Uzbek,3,286.8713989,36.9976,66.2923,JWJ,MYN,Mardeyan Turkmaniya,2708,Mardyan,??????,Jawzjan,??????,27
14996,14997,Yale POP_MASTER,MYN-039,,0,JWJ-MYN-039,1520,Uzbek,3,284.9267883,36.9922,66.3039,JWJ,MYN,Mardyan (2),2708,Mardyan,??????,Jawzjan,??????,27
14997,14998,Yale POP_MASTER,MYN-042,District,1,JWJ-MYN-042,4768,Turkmen,4,285.63189700000004,37.0066,66.3124,JWJ,MYN,Mardyan (1),2708,Mardyan,??????,Jawzjan,??????,27
14998,14999,USAID AIDVillageView,MJK-006,,0,JWJ-MJK-006,0,Turkmen,4,284.62881469999996,36.9863,66.2046,JWJ,MJK,Dali (1),2702,Mingajik,?????,Jawzjan,??????,27
14999,15000,USAID AIDVillageView,MJK-008,,0,JWJ-MJK-008,0,Turkmen,4,284.987793,36.9846,66.217,JWJ,MJK,Dali (2),2702,Mingajik,?????,Jawzjan,??????,27
15000,15001,Yale POP_MASTER,AQA-006,,0,JWJ-AQA-006,658,Dari,1,287.96090699999996,36.9499,66.1956,JWJ,AQA,Beash Aroq Awalan,2707,Aqcha,????,Jawzjan,??????,27
15001,15002,Yale POP_MASTER,MYN-016,,0,JWJ-MYN-016,1258,Uzbek,3,286.89950560000005,36.9602,66.2212,JWJ,MYN,Alim Laik,2708,Mardyan,??????,Jawzjan,??????,27
15002,15003,Yale POP_MASTER,MJK-037,,0,JWJ-MJK-037,936,Pashto,2,285.00329589999996,36.9826,66.2094,JWJ,MJK,Daly Mahjer,2702,Mingajik,?????,Jawzjan,??????,27
15003,15004,Yale POP_MASTER,MJK-040,,0,JWJ-MJK-040,1071,Turkmen,4,286.2638855,36.9743,66.2298,JWJ,MJK,Haidar Abad Afghaniya,2702,Mingajik,?????,Jawzjan,??????,27
15004,15005,Yale POP_MASTER,MJK-060,,0,JWJ-MJK-060,1157,Turkmen,4,278.6018982,37.0275,65.9804,JWJ,MJK,Qou Tenli Watani,2702,Mingajik,?????,Jawzjan,??????,27
15005,15006,Yale POP_MASTER,MJK-061,,0,JWJ-MJK-061,2894,Turkmen,4,277.24929810000003,37.0507,66.0043,JWJ,MJK,Qoud Changhawi Mahjer,2702,Mingajik,?????,Jawzjan,??????,27
15006,15007,Yale POP_MASTER,MJK-062,,0,JWJ-MJK-062,727,Turkmen,4,277.71640010000004,37.0297,66.0044,JWJ,MJK,Qoud Changho Watani,2702,Mingajik,?????,Jawzjan,??????,27
15007,15008,Yale POP_MASTER,MJK-063,,0,JWJ-MJK-063,954,Turkmen,4,276.9726868,37.0371,65.9639,JWJ,MJK,Qoushnali Mahjer,2702,Mingajik,?????,Jawzjan,??????,27
15008,15009,Yale POP_MASTER,MJK-064,,0,JWJ-MJK-064,1221,Turkmen,4,276.95251460000003,37.0769,66.1013,JWJ,MJK,Safar Wali Awal,2702,Mingajik,?????,Jawzjan,??????,27
15009,15010,Yale POP_MASTER,MJK-065,,0,JWJ-MJK-065,615,Turkmen,4,276.41299439999995,37.080999999999996,66.0668,JWJ,MJK,Safar Wali Doum,2702,Mingajik,?????,Jawzjan,??????,27
15010,15011,Yale POP_MASTER,MJK-066,,0,JWJ-MJK-066,1049,Turkmen,4,281.6225891,37.0106,66.1542,JWJ,MJK,Shaikh Arzi,2702,Mingajik,?????,Jawzjan,??????,27
15011,15012,Yale POP_MASTER,MJK-069,,0,JWJ-MJK-069,6857,Turkmen,4,284.27398680000005,36.9916,66.1223,JWJ,MJK,Mangajik,2702,Mingajik,?????,Jawzjan,??????,27
15012,15013,Yale POP_MASTER,MJK-070,District,1,JWJ-MJK-070,4434,Turkmen,4,281.95678710000004,37.0032,66.0862,JWJ,MJK,Mingajik (1),2702,Mingajik,?????,Jawzjan,??????,27
15013,15014,USAID AIDVillageView,MYN-004,,0,JWJ-MYN-004,0,Turkmen,4,279.7597961,37.0641,66.2523,JWJ,MYN,Chalik Yoldash,2708,Mardyan,??????,Jawzjan,??????,27
15014,15015,USAID AIDVillageView,MYN-005,,0,JWJ-MYN-005,0,Turkmen,4,285.23181150000005,36.9969,66.242,JWJ,MYN,Chelik-e Aranji,2708,Mardyan,??????,Jawzjan,??????,27
15015,15016,USAID AIDVillageView,MYN-007,,0,JWJ-MYN-007,0,Turkmen,4,283.940094,37.0108,66.2426,JWJ,MYN,Chilaki Ganji Afghaniya,2708,Mardyan,??????,Jawzjan,??????,27
15016,15017,USAID AIDVillageView,MYN-008,,0,JWJ-MYN-008,0,Turkmen,4,278.01010130000003,37.0737,66.265,JWJ,MYN,Chiliki Yaldash,2708,Mardyan,??????,Jawzjan,??????,27
15017,15018,USAID AIDVillageView,MYN-011,,0,JWJ-MYN-011,0,Turkmen,4,283.6686096,36.9903,66.2884,JWJ,MYN,Mardyan (3),2708,Mardyan,??????,Jawzjan,??????,27
15020,15021,Yale POP_MASTER,MYN-020,,0,JWJ-MYN-020,761,Turkmen,4,278.7687073,37.0886,66.23100000000001,JWJ,MYN,Chalpak Byaz Khan,2708,Mardyan,??????,Jawzjan,??????,27
15021,15022,Yale POP_MASTER,MYN-021,,0,JWJ-MYN-021,614,Turkmen,4,284.8356018,37.0057,66.22,JWJ,MYN,Chapak Aranje Afghaniya,2708,Mardyan,??????,Jawzjan,??????,27
15022,15023,Yale POP_MASTER,MYN-022,,0,JWJ-MYN-022,764,Dari,1,281.4520874,37.0181,66.2307,JWJ,MYN,Chapak Aranje Ganj,2708,Mardyan,??????,Jawzjan,??????,27
15023,15024,Yale POP_MASTER,MYN-023,,0,JWJ-MYN-023,543,Turkmen,4,282.307312,37.0232,66.2516,JWJ,MYN,Chapak Aranje Watani,2708,Mardyan,??????,Jawzjan,??????,27
15024,15025,Yale POP_MASTER,MYN-024,,0,JWJ-MYN-024,955,Pashto,2,281.545105,37.0388,66.2286,JWJ,MYN,Chapak Islam Tawar Baft,2708,Mardyan,??????,Jawzjan,??????,27
15025,15026,Yale POP_MASTER,MYN-026,,0,JWJ-MYN-026,648,Turkmen,4,279.0090942,37.0682,66.2271,JWJ,MYN,Chapak Yuldaye,2708,Mardyan,??????,Jawzjan,??????,27
15026,15027,Yale POP_MASTER,MYN-027,,0,JWJ-MYN-027,113,Turkmen,4,281.0620117,37.0436,66.24600000000001,JWJ,MYN,Chapak Yuldaye Afghaniya,2708,Mardyan,??????,Jawzjan,??????,27
15027,15028,Yale POP_MASTER,MYN-028,,0,JWJ-MYN-028,397,Turkmen,4,283.8735046,37.0236,66.3407,JWJ,MYN,Farooq Qala Afghaniya,2708,Mardyan,??????,Jawzjan,??????,27
15031,15032,USAID AIDVillageView,SBG-032,,0,JWJ-SBG-032,0,Turkmen,4,340.78900150000004,36.7144,65.6966,JWJ,SBG,Shobai,2701,Shiberghan,??????,Jawzjan,??????,27
15032,15033,USAID AIDVillageView,KDK-012,,0,JWJ-KDK-012,0,Turkmen,4,329.65759280000003,36.725,65.666,JWJ,KDK,Taghan,2703,Khwajadukoh,????? ?????,Jawzjan,??????,27
15033,15034,Yale POP_MASTER,SBG-064,,0,JWJ-SBG-064,217,Pashto,2,345.32019039999994,36.6873,65.6786,JWJ,SBG,Enol Mal,2701,Shiberghan,??????,Jawzjan,??????,27
15034,15035,Yale POP_MASTER,SBG-080,,0,JWJ-SBG-080,875,Turkmen,4,336.54040530000003,36.6926,65.6621,JWJ,SBG,Lab Jar Quraish,2701,Shiberghan,??????,Jawzjan,??????,27
15035,15036,Yale POP_MASTER,SBG-081,,0,JWJ-SBG-081,749,Uzbek,3,360.06179810000003,36.6758,65.6871,JWJ,SBG,Lab Jar Shaike Afghaniya,2701,Shiberghan,??????,Jawzjan,??????,27
15036,15037,Yale POP_MASTER,KDK-022,,0,JWJ-KDK-022,1192,Turkmen,4,315.4699097,36.7996,65.806,JWJ,KDK,Choob Bash Kalan,2703,Khwajadukoh,????? ?????,Jawzjan,??????,27
15037,15038,Yale POP_MASTER,KDK-023,,0,JWJ-KDK-023,78,Turkmen,4,349.49310299999996,36.6985,65.6183,JWJ,KDK,Haq Abad Mahjeren,2703,Khwajadukoh,????? ?????,Jawzjan,??????,27
15038,15039,USAID AIDVillageView,SBG-036,,0,JWJ-SBG-036,0,Dari,1,389.40258789999996,36.5707,65.7759,JWJ,SBG,Tarnow,2701,Shiberghan,??????,Jawzjan,??????,27
15039,15040,Yale POP_MASTER,SBG-044,,0,JWJ-SBG-044,1107,Uzbek,3,401.9534912,36.5411,65.798,JWJ,SBG,Afghan Tapa Turkmanya,2701,Shiberghan,??????,Jawzjan,??????,27
15040,15041,Yale POP_MASTER,SBG-045,,0,JWJ-SBG-045,427,Uzbek,3,407.90490719999997,36.5186,65.7978,JWJ,SBG,Afghan Tepa Afghaniya,2701,Shiberghan,??????,Jawzjan,??????,27
15041,15042,Yale POP_MASTER,SBG-046,,0,JWJ-SBG-046,841,Turkmen,4,405.2998047,36.5305,65.7958,JWJ,SBG,Afghan Tepa Arabya,2701,Shiberghan,??????,Jawzjan,??????,27
15042,15043,Yale POP_MASTER,SBG-047,,0,JWJ-SBG-047,818,Turkmen,4,385.9320984,36.5754,65.797,JWJ,SBG,Aimaq Tanka,2701,Shiberghan,??????,Jawzjan,??????,27
15043,15044,Yale POP_MASTER,SBG-059,,0,JWJ-SBG-059,287,Pashto,2,390.62200930000006,36.5634,65.7732,JWJ,SBG,Char Paikal,2701,Shiberghan,??????,Jawzjan,??????,27
15044,15045,Yale POP_MASTER,SBG-061,,0,JWJ-SBG-061,166,Pashto,2,385.631012,36.5842,65.7654,JWJ,SBG,Chehl Jowi Now Abad,2701,Shiberghan,??????,Jawzjan,??????,27
15045,15046,Yale POP_MASTER,SBG-076,,0,JWJ-SBG-076,397,Pashto,2,405.02700810000005,36.528,65.8097,JWJ,SBG,Khowja Bolan Afghaniya,2701,Shiberghan,??????,Jawzjan,??????,27
15046,15047,Yale POP_MASTER,SBG-082,,0,JWJ-SBG-082,431,Pashto,2,374.9448853,36.5985,65.8103,JWJ,SBG,Lala Kot Sulimazan Afghaniya,2701,Shiberghan,??????,Jawzjan,??????,27
15047,15048,Yale POP_MASTER,SBG-083,,0,JWJ-SBG-083,211,Hazaragi,8,370.6162109,36.6097,65.819,JWJ,SBG,Lala Kot Sulimazan Uzbekya,2701,Shiberghan,??????,Jawzjan,??????,27
15048,15049,Yale POP_MASTER,SBG-093,,0,JWJ-SBG-093,47,Uzbek,3,429.20959469999997,36.5022,65.7632,JWJ,SBG,Noor Togha Ya Sea Shanba,2701,Shiberghan,??????,Jawzjan,??????,27
15049,15050,Yale POP_MASTER,SBG-101,,0,JWJ-SBG-101,1439,Turkmen,4,390.3718872,36.5577,65.8153,JWJ,SBG,Qara Kent,2701,Shiberghan,??????,Jawzjan,??????,27
15050,15051,Yale POP_MASTER,SBG-103,,0,JWJ-SBG-103,347,Dari,1,402.3760986,36.5308,65.7811,JWJ,SBG,Qoul Bandi,2701,Shiberghan,??????,Jawzjan,??????,27
15051,15052,Yale POP_MASTER,SBG-105,,0,JWJ-SBG-105,697,Pashto,2,426.28359989999996,36.4967,65.7861,JWJ,SBG,Sea Shanba Uzbekya,2701,Shiberghan,??????,Jawzjan,??????,27
15052,15053,Yale POP_MASTER,SBG-107,,0,JWJ-SBG-107,239,Dari,1,409.4612122,36.5518,65.7531,JWJ,SBG,Sholjar Afghaniya,2701,Shiberghan,??????,Jawzjan,??????,27
15053,15054,Yale POP_MASTER,SBG-108,,0,JWJ-SBG-108,459,Uzbek,3,408.68789669999995,36.53,65.7549,JWJ,SBG,Sholjar Arabya,2701,Shiberghan,??????,Jawzjan,??????,27
15054,15055,Yale POP_MASTER,SBG-113,,0,JWJ-SBG-113,220,Pashto,2,398.262207,36.5494,65.7914,JWJ,SBG,Tar Now Afghaniya,2701,Shiberghan,??????,Jawzjan,??????,27
20476,20477,Yale POP_MASTER,DAB-050,,0,JWJ-DAB-050,511,Uzbek,3,1604.100952,35.9467,65.1861,JWJ,DAB,Per Ghareb,2711,Darzab,??? ??,Jawzjan,??????,27
20477,20478,Yale POP_MASTER,DAB-051,,0,JWJ-DAB-051,193,Uzbek,3,1243.189941,35.9918,65.2006,JWJ,DAB,Per Ghareb Chakab,2711,Darzab,??? ??,Jawzjan,??????,27
20478,20479,Yale POP_MASTER,DAB-058,,0,JWJ-DAB-058,208,Uzbek,3,1597.078979,35.9356,65.179,JWJ,DAB,Qarma,2711,Darzab,??? ??,Jawzjan,??????,27
20479,20480,Yale POP_MASTER,DAB-032,,0,JWJ-DAB-032,264,Uzbek,3,1146.3360599999999,36.0283,65.2001,JWJ,DAB,Chakna Bash Qadaq,2711,Darzab,??? ??,Jawzjan,??????,27
20480,20481,Yale POP_MASTER,DAB-033,,0,JWJ-DAB-033,553,Uzbek,3,1075.5119630000002,36.0508,65.2073,JWJ,DAB,Chakna Paitow,2711,Darzab,??? ??,Jawzjan,??????,27
20481,20482,Yale POP_MASTER,DAB-034,,0,JWJ-DAB-034,2025,Uzbek,3,1253.946045,35.9758,65.4019,JWJ,DAB,Halqani,2711,Darzab,??? ??,Jawzjan,??????,27
20482,20483,Yale POP_MASTER,DAB-035,,0,JWJ-DAB-035,476,Uzbek,3,1522.256958,35.9393,65.3696,JWJ,DAB,Ibrahim Bai,2711,Darzab,??? ??,Jawzjan,??????,27
20483,20484,Yale POP_MASTER,DAB-037,,0,JWJ-DAB-037,405,Uzbek,3,1470.38501,35.9813,65.3316,JWJ,DAB,Khalgan,2711,Darzab,??? ??,Jawzjan,??????,27
20484,20485,Yale POP_MASTER,DAB-038,,0,JWJ-DAB-038,663,Uzbek,3,1104.125,36.0249,65.3633,JWJ,DAB,Khoja Ahkara,2711,Darzab,??? ??,Jawzjan,??????,27
20485,20486,Yale POP_MASTER,DAB-039,,0,JWJ-DAB-039,463,Uzbek,3,1213.8530269999999,35.9945,65.3562,JWJ,DAB,Khoja Gul,2711,Darzab,??? ??,Jawzjan,??????,27
20486,20487,Yale POP_MASTER,DAB-043,,0,JWJ-DAB-043,160,Uzbek,3,1221.114014,36.018,65.2598,JWJ,DAB,Koqaq,2711,Darzab,??? ??,Jawzjan,??????,27
20487,20488,Yale POP_MASTER,DAB-044,,0,JWJ-DAB-044,1684,Uzbek,3,1270.547974,35.9753,65.4121,JWJ,DAB,Maghul,2711,Darzab,??? ??,Jawzjan,??????,27
20488,20489,Yale POP_MASTER,DAB-047,,0,JWJ-DAB-047,2069,Uzbek,3,1327.8280029999999,35.9588,65.382,JWJ,DAB,Paitow,2711,Darzab,??? ??,Jawzjan,??????,27
20489,20490,Yale POP_MASTER,DAB-048,,0,JWJ-DAB-048,598,Uzbek,3,1188.269043,35.9955,65.3703,JWJ,DAB,Pasta Mazar,2711,Darzab,??? ??,Jawzjan,??????,27
20490,20491,Yale POP_MASTER,DAB-049,,0,JWJ-DAB-049,581,Uzbek,3,1290.087036,35.9529,65.3721,JWJ,DAB,Patow Masjed Zia,2711,Darzab,??? ??,Jawzjan,??????,27
20491,20492,Yale POP_MASTER,DAB-052,,0,JWJ-DAB-052,699,Uzbek,3,1724.901978,36.0116,65.5024,JWJ,DAB,Qara Ghunj,2711,Darzab,??? ??,Jawzjan,??????,27
20492,20493,Yale POP_MASTER,DAB-054,,0,JWJ-DAB-054,421,Uzbek,3,1063.793945,36.0286,65.2334,JWJ,DAB,Qaraston,2711,Darzab,??? ??,Jawzjan,??????,27
20493,20494,Yale POP_MASTER,DAB-055,,0,JWJ-DAB-055,509,Uzbek,3,1018.914001,36.0452,65.2392,JWJ,DAB,Qaraston Sufla,2711,Darzab,??? ??,Jawzjan,??????,27
20494,20495,Yale POP_MASTER,DAB-056,,0,JWJ-DAB-056,1423,Uzbek,3,1275.1469730000001,35.9889,65.3539,JWJ,DAB,Qaraye,2711,Darzab,??? ??,Jawzjan,??????,27
20495,20496,Yale POP_MASTER,DAB-057,,0,JWJ-DAB-057,192,Uzbek,3,1463.584961,35.959,65.4241,JWJ,DAB,Qarghan,2711,Darzab,??? ??,Jawzjan,??????,27
20496,20497,Yale POP_MASTER,DAB-059,,0,JWJ-DAB-059,1073,Uzbek,3,1610.980957,35.9844,65.4316,JWJ,DAB,Qazal Ghuch,2711,Darzab,??? ??,Jawzjan,??????,27
20497,20498,Yale POP_MASTER,DAB-060,,0,JWJ-DAB-060,644,Uzbek,3,1335.275024,35.9828,65.3628,JWJ,DAB,Qazel Qeshlaq,2711,Darzab,??? ??,Jawzjan,??????,27
20498,20499,Yale POP_MASTER,DAB-061,,0,JWJ-DAB-061,2380,Uzbek,3,1417.503052,35.9575,65.4473,JWJ,DAB,Sar Dara,2711,Darzab,??? ??,Jawzjan,??????,27
20499,20500,Yale POP_MASTER,DAB-062,,0,JWJ-DAB-062,259,Uzbek,3,1472.074951,35.9534,65.4632,JWJ,DAB,Sar Dara Masjed Sofi Dost Mohammad,2711,Darzab,??? ??,Jawzjan,??????,27
20500,20501,Yale POP_MASTER,DAB-064,,0,JWJ-DAB-064,335,Uzbek,3,1194.842041,35.9966,65.248,JWJ,DAB,Shair Mango,2711,Darzab,??? ??,Jawzjan,??????,27
20501,20502,Yale POP_MASTER,DAB-065,,0,JWJ-DAB-065,310,Uzbek,3,1219.873047,36.0332,65.2877,JWJ,DAB,Shor Alik,2711,Darzab,??? ??,Jawzjan,??????,27
20502,20503,Yale POP_MASTER,DAB-066,,0,JWJ-DAB-066,220,Uzbek,3,1330.958008,35.9767,65.2605,JWJ,DAB,Shorak,2711,Darzab,??? ??,Jawzjan,??????,27
20503,20504,Yale POP_MASTER,DAB-068,,0,JWJ-DAB-068,1116,Uzbek,3,1262.015015,35.9608,65.3764,JWJ,DAB,Tash Masjed,2711,Darzab,??? ??,Jawzjan,??????,27
20504,20505,Yale POP_MASTER,DAB-070,,0,JWJ-DAB-070,966,Uzbek,3,1203.185059,35.9809,65.3712,JWJ,DAB,Youz Begi,2711,Darzab,??? ??,Jawzjan,??????,27
20506,20507,USAID AIDVillageView,DAB-004,,0,JWJ-DAB-004,0,Uzbek,3,1174.442017,35.9849,65.3759,JWJ,DAB,Bazari Gird Qala,2711,Darzab,??? ??,Jawzjan,??????,27
20507,20508,USAID AIDVillageView,DAB-006,,0,JWJ-DAB-006,0,Uzbek,3,1205.3220210000002,35.9796,65.3809,JWJ,DAB,Darzab,2711,Darzab,??? ??,Jawzjan,??????,27
20508,20509,USAID AIDVillageView,DAB-008,,0,JWJ-DAB-008,0,Uzbek,3,1752.7790530000002,35.998000000000005,65.4582,JWJ,DAB,Jigda Bolak,2711,Darzab,??? ??,Jawzjan,??????,27
20509,20510,USAID AIDVillageView,DAB-013,,0,JWJ-DAB-013,0,Uzbek,3,1692.6429440000002,36.0208,65.467,JWJ,DAB,Yaka Badam,2711,Darzab,??? ??,Jawzjan,??????,27
20510,20511,CSO AIMS Villages (ACSOR),DAB-015,,0,JWJ-DAB-015,301,Uzbek,3,1139.045044,36.03687,65.1988,JWJ,DAB,Qaraston Beron Sona,2711,Darzab,??? ??,Jawzjan,??????,27
20514,20515,Yale POP_MASTER,DAB-016,,0,JWJ-DAB-016,217,Dari,1,1386.6639400000001,36.0061,65.4114,JWJ,DAB,Anbaj,2711,Darzab,??? ??,Jawzjan,??????,27
20515,20516,Yale POP_MASTER,DAB-018,,0,JWJ-DAB-018,318,Uzbek,3,1383.327026,35.9703,65.3637,JWJ,DAB,Aq Chashma,2711,Darzab,??? ??,Jawzjan,??????,27
20516,20517,Yale POP_MASTER,DAB-019,,0,JWJ-DAB-019,586,Uzbek,3,1682.4739989999998,35.9528,65.2904,JWJ,DAB,Aqbalaq Bala,2711,Darzab,??? ??,Jawzjan,??????,27
20517,20518,Yale POP_MASTER,DAB-022,,0,JWJ-DAB-022,827,Uzbek,3,1681.1429440000002,36.0178,65.4854,JWJ,DAB,Archa To,2711,Darzab,??? ??,Jawzjan,??????,27
20518,20519,Yale POP_MASTER,DAB-024,,0,JWJ-DAB-024,384,Uzbek,3,1191.087036,36.0144,65.2945,JWJ,DAB,Awla Qadagh,2711,Darzab,??? ??,Jawzjan,??????,27
20519,20520,Yale POP_MASTER,DAB-025,District,1,JWJ-DAB-025,1303,Uzbek,3,1209.530029,35.9766,65.393,JWJ,DAB,Awlad (darz Ab),2711,Darzab,??? ??,Jawzjan,??????,27
20520,20521,Yale POP_MASTER,DAB-026,,0,JWJ-DAB-026,158,Uzbek,3,1481.448975,35.9927,65.3107,JWJ,DAB,Badam Laik,2711,Darzab,??? ??,Jawzjan,??????,27
20521,20522,Yale POP_MASTER,DAB-027,,0,JWJ-DAB-027,670,Uzbek,3,1502.199951,35.9543,65.4788,JWJ,DAB,Be Be Maryam,2711,Darzab,??? ??,Jawzjan,??????,27
20522,20523,Yale POP_MASTER,DAB-028,,0,JWJ-DAB-028,1112,Uzbek,3,1222.9470210000002,35.9714,65.3755,JWJ,DAB,Beron Sona,2711,Darzab,??? ??,Jawzjan,??????,27
20523,20524,Yale POP_MASTER,DAB-029,,0,JWJ-DAB-029,340,Uzbek,3,1091.88501,36.012,65.3648,JWJ,DAB,Bolak Qeshlaq,2711,Darzab,??? ??,Jawzjan,??????,27
20524,20525,Yale POP_MASTER,DAB-031,,0,JWJ-DAB-031,341,Uzbek,3,1158.2280269999999,36.0126,65.2746,JWJ,DAB,Chakaba,2711,Darzab,??? ??,Jawzjan,??????,27
21041,21042,USAID AIDVillageView,SBG-011,,0,JWJ-SBG-011,0,Dari,1,519.5518799,36.538000000000004,66.0461,JWJ,SBG,Dara-i-akhta,2701,Shiberghan,??????,Jawzjan,??????,27
40499,40500,USAID AIDVillageView,QST-001,,0,JWJ-QST-001,0,Uzbek,3,916.4207764,36.0883,65.3923,JWJ,QST,Bazari Khush Tapa,2704,Qushtepa,??? ????,Jawzjan,??????,27
40500,40501,USAID AIDVillageView,QST-007,,0,JWJ-QST-007,0,Uzbek,3,764.6032104,36.1589,65.4515,JWJ,QST,Sar Darah,2704,Qushtepa,??? ????,Jawzjan,??????,27
40504,40505,CSO AIMS Villages (ACSOR),DAB-014,,0,JWJ-DAB-014,261,Uzbek,3,927.7617798,36.08512,65.19173,JWJ,DAB,Kar Khana,2711,Darzab,??? ??,Jawzjan,??????,27
40508,40509,USAID AIDVillageView,DAB-009,,0,JWJ-DAB-009,0,Uzbek,3,1251.70105,36.0373,65.5184,JWJ,DAB,Kumli,2711,Darzab,??? ??,Jawzjan,??????,27
40509,40510,Yale POP_MASTER,QST-008,,0,JWJ-QST-008,1213,Uzbek,3,873.6697998,36.0979,65.4055,JWJ,QST,Bai Sar,2704,Qushtepa,??? ????,Jawzjan,??????,27
40510,40511,Yale POP_MASTER,QST-009,,0,JWJ-QST-009,1215,Uzbek,3,738.3508911,36.1679,65.4633,JWJ,QST,Chakhma Chaqour,2704,Qushtepa,??? ????,Jawzjan,??????,27
40511,40512,Yale POP_MASTER,QST-010,,0,JWJ-QST-010,1168,Uzbek,3,873.6651001,36.1562,65.4694,JWJ,QST,Chakhma Chour Sufla,2704,Qushtepa,??? ????,Jawzjan,??????,27
40512,40513,Yale POP_MASTER,QST-011,,0,JWJ-QST-011,26,Uzbek,3,774.6090697999999,36.1642,65.2191,JWJ,QST,Chakna Ajram,2704,Qushtepa,??? ????,Jawzjan,??????,27
40513,40514,Yale POP_MASTER,QST-012,,0,JWJ-QST-012,1004,Uzbek,3,567.3682861000001,36.3053,65.4822,JWJ,QST,Chakna Jar Qadouq,2704,Qushtepa,??? ????,Jawzjan,??????,27
40514,40515,Yale POP_MASTER,QST-013,,0,JWJ-QST-013,982,Uzbek,3,859.1627808000001,36.1315,65.2144,JWJ,QST,Chakna Qaraye,2704,Qushtepa,??? ????,Jawzjan,??????,27
40515,40516,Yale POP_MASTER,QST-014,,0,JWJ-QST-014,869,Uzbek,3,1011.2860109999999,36.0951,65.4201,JWJ,QST,Chehl Gazy Bai Sar,2704,Qushtepa,??? ????,Jawzjan,??????,27
40516,40517,Yale POP_MASTER,QST-015,,0,JWJ-QST-015,1111,Uzbek,3,1015.1160279999999,36.0442,65.3673,JWJ,QST,Gardan,2704,Qushtepa,??? ????,Jawzjan,??????,27
40517,40518,Yale POP_MASTER,QST-016,,0,JWJ-QST-016,1068,Uzbek,3,1016.4929810000001,36.0346,65.3677,JWJ,QST,Gardan Sufla,2704,Qushtepa,??? ????,Jawzjan,??????,27
40518,40519,Yale POP_MASTER,QST-017,,0,JWJ-QST-017,277,Uzbek,3,794.8281860000001,36.1522,65.4568,JWJ,QST,Haji Ghulam Nabi,2704,Qushtepa,??? ????,Jawzjan,??????,27
40519,40520,Yale POP_MASTER,QST-018,,0,JWJ-QST-018,122,Uzbek,3,910.5114745999999,36.0779,65.2947,JWJ,QST,Howz Bayely,2704,Qushtepa,??? ????,Jawzjan,??????,27
40520,40521,Yale POP_MASTER,QST-019,,0,JWJ-QST-019,150,Uzbek,3,1032.824951,36.0613,65.2949,JWJ,QST,Howz Beyely Sufla,2704,Qushtepa,??? ????,Jawzjan,??????,27
40521,40522,Yale POP_MASTER,QST-020,,0,JWJ-QST-020,1123,Uzbek,3,636.4127197,36.2938,65.4743,JWJ,QST,Jar Qadouq,2704,Qushtepa,??? ????,Jawzjan,??????,27
40522,40523,Yale POP_MASTER,QST-021,,0,JWJ-QST-021,527,Uzbek,3,613.7424927000001,36.3045,65.4713,JWJ,QST,Jar Qadouq Now Abad,2704,Qushtepa,??? ????,Jawzjan,??????,27
40523,40524,Yale POP_MASTER,QST-022,,0,JWJ-QST-022,926,Uzbek,3,912.0872803,36.0814,65.384,JWJ,QST,Kapcha Qala,2704,Qushtepa,??? ????,Jawzjan,??????,27
40524,40525,Yale POP_MASTER,QST-023,,0,JWJ-QST-023,1146,Pashto,2,839.0656127999998,36.11,65.4139,JWJ,QST,Khan Aqa,2704,Qushtepa,??? ????,Jawzjan,??????,27
40525,40526,Yale POP_MASTER,QST-024,,0,JWJ-QST-024,362,Pashto,2,762.1765747000001,36.2027,65.467,JWJ,QST,Maimana Yowl,2704,Qushtepa,??? ????,Jawzjan,??????,27
40526,40527,Yale POP_MASTER,QST-025,,0,JWJ-QST-025,632,Dari,1,941.8497925,36.0929,65.3943,JWJ,QST,Markaz Wolluswaly Qoush Tepa,2704,Qushtepa,??? ????,Jawzjan,??????,27
40527,40528,Yale POP_MASTER,QST-026,,0,JWJ-QST-026,185,Dari,1,636.4395142000001,36.2745,65.4825,JWJ,QST,Moulawe,2704,Qushtepa,??? ????,Jawzjan,??????,27
40528,40529,Yale POP_MASTER,QST-027,,0,JWJ-QST-027,381,Uzbek,3,902.6115722999999,36.0902,65.4084,JWJ,QST,Mughul,2704,Qushtepa,??? ????,Jawzjan,??????,27
40529,40530,Yale POP_MASTER,QST-028,,0,JWJ-QST-028,538,Uzbek,3,565.34552,36.3222,65.4792,JWJ,QST,Now Abad,2704,Qushtepa,??? ????,Jawzjan,??????,27
40530,40531,Yale POP_MASTER,QST-029,,0,JWJ-QST-029,497,Uzbek,3,606.1074829,36.3463,65.4549,JWJ,QST,Now Abad Turkman Qadouq,2704,Qushtepa,??? ????,Jawzjan,??????,27
40531,40532,Yale POP_MASTER,QST-030,,0,JWJ-QST-030,263,Dari,1,892.6452026000001,36.0885,65.2523,JWJ,QST,Pada Sai,2704,Qushtepa,??? ????,Jawzjan,??????,27
40532,40533,Yale POP_MASTER,QST-031,,0,JWJ-QST-031,356,Pashto,2,622.9683227999999,36.2523,65.4703,JWJ,QST,Pesta Mazar,2704,Qushtepa,??? ????,Jawzjan,??????,27
40533,40534,Yale POP_MASTER,QST-032,,0,JWJ-QST-032,188,Uzbek,3,956.1682739,36.0745,65.3111,JWJ,QST,Qadouqcha,2704,Qushtepa,??? ????,Jawzjan,??????,27
40534,40535,Yale POP_MASTER,QST-033,,0,JWJ-QST-033,165,Uzbek,3,785.5194702,36.1783,65.4711,JWJ,QST,Qazal Kotal,2704,Qushtepa,??? ????,Jawzjan,??????,27
40535,40536,Yale POP_MASTER,QST-034,,0,JWJ-QST-034,1212,Uzbek,3,958.8359985,36.0638,65.3738,JWJ,QST,Shair Baig,2704,Qushtepa,??? ????,Jawzjan,??????,27
40536,40537,Yale POP_MASTER,QST-035,,0,JWJ-QST-035,1023,Uzbek,3,993.0253905999999,36.056999999999995,65.3684,JWJ,QST,Shair Bok Sufla,2704,Qushtepa,??? ????,Jawzjan,??????,27
40537,40538,Yale POP_MASTER,QST-036,,0,JWJ-QST-036,56,Uzbek,3,707.8654175,36.1742,65.3707,JWJ,QST,Shor Qadouq,2704,Qushtepa,??? ????,Jawzjan,??????,27
40538,40539,Yale POP_MASTER,QST-037,,0,JWJ-QST-037,456,Uzbek,3,864.4923096000001,36.1116,65.3029,JWJ,QST,Shor Qadouq Uzbekya,2704,Qushtepa,??? ????,Jawzjan,??????,27
40539,40540,Yale POP_MASTER,QST-038,,0,JWJ-QST-038,99,Uzbek,3,918.661499,36.083,65.3125,JWJ,QST,Sozma,2704,Qushtepa,??? ????,Jawzjan,??????,27
40540,40541,Yale POP_MASTER,QST-039,,0,JWJ-QST-039,271,Dari,1,653.4686279,36.2382,65.4594,JWJ,QST,Taraghly Afghaniya,2704,Qushtepa,??? ????,Jawzjan,??????,27
40541,40542,Yale POP_MASTER,QST-040,,0,JWJ-QST-040,952,Pashto,2,650.3148804,36.2432,65.4607,JWJ,QST,Taraghly Charshaly Arab,2704,Qushtepa,??? ????,Jawzjan,??????,27
40542,40543,Yale POP_MASTER,QST-041,,0,JWJ-QST-041,299,Pashto,2,717.2529297,36.1936,65.4588,JWJ,QST,Taraghly Hotak Ha,2704,Qushtepa,??? ????,Jawzjan,??????,27
40543,40544,Yale POP_MASTER,QST-042,,0,JWJ-QST-042,1137,Pashto,2,658.8803711,36.2168,65.4563,JWJ,QST,Taraghly Khowjagi Qeshlaq,2704,Qushtepa,??? ????,Jawzjan,??????,27
40544,40545,Yale POP_MASTER,QST-043,,0,JWJ-QST-043,1222,Dari,1,749.5219116000001,36.227,65.4486,JWJ,QST,Taraghly Mallaye Qeshlaq,2704,Qushtepa,??? ????,Jawzjan,??????,27
40545,40546,Yale POP_MASTER,QST-044,,0,JWJ-QST-044,269,Pashto,2,722.6812133999999,36.1842,65.4634,JWJ,QST,Taraghly Ya Tarake Ha,2704,Qushtepa,??? ????,Jawzjan,??????,27
40546,40547,Yale POP_MASTER,QST-045,,0,JWJ-QST-045,431,Uzbek,3,1105.208008,36.0576,65.336,JWJ,QST,Tasha Khor,2704,Qushtepa,??? ????,Jawzjan,??????,27
40547,40548,Yale POP_MASTER,QST-046,,0,JWJ-QST-046,411,Uzbek,3,846.2130737,36.1491,65.4379,JWJ,QST,Turkman Alde,2704,Qushtepa,??? ????,Jawzjan,??????,27
40548,40549,Yale POP_MASTER,QST-047,,0,JWJ-QST-047,419,Pashto,2,825.3843994,36.1376,65.4295,JWJ,QST,Turkman Walditash Kotal,2704,Qushtepa,??? ????,Jawzjan,??????,27
40549,40550,Yale POP_MASTER,QST-048,,0,JWJ-QST-048,919,Uzbek,3,936.6796265,36.1051,65.43,JWJ,QST,Zard Tepa,2704,Qushtepa,??? ????,Jawzjan,??????,27
40550,40551,Yale POP_MASTER,QST-049,District,1,JWJ-QST-049,24904,Uzbek,3,919.0888062000001,36.0857,65.3878,JWJ,QST,Qosh Tepa,2704,Qushtepa,??? ????,Jawzjan,??????,27
40558,40559,Yale POP_MASTER,DAB-036,,0,JWJ-DAB-036,209,Uzbek,3,1292.016968,36.0421,65.4566,JWJ,DAB,Jeda Balaq,2711,Darzab,??? ??,Jawzjan,??????,27
40559,40560,Yale POP_MASTER,DAB-040,,0,JWJ-DAB-040,248,Uzbek,3,1404.944946,36.0371,65.4965,JWJ,DAB,Khok Ab,2711,Darzab,??? ??,Jawzjan,??????,27
40560,40561,Yale POP_MASTER,DAB-041,,0,JWJ-DAB-041,902,Dari,1,1613.162964,36.0252,65.4486,JWJ,DAB,Khoshtar Balaq,2711,Darzab,??? ??,Jawzjan,??????,27
40561,40562,Yale POP_MASTER,DAB-067,,0,JWJ-DAB-067,1281,Uzbek,3,1551.714966,36.027,65.4816,JWJ,DAB,Tash Jawaz,2711,Darzab,??? ??,Jawzjan,??????,27
40562,40563,Yale POP_MASTER,DAB-020,,0,JWJ-DAB-020,804,Pashto,2,1055.519043,36.0854,65.5108,JWJ,DAB,Aqsai Mughul,2711,Darzab,??? ??,Jawzjan,??????,27
40563,40564,Yale POP_MASTER,DAB-021,,0,JWJ-DAB-021,480,Uzbek,3,1144.77002,36.0779,65.5105,JWJ,DAB,Aqsai Sar Dara,2711,Darzab,??? ??,Jawzjan,??????,27
40564,40565,Yale POP_MASTER,DAB-023,,0,JWJ-DAB-023,100,Uzbek,3,1500.100952,36.0401,65.5294,JWJ,DAB,Atah Tala Khan,2711,Darzab,??? ??,Jawzjan,??????,27
40565,40566,Yale POP_MASTER,DAB-042,,0,JWJ-DAB-042,391,Uzbek,3,1154.0980220000001,36.0546,65.5108,JWJ,DAB,Komaly,2711,Darzab,??? ??,Jawzjan,??????,27
40566,40567,Yale POP_MASTER,DAB-053,,0,JWJ-DAB-053,466,Uzbek,3,1340.579956,36.0263,65.5184,JWJ,DAB,Qara Yurt Sar Dara,2711,Darzab,??? ??,Jawzjan,??????,27
40567,40568,Yale POP_MASTER,DAB-063,,0,JWJ-DAB-063,388,Uzbek,3,1287.235962,36.0638,65.5164,JWJ,DAB,Shab Jai,2711,Darzab,??? ??,Jawzjan,??????,27
43826,43827,USAID AIDVillageView,DAB-010,,0,JWJ-DAB-010,0,Dari,1,930.4249877999998,36.1116,65.5398,JWJ,DAB,Maimana Qeshlaq (1),2711,Darzab,??? ??,Jawzjan,??????,27
43845,43846,Yale POP_MASTER,DAB-017,,0,JWJ-DAB-017,575,Uzbek,3,1332.9790039999998,36.0555,65.5362,JWJ,DAB,Aq Balaq Sar Dara,2711,Darzab,??? ??,Jawzjan,??????,27
43846,43847,Yale POP_MASTER,DAB-030,,0,JWJ-DAB-030,81,Uzbek,3,1419.447998,36.0714,65.5492,JWJ,DAB,Chaght,2711,Darzab,??? ??,Jawzjan,??????,27
43847,43848,Yale POP_MASTER,DAB-045,,0,JWJ-DAB-045,454,Uzbek,3,1330.208008,36.075,65.5361,JWJ,DAB,Maimana Qeshlaq (2),2711,Darzab,??? ??,Jawzjan,??????,27
43848,43849,Yale POP_MASTER,DAB-069,,0,JWJ-DAB-069,232,Uzbek,3,1151.526001,36.0874,65.5331,JWJ,DAB,Tashlo Qatan,2711,Darzab,??? ??,Jawzjan,??????,27
