,OBJECTID,SOURCE,VIL_UID,CENTER,CNTR_CODE,AFG_UID,POPULATION,LANGUAGE_,LANG_CODE,ELEVATION,LAT_Y,LON_X,MISTI_PROV,MISTI_DIST,VILLAGE_NA,DIST_CODE,DIST_NA_EN,DIST_NA_DA,PROV_NA_EN,PROV_NA_DA,PROV_CODE
12,13,USAID AIDVillageView,PJW-021,,0,KND-PJW-021,0,Pashto,2,899.8209229,31.4453,65.2915,KND,PJW,Wakil Rustam Kalay,3304,Panjwayi,???????,Kandahar,??????,33
27,28,CSO AIMS Villages (ACSOR),ZHR-134,,0,KND-ZHR-134,0,Pashto,2,904.5977783,31.4816,65.30509,KND,ZHR,Kakaran (3),3303,Zheray,???,Kandahar,??????,33
29,30,CSO AIMS Villages (ACSOR),DND-122,,0,KND-DND-122,0,Pashto,2,992.3430176,31.54345,65.75155,KND,DND,Zaker-e Sharif,3301,Kandahar,??????,Kandahar,??????,33
35,36,CSO AIMS Villages (ACSOR),ZHR-143,,0,KND-ZHR-143,0,Pashto,2,976.3203735,31.6193,65.5293,KND,ZHR,Senjaray,3303,Zheray,???,Kandahar,??????,33
40,41,CSO AIMS Villages (ACSOR),SWK-189,,0,KND-SWK-189,0,Pashto,2,1271.1660160000001,31.97,66.1702,KND,SWK,Mohammad Beg,3306,Shahwalikot,??? ??? ???,Kandahar,??????,33
41,42,CSO AIMS Villages (ACSOR),SWK-215,,0,KND-SWK-215,0,Pashto,2,1658.3630369999998,32.21468,65.93778,KND,SWK,Paryan,3306,Shahwalikot,??? ??? ???,Kandahar,??????,33
42,43,CSO AIMS Villages (ACSOR),SWK-177,,0,KND-SWK-177,0,Pashto,2,1684.31604,32.1703,65.92809,KND,SWK,Lwar Kundalan,3306,Shahwalikot,??? ??? ???,Kandahar,??????,33
43,44,CSO AIMS Villages (ACSOR),SWK-231,,0,KND-SWK-231,0,Pashto,2,1057.817017,31.788809999999998,65.75690999999999,KND,SWK,Shah Wali Kot,3306,Shahwalikot,??? ??? ???,Kandahar,??????,33
996,997,Yale POP_MASTER,NIS-195,,0,HLM-NIS-195,1335,Pashto,2,847.6616821,31.7077,64.7749,HLM,NIS,Muslim Abad,3308,Maywand,?????,Kandahar,??????,33
1993,1994,CSO AIMS Villages (ACSOR),SWK-176,,0,KND-SWK-176,0,Pashto,2,1869.567993,32.20019,65.7417,KND,SWK,Lwar Kayghatu,3306,Shahwalikot,??? ??? ???,Kandahar,??????,33
1994,1995,CSO AIMS Villages (ACSOR),SWK-148,,0,KND-SWK-148,0,Pashto,2,1547.026001,32.1602,65.89529,KND,SWK,Karezak,3306,Shahwalikot,??? ??? ???,Kandahar,??????,33
1995,1996,CSO AIMS Villages (ACSOR),SWK-191,,0,KND-SWK-191,0,Pashto,2,1930.053955,32.19769,65.72939000000001,KND,SWK,Mohammad Ya'qub Khona,3306,Shahwalikot,??? ??? ???,Kandahar,??????,33
1996,1997,CSO AIMS Villages (ACSOR),SWK-151,,0,KND-SWK-151,0,Pashto,2,1771.6469730000001,32.2295,65.9823,KND,SWK,Khalbelagh,3306,Shahwalikot,??? ??? ???,Kandahar,??????,33
1997,1998,CSO AIMS Villages (ACSOR),SWK-129,,0,KND-SWK-129,0,Pashto,2,1540.483032,32.18459,65.88589,KND,SWK,Gumbad,3306,Shahwalikot,??? ??? ???,Kandahar,??????,33
1998,1999,CSO AIMS Villages (ACSOR),SWK-244,,0,KND-SWK-244,0,Pashto,2,1714.2790530000002,32.18889,65.8268,KND,SWK,Surkay Masjid,3306,Shahwalikot,??? ??? ???,Kandahar,??????,33
1999,2000,USAID AIDVillageView,SWK-019,,0,KND-SWK-019,0,Pashto,2,1662.276001,32.2441,65.911,KND,SWK,Kajur,3306,Shahwalikot,??? ??? ???,Kandahar,??????,33
2000,2001,CSO AIMS Villages (ACSOR),SWK-165,,0,KND-SWK-165,0,Pashto,2,1954.6970210000002,32.21059,65.76759,KND,SWK,Kuchnay Lwargey,3306,Shahwalikot,??? ??? ???,Kandahar,??????,33
2001,2002,CSO AIMS Villages (ACSOR),SWK-207,,0,KND-SWK-207,0,Pashto,2,1659.500977,32.21609,65.93719,KND,SWK,Nawa(sharqi),3306,Shahwalikot,??? ??? ???,Kandahar,??????,33
2002,2003,CSO AIMS Villages (ACSOR),SWK-268,,0,KND-SWK-268,0,Pashto,2,1938.942993,32.22809,65.7514,KND,SWK,Zidan (2),3306,Shahwalikot,??? ??? ???,Kandahar,??????,33
2003,2004,CSO AIMS Villages (ACSOR),SWK-255,,0,KND-SWK-255,0,Pashto,2,1608.442993,32.2013,65.90899999999999,KND,SWK,Tangay (4),3306,Shahwalikot,??? ??? ???,Kandahar,??????,33
2004,2005,CSO AIMS Villages (ACSOR),SWK-123,,0,KND-SWK-123,0,Pashto,2,1599.3869630000002,32.1696,65.91129000000001,KND,SWK,Gardana,3306,Shahwalikot,??? ??? ???,Kandahar,??????,33
2005,2006,CSO AIMS Villages (ACSOR),SWK-163,,0,KND-SWK-163,0,Pashto,2,1764.30603,32.19059,65.80529,KND,SWK,Kshatta Shela,3306,Shahwalikot,??? ??? ???,Kandahar,??????,33
2006,2007,USAID AIDVillageView,SWK-038,,0,KND-SWK-038,0,Pashto,2,1695.54895,32.2635,65.8991,KND,SWK,Safi,3306,Shahwalikot,??? ??? ???,Kandahar,??????,33
2007,2008,USAID AIDVillageView,SWK-047,,0,KND-SWK-047,0,Pashto,2,1682.185059,32.256,65.9133,KND,SWK,Yatiman,3306,Shahwalikot,??? ??? ???,Kandahar,??????,33
2008,2009,USAID AIDVillageView,SWK-004,,0,KND-SWK-004,0,Pashto,2,1707.3850100000002,32.2691,65.9234,KND,SWK,Bazek,3306,Shahwalikot,??? ??? ???,Kandahar,??????,33
2009,2010,CSO AIMS Villages (ACSOR),SWK-162,,0,KND-SWK-162,0,Pashto,2,1565.170044,32.19149,65.90619000000001,KND,SWK,Kshatta Shalizar,3306,Shahwalikot,??? ??? ???,Kandahar,??????,33
2176,2177,CSO AIMS Villages (ACSOR),SWK-160,,0,KND-SWK-160,0,Pashto,2,1752.9169920000002,32.1954,65.8249,KND,SWK,Khwazangay,3306,Shahwalikot,??? ??? ???,Kandahar,??????,33
2177,2178,CSO AIMS Villages (ACSOR),SWK-173,,0,KND-SWK-173,0,Pashto,2,1515.124023,32.133790000000005,65.8159,KND,SWK,Lwar Byala,3306,Shahwalikot,??? ??? ???,Kandahar,??????,33
2178,2179,CSO AIMS Villages (ACSOR),SWK-222,,0,KND-SWK-222,0,Pashto,2,1591.347046,32.144890000000004,65.78329000000001,KND,SWK,Rakhay,3306,Shahwalikot,??? ??? ???,Kandahar,??????,33
2180,2181,USAID AIDVillageView,KKZ-013,,0,KND-KKZ-013,0,Pashto,2,1821.0059809999998,32.1591,65.6937,KND,KKZ,Petaw,3307,Khakrez,??????,Kandahar,??????,33
2181,2182,CSO AIMS Villages (ACSOR),KKZ-053,,0,KND-KKZ-053,0,Pashto,2,1840.947998,32.190690000000004,65.63239,KND,KKZ,Chenar (1),3307,Khakrez,??????,Kandahar,??????,33
2182,2183,CSO AIMS Villages (ACSOR),KKZ-075,,0,KND-KKZ-075,0,Pashto,2,1853.817993,32.1954,65.6405,KND,KKZ,Ghbargay,3307,Khakrez,??????,Kandahar,??????,33
2183,2184,CSO AIMS Villages (ACSOR),KKZ-101,,0,KND-KKZ-101,79,Pashto,2,1996.6469730000001,32.22094,65.54809,KND,KKZ,Landay (1),3307,Khakrez,??????,Kandahar,??????,33
2184,2185,CSO AIMS Villages (ACSOR),KKZ-107,,0,KND-KKZ-107,0,Pashto,2,1943.578979,32.2116,65.68789,KND,KKZ,Lwargay,3307,Khakrez,??????,Kandahar,??????,33
2190,2191,Yale POP_MASTER,NES-061,,0,KND-NES-061,87,Pashto,2,1330.162964,32.5238,65.6671,KND,NES,Chahak,3314,Nesh,???,Kandahar,??????,33
2191,2192,Yale POP_MASTER,NES-062,,0,KND-NES-062,287,Pashto,2,1510.8540039999998,32.4862,65.5723,KND,NES,Dewalak,3314,Nesh,???,Kandahar,??????,33
2192,2193,Yale POP_MASTER,NES-063,,0,KND-NES-063,79,Pashto,2,1422.7910160000001,32.4961,65.5938,KND,NES,Karam Karaiz,3314,Nesh,???,Kandahar,??????,33
2193,2194,Yale POP_MASTER,NES-064,,0,KND-NES-064,1917,Pashto,2,1349.234009,32.5121,65.6257,KND,NES,Kash Khunjak,3314,Nesh,???,Kandahar,??????,33
2194,2195,Yale POP_MASTER,NES-065,District,1,KND-NES-065,746,Pashto,2,1483.550049,32.4279,65.6348,KND,NES,Nesh (nes),3314,Nesh,???,Kandahar,??????,33
2197,2198,Yale POP_MASTER,SWK-055,,0,KND-SWK-055,1043,Pashto,2,1506.47998,32.17,65.88,KND,SWK,Ta Waleh,3306,Shahwalikot,??? ??? ???,Kandahar,??????,33
2199,2200,Yale POP_MASTER,KKZ-166,,0,KND-KKZ-166,600,Pashto,2,1851.2559809999998,32.194,65.637,KND,KKZ,Shawez,3307,Khakrez,??????,Kandahar,??????,33
2207,2208,USAID AIDVillageView,GHK-011,,0,KND-GHK-011,0,Pashto,2,1025.9019779999999,32.0496,64.9959,KND,GHK,Wushtan (1),3315,Ghorak,????,Kandahar,??????,33
2208,2209,USAID AIDVillageView,GHK-001,,0,KND-GHK-001,0,Pashto,2,1082.584961,32.0209,65.0418,KND,GHK,Abulhasan,3315,Ghorak,????,Kandahar,??????,33
2209,2210,USAID AIDVillageView,GHK-003,,0,KND-GHK-003,0,Pashto,2,1100.31604,32.0292,65.0761,KND,GHK,Baghe Mehrab,3315,Ghorak,????,Kandahar,??????,33
2210,2211,USAID AIDVillageView,GHK-005,,0,KND-GHK-005,0,Pashto,2,1089.889038,32.0369,65.0652,KND,GHK,Hasanabad,3315,Ghorak,????,Kandahar,??????,33
2211,2212,USAID AIDVillageView,GHK-006,,0,KND-GHK-006,0,Pashto,2,1067.463013,32.0419,65.0435,KND,GHK,Janabad,3315,Ghorak,????,Kandahar,??????,33
2212,2213,USAID AIDVillageView,GHK-007,,0,KND-GHK-007,0,Pashto,2,1040.2969970000001,32.047,65.0121,KND,GHK,Nazir Karez,3315,Ghorak,????,Kandahar,??????,33
2213,2214,USAID AIDVillageView,GHK-010,,0,KND-GHK-010,0,Pashto,2,1055.369019,32.0413,65.0223,KND,GHK,Sekandar,3315,Ghorak,????,Kandahar,??????,33
2214,2215,USAID AIDVillageView,GHK-012,,0,KND-GHK-012,0,Pashto,2,1033.571045,32.0468,65.0015,KND,GHK,Wushtan (2),3315,Ghorak,????,Kandahar,??????,33
2215,2216,CSO AIMS Villages (ACSOR),GHK-014,,0,KND-GHK-014,0,Pashto,2,1288.9179689999999,31.9276,65.1702,KND,GHK,Badak,3315,Ghorak,????,Kandahar,??????,33
2216,2217,CSO AIMS Villages (ACSOR),GHK-019,,0,KND-GHK-019,0,Pashto,2,1267.793945,31.9319,65.14379,KND,GHK,Chahe Babur,3315,Ghorak,????,Kandahar,??????,33
2217,2218,CSO AIMS Villages (ACSOR),GHK-020,,0,KND-GHK-020,0,Pashto,2,1139.8339839999999,32.00649,65.10609000000001,KND,GHK,Chahe Gazak,3315,Ghorak,????,Kandahar,??????,33
2218,2219,CSO AIMS Villages (ACSOR),GHK-022,,0,KND-GHK-022,0,Pashto,2,1217.8790279999998,31.9582,65.13689000000001,KND,GHK,Char Sokhta,3315,Ghorak,????,Kandahar,??????,33
2219,2220,CSO AIMS Villages (ACSOR),GHK-024,,0,KND-GHK-024,0,Pashto,2,1131.0310060000002,32.0149,65.10359,KND,GHK,Chenar,3315,Ghorak,????,Kandahar,??????,33
2220,2221,CSO AIMS Villages (ACSOR),GHK-027,,0,KND-GHK-027,0,Pashto,2,1298.458008,31.9977,65.09589,KND,GHK,Gergak,3315,Ghorak,????,Kandahar,??????,33
2221,2222,CSO AIMS Villages (ACSOR),GHK-039,,0,KND-GHK-039,0,Pashto,2,1188.036987,31.979490000000002,65.12009,KND,GHK,Nala,3315,Ghorak,????,Kandahar,??????,33
2222,2223,CSO AIMS Villages (ACSOR),GHK-041,,0,KND-GHK-041,0,Pashto,2,1249.609985,31.942690000000002,65.1395,KND,GHK,Qanate'ali Mohammad,3315,Ghorak,????,Kandahar,??????,33
2235,2236,CSO AIMS Villages (ACSOR),GHK-013,,0,KND-GHK-013,0,Pashto,2,1279.329956,32.1307,65.20709000000001,KND,GHK,Anjir,3315,Ghorak,????,Kandahar,??????,33
2236,2237,CSO AIMS Villages (ACSOR),GHK-015,,0,KND-GHK-015,0,Pashto,2,1210.9610599999999,32.0857,65.16479,KND,GHK,Bahram,3315,Ghorak,????,Kandahar,??????,33
2237,2238,CSO AIMS Villages (ACSOR),GHK-018,,0,KND-GHK-018,0,Pashto,2,1226.157959,32.0968,65.1618,KND,GHK,Bedak,3315,Ghorak,????,Kandahar,??????,33
2238,2239,CSO AIMS Villages (ACSOR),GHK-021,,0,KND-GHK-021,0,Pashto,2,1337.260986,32.1295,65.29008,KND,GHK,Chalak,3315,Ghorak,????,Kandahar,??????,33
2239,2240,CSO AIMS Villages (ACSOR),GHK-023,,0,KND-GHK-023,0,Pashto,2,1220.30896,32.08869,65.1876,KND,GHK,Charpaya,3315,Ghorak,????,Kandahar,??????,33
2240,2241,CSO AIMS Villages (ACSOR),GHK-025,,0,KND-GHK-025,0,Pashto,2,1202.487061,32.05069,65.14199,KND,GHK,China,3315,Ghorak,????,Kandahar,??????,33
2537,2538,USAID AIDVillageView,LKG-013,,0,HLM-LKG-013,0,Pashto,2,813.9199829,31.6191,64.7199,HLM,LKG,Landae,3308,Maywand,?????,Kandahar,??????,33
2784,2785,USAID AIDVillageView,MWD-001,,0,KND-MWD-001,0,Pashto,2,929.0114136,31.8125,64.8578,KND,MWD,Baydak,3308,Maywand,?????,Kandahar,??????,33
2805,2806,USAID AIDVillageView,GHK-002,,0,KND-GHK-002,0,Pashto,2,1034.8969730000001,31.9746,64.9612,KND,GHK,Awkhana,3315,Ghorak,????,Kandahar,??????,33
2821,2822,Yale POP_MASTER,MWD-028,,0,KND-MWD-028,207,Pashto,2,917.2659302000001,31.8985,64.8144,KND,MWD,Dab Karaiz,3308,Maywand,?????,Kandahar,??????,33
2822,2823,Yale POP_MASTER,MWD-104,,0,KND-MWD-104,114,Pashto,2,959.0269775,31.8669,64.8621,KND,MWD,Pada,3308,Maywand,?????,Kandahar,??????,33
2823,2824,Yale POP_MASTER,MWD-090,,0,KND-MWD-090,197,Pashto,2,905.0380249,31.8731,64.8107,KND,MWD,Mohammad Ayoub Karaiz,3308,Maywand,?????,Kandahar,??????,33
2824,2825,Yale POP_MASTER,MWD-045,,0,KND-MWD-045,179,Pashto,2,886.7258301,31.8822,64.8118,KND,MWD,Haji Mir Afzal Kalay,3308,Maywand,?????,Kandahar,??????,33
2909,2910,Yale POP_MASTER,MWD-013,,0,KND-MWD-013,45,Pashto,2,992.4484252999998,31.8942,64.8762,KND,MWD,Anjeran,3308,Maywand,?????,Kandahar,??????,33
3012,3013,CSO AIMS Villages (ACSOR),GHK-026,,0,KND-GHK-026,0,Pashto,2,1289.972046,32.1374,65.2408,KND,GHK,De Wono Karez(surkhbedak),3315,Ghorak,????,Kandahar,??????,33
3013,3014,CSO AIMS Villages (ACSOR),GHK-029,,0,KND-GHK-029,0,Pashto,2,1184.7030029999999,32.0065,65.13479,KND,GHK,Jalu,3315,Ghorak,????,Kandahar,??????,33
3014,3015,CSO AIMS Villages (ACSOR),GHK-030,,0,KND-GHK-030,0,Pashto,2,1203.369019,32.0259,65.15509,KND,GHK,Kapkak,3315,Ghorak,????,Kandahar,??????,33
3015,3016,CSO AIMS Villages (ACSOR),GHK-031,,0,KND-GHK-031,0,Pashto,2,1295.095947,32.13219,65.24209,KND,GHK,Karkoshim,3315,Ghorak,????,Kandahar,??????,33
3016,3017,CSO AIMS Villages (ACSOR),GHK-034,,0,KND-GHK-034,0,Pashto,2,1188.637939,32.069,65.1504,KND,GHK,Kuhna,3315,Ghorak,????,Kandahar,??????,33
3017,3018,CSO AIMS Villages (ACSOR),GHK-035,,0,KND-GHK-035,0,Pashto,2,1215.510986,32.08592,65.18655,KND,GHK,Lashkaray,3315,Ghorak,????,Kandahar,??????,33
3018,3019,CSO AIMS Villages (ACSOR),GHK-040,,0,KND-GHK-040,0,Pashto,2,1210.421021,32.0781,65.1725,KND,GHK,Pirqadam,3315,Ghorak,????,Kandahar,??????,33
3019,3020,CSO AIMS Villages (ACSOR),GHK-042,,0,KND-GHK-042,0,Pashto,2,1206.212036,32.08166,65.15051,KND,GHK,Shah Karez,3315,Ghorak,????,Kandahar,??????,33
3020,3021,CSO AIMS Villages (ACSOR),GHK-043,,0,KND-GHK-043,0,Pashto,2,1295.918945,31.989790000000003,65.18079,KND,GHK,Surkh Bed,3315,Ghorak,????,Kandahar,??????,33
3021,3022,CSO AIMS Villages (ACSOR),GHK-044,,0,KND-GHK-044,0,Pashto,2,1264.357056,32.116,65.21589,KND,GHK,Surkhabad,3315,Ghorak,????,Kandahar,??????,33
3022,3023,CSO AIMS Villages (ACSOR),GHK-045,,0,KND-GHK-045,0,Pashto,2,1255.6369630000002,32.117,65.20659,KND,GHK,Yakhtol,3315,Ghorak,????,Kandahar,??????,33
3023,3024,CSO AIMS Villages (ACSOR),GHK-046,,0,KND-GHK-046,0,Pashto,2,1366.44397,32.12855,65.31622,KND,GHK,Zedrigay,3315,Ghorak,????,Kandahar,??????,33
3025,3026,Yale POP_MASTER,GHK-052,District,1,KND-GHK-052,1419,Pashto,2,1160.791992,32.0328,65.1379,KND,GHK,Ghorak,3315,Ghorak,????,Kandahar,??????,33
3026,3027,CSO AIMS Villages (ACSOR),SWK-224,,0,KND-SWK-224,0,Pashto,2,1428.743042,32.0834,65.86301999999999,KND,SWK,Sahebzadah,3306,Shahwalikot,??? ??? ???,Kandahar,??????,33
3027,3028,CSO AIMS Villages (ACSOR),SWK-228,,0,KND-SWK-228,0,Pashto,2,1410.8120119999999,32.0768,65.86259,KND,SWK,Sayed Nabi,3306,Shahwalikot,??? ??? ???,Kandahar,??????,33
3028,3029,CSO AIMS Villages (ACSOR),SWK-239,,0,KND-SWK-239,0,Pashto,2,1434.447998,32.1368,65.87059,KND,SWK,Shinkay,3306,Shahwalikot,??? ??? ???,Kandahar,??????,33
3029,3030,CSO AIMS Villages (ACSOR),SWK-241,,0,KND-SWK-241,0,Pashto,2,1518.519043,32.10689,65.81249,KND,SWK,Shorab,3306,Shahwalikot,??? ??? ???,Kandahar,??????,33
3030,3031,CSO AIMS Villages (ACSOR),SWK-193,,0,KND-SWK-193,0,Pashto,2,1390.760986,32.09329,65.869,KND,SWK,Mohmmado(gurgin),3306,Shahwalikot,??? ??? ???,Kandahar,??????,33
3031,3032,CSO AIMS Villages (ACSOR),SWK-192,,0,KND-SWK-192,0,Pashto,2,1457.619019,32.1124,65.895,KND,SWK,Mohammad'ali,3306,Shahwalikot,??? ??? ???,Kandahar,??????,33
3032,3033,CSO AIMS Villages (ACSOR),SWK-072,,0,KND-SWK-072,0,Pashto,2,1405.672974,32.1018,65.8597,KND,SWK,Abdul Wahed,3306,Shahwalikot,??? ??? ???,Kandahar,??????,33
3033,3034,CSO AIMS Villages (ACSOR),SWK-221,,0,KND-SWK-221,0,Pashto,2,1413.432983,32.1057,65.87549,KND,SWK,Quddus,3306,Shahwalikot,??? ??? ???,Kandahar,??????,33
3034,3035,CSO AIMS Villages (ACSOR),SWK-070,,0,KND-SWK-070,0,Pashto,2,1408.0219730000001,32.09599,65.8593,KND,SWK,Abdul Baqi,3306,Shahwalikot,??? ??? ???,Kandahar,??????,33
3035,3036,CSO AIMS Villages (ACSOR),SWK-126,,0,KND-SWK-126,0,Pashto,2,1497.303955,32.13319,65.85569,KND,SWK,Gernay,3306,Shahwalikot,??? ??? ???,Kandahar,??????,33
3036,3037,CSO AIMS Villages (ACSOR),SWK-122,,0,KND-SWK-122,0,Pashto,2,1461.324951,32.0875,65.8596,KND,SWK,Faqiran,3306,Shahwalikot,??? ??? ???,Kandahar,??????,33
3037,3038,CSO AIMS Villages (ACSOR),SWK-237,,0,KND-SWK-237,0,Pashto,2,1421.781982,32.1031,65.8797,KND,SWK,Shawkal,3306,Shahwalikot,??? ??? ???,Kandahar,??????,33
3038,3039,CSO AIMS Villages (ACSOR),SWK-213,,0,KND-SWK-213,0,Pashto,2,1521.782959,32.129,65.825,KND,SWK,Pada (1),3306,Shahwalikot,??? ??? ???,Kandahar,??????,33
3039,3040,CSO AIMS Villages (ACSOR),SWK-194,,0,KND-SWK-194,0,Pashto,2,1375.422974,32.0895,65.86579,KND,SWK,Mulla Fadzel,3306,Shahwalikot,??? ??? ???,Kandahar,??????,33
3040,3041,CSO AIMS Villages (ACSOR),SWK-188,,0,KND-SWK-188,0,Pashto,2,1480.6519779999999,32.13693,65.85024,KND,SWK,Miyan,3306,Shahwalikot,??? ??? ???,Kandahar,??????,33
3041,3042,CSO AIMS Villages (ACSOR),SWK-219,,0,KND-SWK-219,0,Pashto,2,1389.1719970000001,32.1007,65.86589000000001,KND,SWK,Pirokhan,3306,Shahwalikot,??? ??? ???,Kandahar,??????,33
3042,3043,CSO AIMS Villages (ACSOR),SWK-080,,0,KND-SWK-080,0,Pashto,2,1524.784058,32.120090000000005,65.91888,KND,SWK,Aminkhan,3306,Shahwalikot,??? ??? ???,Kandahar,??????,33
3043,3044,CSO AIMS Villages (ACSOR),SWK-140,,0,KND-SWK-140,0,Pashto,2,1449.702026,32.04789,65.7727,KND,SWK,Hotak,3306,Shahwalikot,??? ??? ???,Kandahar,??????,33
3044,3045,CSO AIMS Villages (ACSOR),SWK-154,,0,KND-SWK-154,0,Pashto,2,1395.775024,32.09321,65.87246999999999,KND,SWK,Khayr Toot,3306,Shahwalikot,??? ??? ???,Kandahar,??????,33
3045,3046,CSO AIMS Villages (ACSOR),SWK-125,,0,KND-SWK-125,0,Pashto,2,1565.574951,32.127790000000005,65.91589,KND,SWK,Gerbakol,3306,Shahwalikot,??? ??? ???,Kandahar,??????,33
3046,3047,CSO AIMS Villages (ACSOR),SWK-266,,0,KND-SWK-266,0,Pashto,2,1562.541992,32.1271,65.92509,KND,SWK,Zangitan,3306,Shahwalikot,??? ??? ???,Kandahar,??????,33
3047,3048,CSO AIMS Villages (ACSOR),SWK-254,,0,KND-SWK-254,0,Pashto,2,1517.031982,32.13109,65.8409,KND,SWK,Tangay (3),3306,Shahwalikot,??? ??? ???,Kandahar,??????,33
3048,3049,CSO AIMS Villages (ACSOR),SWK-205,,0,KND-SWK-205,0,Pashto,2,1281.748047,32.01789,65.90919,KND,SWK,Nawa,3306,Shahwalikot,??? ??? ???,Kandahar,??????,33
3049,3050,CSO AIMS Villages (ACSOR),SWK-214,,0,KND-SWK-214,0,Pashto,2,1363.9279789999998,32.054990000000004,66.0415,KND,SWK,Pada (2),3306,Shahwalikot,??? ??? ???,Kandahar,??????,33
3050,3051,CSO AIMS Villages (ACSOR),SWK-145,,0,KND-SWK-145,0,Pashto,2,1305.89502,32.02219,65.93689,KND,SWK,Kadila,3306,Shahwalikot,??? ??? ???,Kandahar,??????,33
3051,3052,CSO AIMS Villages (ACSOR),SWK-185,,0,KND-SWK-185,0,Pashto,2,1216.94104,31.9948,65.9461,KND,SWK,Mazullah,3306,Shahwalikot,??? ??? ???,Kandahar,??????,33
3052,3053,CSO AIMS Villages (ACSOR),SWK-084,,0,KND-SWK-084,0,Pashto,2,1232.266968,31.98269,65.99,KND,SWK,Baba Sahib Kariz,3306,Shahwalikot,??? ??? ???,Kandahar,??????,33
3053,3054,CSO AIMS Villages (ACSOR),SWK-115,,0,KND-SWK-115,0,Pashto,2,1200.112061,31.97049,65.96169,KND,SWK,Delak Baba,3306,Shahwalikot,??? ??? ???,Kandahar,??????,33
3054,3055,CSO AIMS Villages (ACSOR),SWK-111,,0,KND-SWK-111,0,Pashto,2,1226.8280029999999,31.99959,65.9439,KND,SWK,De Sayedan,3306,Shahwalikot,??? ??? ???,Kandahar,??????,33
3055,3056,CSO AIMS Villages (ACSOR),SWK-171,,0,KND-SWK-171,0,Pashto,2,1267.697998,32.0159,65.9523,KND,SWK,Loy Karez,3306,Shahwalikot,??? ??? ???,Kandahar,??????,33
3056,3057,CSO AIMS Villages (ACSOR),SWK-201,,0,KND-SWK-201,0,Pashto,2,1242.329956,31.986,65.9461,KND,SWK,Naray,3306,Shahwalikot,??? ??? ???,Kandahar,??????,33
3057,3058,CSO AIMS Villages (ACSOR),SWK-262,,0,KND-SWK-262,0,Pashto,2,1278.839966,32.03212,65.93012,KND,SWK,Wiyan,3306,Shahwalikot,??? ??? ???,Kandahar,??????,33
3058,3059,CSO AIMS Villages (ACSOR),SWK-181,,0,KND-SWK-181,0,Pashto,2,1194.6369630000002,31.9738,65.97019,KND,SWK,Malmand Chinah,3306,Shahwalikot,??? ??? ???,Kandahar,??????,33
3059,3060,CSO AIMS Villages (ACSOR),SWK-138,,0,KND-SWK-138,0,Pashto,2,1341.9780269999999,32.0461,65.9377,KND,SWK,Hazarmanay,3306,Shahwalikot,??? ??? ???,Kandahar,??????,33
3060,3061,CSO AIMS Villages (ACSOR),SWK-209,,0,KND-SWK-209,0,Pashto,2,1254.144043,32.01089,65.9396,KND,SWK,Nimakae,3306,Shahwalikot,??? ??? ???,Kandahar,??????,33
3061,3062,CSO AIMS Villages (ACSOR),SWK-093,,0,KND-SWK-093,0,Pashto,2,1320.685059,32.03759,65.89729,KND,SWK,Ceran (seran),3306,Shahwalikot,??? ??? ???,Kandahar,??????,33
3062,3063,CSO AIMS Villages (ACSOR),SWK-223,,0,KND-SWK-223,0,Pashto,2,1350.6040039999998,32.00909,65.9355,KND,SWK,Safedak,3306,Shahwalikot,??? ??? ???,Kandahar,??????,33
3063,3064,CSO AIMS Villages (ACSOR),SWK-203,,0,KND-SWK-203,0,Pashto,2,1227.844971,32.002790000000005,65.93929,KND,SWK,Nasar,3306,Shahwalikot,??? ??? ???,Kandahar,??????,33
3064,3065,CSO AIMS Villages (ACSOR),SWK-238,,0,KND-SWK-238,0,Pashto,2,1514.557983,32.0969,65.9607,KND,SWK,Shelle(mohammad'isa),3306,Shahwalikot,??? ??? ???,Kandahar,??????,33
3065,3066,CSO AIMS Villages (ACSOR),SWK-103,,0,KND-SWK-103,0,Pashto,2,1400.969971,32.0623,65.9601,KND,SWK,Dahmushak,3306,Shahwalikot,??? ??? ???,Kandahar,??????,33
3066,3067,CSO AIMS Villages (ACSOR),SWK-144,,0,KND-SWK-144,0,Pashto,2,1379.275024,32.0718,65.87009,KND,SWK,Kabulian('abdur Rahim),3306,Shahwalikot,??? ??? ???,Kandahar,??????,33
3067,3068,CSO AIMS Villages (ACSOR),SWK-164,,0,KND-SWK-164,0,Pashto,2,1298.973999,32.029990000000005,65.94329,KND,SWK,Kuchnay Karez,3306,Shahwalikot,??? ??? ???,Kandahar,??????,33
3068,3069,CSO AIMS Villages (ACSOR),SWK-233,,0,KND-SWK-233,0,Pashto,2,1380.2089839999999,32.063190000000006,66.03239,KND,SWK,Shahtut,3306,Shahwalikot,??? ??? ???,Kandahar,??????,33
3131,3132,USAID AIDVillageView,MRF-002,,0,KND-MRF-002,0,Other,9,2045.4580079999998,31.5872,67.4064,KND,MRF,Abdul Kalay,3316,Maruf,?????,Kandahar,??????,33
3132,3133,USAID AIDVillageView,MRF-012,,0,KND-MRF-012,0,Other,9,2093.7890629999997,31.5869,67.3943,KND,MRF,Amirjan Kalay,3316,Maruf,?????,Kandahar,??????,33
3133,3134,USAID AIDVillageView,MRF-021,,0,KND-MRF-021,0,Other,9,2004.015015,31.5928,67.4216,KND,MRF,Bakhtnama,3316,Maruf,?????,Kandahar,??????,33
3134,3135,USAID AIDVillageView,MRF-025,,0,KND-MRF-025,0,Other,9,2021.371948,31.6287,67.3488,KND,MRF,Bara,3316,Maruf,?????,Kandahar,??????,33
3135,3136,USAID AIDVillageView,MRF-026,,0,KND-MRF-026,0,Other,9,1950.004028,31.6389,67.3454,KND,MRF,Barakhel,3316,Maruf,?????,Kandahar,??????,33
3136,3137,USAID AIDVillageView,MRF-053,,0,KND-MRF-053,0,Other,9,2068.294922,31.409000000000002,67.4042,KND,MRF,China (4),3316,Maruf,?????,Kandahar,??????,33
3137,3138,USAID AIDVillageView,MRF-055,,0,KND-MRF-055,0,Other,9,2094.656982,31.4091,67.4203,KND,MRF,Chormay,3316,Maruf,?????,Kandahar,??????,33
3138,3139,USAID AIDVillageView,MRF-078,,0,KND-MRF-078,0,Other,9,2014.706055,31.4951,67.4541,KND,MRF,Eskandar,3316,Maruf,?????,Kandahar,??????,33
3139,3140,USAID AIDVillageView,MRF-084,,0,KND-MRF-084,0,Other,9,2234.356934,31.5985,67.35,KND,MRF,Garang (3),3316,Maruf,?????,Kandahar,??????,33
3140,3141,USAID AIDVillageView,MRF-095,,0,KND-MRF-095,0,Other,9,2008.546997,31.5112,67.4546,KND,MRF,Ghat,3316,Maruf,?????,Kandahar,??????,33
3141,3142,USAID AIDVillageView,MRF-096,,0,KND-MRF-096,0,Other,9,2030.593994,31.6209,67.33,KND,MRF,Ghata Wona,3316,Maruf,?????,Kandahar,??????,33
3142,3143,USAID AIDVillageView,MRF-106,,0,KND-MRF-106,0,Other,9,1873.967041,31.6331,67.2951,KND,MRF,Hawdakay,3316,Maruf,?????,Kandahar,??????,33
3143,3144,USAID AIDVillageView,MRF-107,,0,KND-MRF-107,0,Other,9,2161.060059,31.3998,67.4328,KND,MRF,Hezan,3316,Maruf,?????,Kandahar,??????,33
3144,3145,USAID AIDVillageView,MRF-126,,0,KND-MRF-126,0,Other,9,2016.727051,31.4897,67.3805,KND,MRF,Karubey,3316,Maruf,?????,Kandahar,??????,33
3145,3146,USAID AIDVillageView,MRF-129,,0,KND-MRF-129,0,Other,9,2070.660889,31.421,67.4183,KND,MRF,Karzin,3316,Maruf,?????,Kandahar,??????,33
3146,3147,USAID AIDVillageView,MRF-135,,0,KND-MRF-135,0,Other,9,2046.363037,31.6206,67.3441,KND,MRF,Khalil,3316,Maruf,?????,Kandahar,??????,33
3147,3148,USAID AIDVillageView,MRF-139,,0,KND-MRF-139,0,Other,9,2088.944092,31.6093,67.3711,KND,MRF,Khazera,3316,Maruf,?????,Kandahar,??????,33
3148,3149,USAID AIDVillageView,MRF-141,,0,KND-MRF-141,0,Other,9,2015.4709469999998,31.5362,67.3849,KND,MRF,Khera Zawara,3316,Maruf,?????,Kandahar,??????,33
3149,3150,USAID AIDVillageView,MRF-145,,0,KND-MRF-145,0,Other,9,2164.739014,31.3929,67.4541,KND,MRF,Korum,3316,Maruf,?????,Kandahar,??????,33
3150,3151,USAID AIDVillageView,MRF-148,,0,KND-MRF-148,0,Other,9,2038.630005,31.5376,67.3759,KND,MRF,Kshata Salad,3316,Maruf,?????,Kandahar,??????,33
3151,3152,USAID AIDVillageView,MRF-149,,0,KND-MRF-149,0,Other,9,2102.339111,31.5592,67.378,KND,MRF,Kshata Wulgay,3316,Maruf,?????,Kandahar,??????,33
3152,3153,USAID AIDVillageView,MRF-163,,0,KND-MRF-163,0,Other,9,2016.261963,31.4811,67.454,KND,MRF,Leka Sheway,3316,Maruf,?????,Kandahar,??????,33
3153,3154,USAID AIDVillageView,MRF-172,,0,KND-MRF-172,0,Other,9,2210.610107,31.5738,67.3579,KND,MRF,Lwara Wulgay,3316,Maruf,?????,Kandahar,??????,33
3154,3155,USAID AIDVillageView,MRF-192,,0,KND-MRF-192,0,Other,9,2023.276978,31.6198,67.3743,KND,MRF,Mushkor,3316,Maruf,?????,Kandahar,??????,33
3155,3156,USAID AIDVillageView,MRF-194,,0,KND-MRF-194,0,Other,9,2028.796021,31.496,67.4445,KND,MRF,Namrozay,3316,Maruf,?????,Kandahar,??????,33
3156,3157,USAID AIDVillageView,MRF-199,,0,KND-MRF-199,0,Other,9,1973.680054,31.5091,67.479,KND,MRF,Ngande,3316,Maruf,?????,Kandahar,??????,33
3157,3158,USAID AIDVillageView,MRF-214,,0,KND-MRF-214,0,Other,9,2127.0048829999996,31.546,67.3507,KND,MRF,Pewara,3316,Maruf,?????,Kandahar,??????,33
3158,3159,USAID AIDVillageView,MRF-217,,0,KND-MRF-217,0,Other,9,2056.88501,31.5402,67.368,KND,MRF,Porta Salad,3316,Maruf,?????,Kandahar,??????,33
3159,3160,USAID AIDVillageView,MRF-222,,0,KND-MRF-222,0,Other,9,1968.364014,31.5123,67.5202,KND,MRF,Qala-i-rashid,3316,Maruf,?????,Kandahar,??????,33
3160,3161,USAID AIDVillageView,MRF-263,,0,KND-MRF-263,0,Other,9,2079.319092,31.6155,67.3656,KND,MRF,Shele Kalay,3316,Maruf,?????,Kandahar,??????,33
3161,3162,USAID AIDVillageView,MRF-302,,0,KND-MRF-302,0,Other,9,2227.099121,31.5967,67.3424,KND,MRF,Wech Gozha,3316,Maruf,?????,Kandahar,??????,33
3162,3163,USAID AIDVillageView,MRF-307,,0,KND-MRF-307,0,Other,9,2134.034912,31.4099,67.4558,KND,MRF,Wulgay (4),3316,Maruf,?????,Kandahar,??????,33
3163,3164,USAID AIDVillageView,MRF-311,,0,KND-MRF-311,0,Other,9,2099.697021,31.609,67.3763,KND,MRF,Zama,3316,Maruf,?????,Kandahar,??????,33
3164,3165,USAID AIDVillageView,MRF-313,,0,KND-MRF-313,0,Other,9,1989.05896,31.5374,67.4089,KND,MRF,Zara Ghbarga (2),3316,Maruf,?????,Kandahar,??????,33
3165,3166,CSO AIMS Villages (ACSOR),MRF-319,,0,KND-MRF-319,0,Other,9,1981.0880129999998,31.51639,67.46249,KND,MRF,Isaka,3316,Maruf,?????,Kandahar,??????,33
3188,3189,Yale POP_MASTER,MRF-321,,0,KND-MRF-321,87,Other,9,1983.725952,31.5143,67.4626,KND,MRF,Abdul Qadir Isahq Ghat Kalay,3316,Maruf,?????,Kandahar,??????,33
3189,3190,Yale POP_MASTER,MRF-322,,0,KND-MRF-322,657,Other,9,1965.2709960000002,31.5132,67.5082,KND,MRF,Mullah Khel Qala Rashid,3316,Maruf,?????,Kandahar,??????,33
3190,3191,Yale POP_MASTER,MRF-323,,0,KND-MRF-323,152,Other,9,1964.3609620000002,31.5082,67.4792,KND,MRF,Rab Kalay Akhund,3316,Maruf,?????,Kandahar,??????,33
3191,3192,Yale POP_MASTER,MRF-325,,0,KND-MRF-325,251,Other,9,2088.784912,31.586,67.39399999999999,KND,MRF,Warghar Kalay,3316,Maruf,?????,Kandahar,??????,33
3234,3235,CSO AIMS Villages (ACSOR),ARN-112,,0,KND-ARN-112,0,Other,9,1570.744995,31.7779,66.8421,KND,ARN,Omar Kala Kalay,3312,Arghestan,???????,Kandahar,??????,33
3235,3236,CSO AIMS Villages (ACSOR),ARN-031,,0,KND-ARN-031,0,Other,9,1583.546021,31.77849,66.85009000000001,KND,ARN,Burikhel Kalay,3312,Arghestan,???????,Kandahar,??????,33
3236,3237,USAID AIDVillageView,ARN-211,,0,KND-ARN-211,0,Other,9,1609.208008,31.7857,66.8659,KND,ARN,Kahay Kalay,3312,Arghestan,???????,Kandahar,??????,33
3297,3298,Yale POP_MASTER,SPB-084,,0,KND-SPB-084,964,Hazaragi,8,1153.444946,30.7218,66.1561,KND,SPB,Hanefi Kalay Dawod Khan Kalay,3311,Spinboldak,???? ?????,Kandahar,??????,33
4591,4592,Yale POP_MASTER,MWD-096,,0,KND-MWD-096,408,Pashto,2,868.6176757999999,31.7593,64.7912,KND,MWD,Naik Karaiz,3308,Maywand,?????,Kandahar,??????,33
4592,4593,Yale POP_MASTER,LKG-081,,0,HLM-LKG-081,448,Pashto,2,805.0437012,31.6509,64.6734,HLM,LKG,Raigi,3308,Maywand,?????,Kandahar,??????,33
4593,4594,Yale POP_MASTER,LKG-060,,0,HLM-LKG-060,669,Pashto,2,801.8521728999999,31.6348,64.6697,HLM,LKG,Khushk Aba Joshyi,3308,Maywand,?????,Kandahar,??????,33
4594,4595,Yale POP_MASTER,LKG-064,,0,HLM-LKG-064,157,Pashto,2,866.3250122000002,31.5834,64.7339,HLM,LKG,Landi Jonobi,3308,Maywand,?????,Kandahar,??????,33
4595,4596,Yale POP_MASTER,LKG-051,,0,HLM-LKG-051,852,Pashto,2,810.5056152000001,31.6504,64.7198,HLM,LKG,Jowman,3308,Maywand,?????,Kandahar,??????,33
4710,4711,USAID AIDVillageView,GHK-004,,0,KND-GHK-004,0,Pashto,2,1112.3339839999999,32.2826,65.253,KND,GHK,Garmab,3315,Ghorak,????,Kandahar,??????,33
4711,4712,USAID AIDVillageView,GHK-008,,0,KND-GHK-008,0,Pashto,2,1169.781982,32.2701,65.2524,KND,GHK,Obeh,3315,Ghorak,????,Kandahar,??????,33
5667,5668,USAID AIDVillageView,NES-001,,0,KND-NES-001,0,Pashto,2,1633.875,32.3156,65.5865,KND,NES,Ado Kalay,3314,Nesh,???,Kandahar,??????,33
5668,5669,USAID AIDVillageView,NES-002,,0,KND-NES-002,0,Pashto,2,1499.307983,32.4245,65.6372,KND,NES,Alaqadary Nish,3314,Nesh,???,Kandahar,??????,33
5669,5670,USAID AIDVillageView,NES-003,,0,KND-NES-003,0,Pashto,2,1583.964966,32.3507,65.6211,KND,NES,Baghe Agha,3314,Nesh,???,Kandahar,??????,33
5670,5671,USAID AIDVillageView,NES-004,,0,KND-NES-004,0,Pashto,2,1555.375,32.4568,65.5777,KND,NES,Bahlol,3314,Nesh,???,Kandahar,??????,33
5671,5672,USAID AIDVillageView,NES-005,,0,KND-NES-005,0,Pashto,2,1514.654053,32.4067,65.6519,KND,NES,Bariga,3314,Nesh,???,Kandahar,??????,33
5672,5673,USAID AIDVillageView,NES-006,,0,KND-NES-006,0,Pashto,2,1514.019043,32.4092,65.6502,KND,NES,Barkanday,3314,Nesh,???,Kandahar,??????,33
5673,5674,USAID AIDVillageView,NES-007,,0,KND-NES-007,0,Pashto,2,1675.54895,32.3554,65.8302,KND,NES,Borahgana,3314,Nesh,???,Kandahar,??????,33
5674,5675,USAID AIDVillageView,NES-008,,0,KND-NES-008,0,Pashto,2,1511.689941,32.4137,65.6435,KND,NES,Chahar Gumbad,3314,Nesh,???,Kandahar,??????,33
5675,5676,USAID AIDVillageView,NES-011,,0,KND-NES-011,0,Pashto,2,1507.165039,32.4251,65.6699,KND,NES,Chopani,3314,Nesh,???,Kandahar,??????,33
5676,5677,USAID AIDVillageView,NES-012,,0,KND-NES-012,0,Pashto,2,1646.7969970000001,32.3039,65.7425,KND,NES,Daylanor,3314,Nesh,???,Kandahar,??????,33
5677,5678,USAID AIDVillageView,NES-013,,0,KND-NES-013,0,Pashto,2,1518.112061,32.4031,65.5835,KND,NES,De Chine Kalay,3314,Nesh,???,Kandahar,??????,33
5678,5679,USAID AIDVillageView,NES-014,,0,KND-NES-014,0,Pashto,2,1494.630981,32.4152,65.5964,KND,NES,De Nawe Mandeh,3314,Nesh,???,Kandahar,??????,33
5679,5680,USAID AIDVillageView,NES-015,,0,KND-NES-015,0,Pashto,2,1432.862061,32.4496,65.6162,KND,NES,Dushina,3314,Nesh,???,Kandahar,??????,33
5680,5681,USAID AIDVillageView,NES-016,,0,KND-NES-016,0,Pashto,2,1510.286987,32.3941,65.5906,KND,NES,Gandacha,3314,Nesh,???,Kandahar,??????,33
5681,5682,USAID AIDVillageView,NES-017,,0,KND-NES-017,0,Pashto,2,1501.641968,32.4198,65.5935,KND,NES,Garmab,3314,Nesh,???,Kandahar,??????,33
5682,5683,USAID AIDVillageView,NES-019,,0,KND-NES-019,0,Pashto,2,1506.817017,32.4206,65.6557,KND,NES,Ghoymatan,3314,Nesh,???,Kandahar,??????,33
5683,5684,USAID AIDVillageView,NES-020,,0,KND-NES-020,0,Pashto,2,1510.249023,32.4133,65.6513,KND,NES,Ghurdang,3314,Nesh,???,Kandahar,??????,33
5684,5685,USAID AIDVillageView,NES-021,,0,KND-NES-021,0,Pashto,2,1522.1970210000002,32.3954,65.5859,KND,NES,Gumbad Kalay,3314,Nesh,???,Kandahar,??????,33
5685,5686,USAID AIDVillageView,NES-022,,0,KND-NES-022,0,Pashto,2,1633.880981,32.3171,65.5335,KND,NES,Haji Alam Kalay,3314,Nesh,???,Kandahar,??????,33
5686,5687,USAID AIDVillageView,NES-023,,0,KND-NES-023,0,Pashto,2,1523.655029,32.3856,65.5869,KND,NES,Jamak Kalay,3314,Nesh,???,Kandahar,??????,33
5687,5688,USAID AIDVillageView,NES-024,,0,KND-NES-024,0,Pashto,2,1444.0469970000001,32.4443,65.6144,KND,NES,Jayli,3314,Nesh,???,Kandahar,??????,33
5688,5689,USAID AIDVillageView,NES-027,,0,KND-NES-027,0,Pashto,2,1510.7189939999998,32.4132,65.7549,KND,NES,Kand Kalay,3314,Nesh,???,Kandahar,??????,33
5689,5690,USAID AIDVillageView,NES-028,,0,KND-NES-028,0,Pashto,2,1506.125977,32.4863,65.5725,KND,NES,Karez Dewalak,3314,Nesh,???,Kandahar,??????,33
5690,5691,USAID AIDVillageView,NES-029,,0,KND-NES-029,0,Pashto,2,1511.88501,32.4131,65.6595,KND,NES,Karez Khurd,3314,Nesh,???,Kandahar,??????,33
5691,5692,USAID AIDVillageView,NES-030,,0,KND-NES-030,0,Pashto,2,1630.406982,32.3252,65.6222,KND,NES,Karezak,3314,Nesh,???,Kandahar,??????,33
5692,5693,USAID AIDVillageView,NES-032,,0,KND-NES-032,0,Pashto,2,1422.337036,32.4774,65.6075,KND,NES,Khandak Kalay,3314,Nesh,???,Kandahar,??????,33
5693,5694,USAID AIDVillageView,NES-033,,0,KND-NES-033,0,Pashto,2,1466.249023,32.4267,65.604,KND,NES,Khenjak,3314,Nesh,???,Kandahar,??????,33
5694,5695,USAID AIDVillageView,NES-036,,0,KND-NES-036,0,Pashto,2,1724.102051,32.2865,65.5183,KND,NES,Naray Kalay,3314,Nesh,???,Kandahar,??????,33
5695,5696,USAID AIDVillageView,NES-037,,0,KND-NES-037,0,Pashto,2,1489.452026,32.4365,65.6546,KND,NES,Naw Karez,3314,Nesh,???,Kandahar,??????,33
5696,5697,USAID AIDVillageView,NES-040,,0,KND-NES-040,0,Pashto,2,1506.887939,32.4284,65.6718,KND,NES,Petaw Karez,3314,Nesh,???,Kandahar,??????,33
5697,5698,USAID AIDVillageView,NES-041,,0,KND-NES-041,0,Pashto,2,1516.119995,32.4165,65.6731,KND,NES,Qarya-i-khurdza'i,3314,Nesh,???,Kandahar,??????,33
5698,5699,USAID AIDVillageView,NES-042,,0,KND-NES-042,0,Pashto,2,1460.116943,32.4395,65.63,KND,NES,Qarya-i-yakh China,3314,Nesh,???,Kandahar,??????,33
5699,5700,USAID AIDVillageView,NES-045,,0,KND-NES-045,0,Pashto,2,1513.31897,32.4149,65.6379,KND,NES,Sardagh,3314,Nesh,???,Kandahar,??????,33
5700,5701,USAID AIDVillageView,NES-046,,0,KND-NES-046,0,Pashto,2,1490.588989,32.4327,65.6529,KND,NES,Sarposhan,3314,Nesh,???,Kandahar,??????,33
5701,5702,USAID AIDVillageView,NES-047,,0,KND-NES-047,0,Pashto,2,1516.918945,32.4067,65.6447,KND,NES,Sayd Karez,3314,Nesh,???,Kandahar,??????,33
5702,5703,USAID AIDVillageView,NES-048,,0,KND-NES-048,0,Pashto,2,1743.155029,32.2824,65.5356,KND,NES,Sharak,3314,Nesh,???,Kandahar,??????,33
5703,5704,USAID AIDVillageView,NES-049,,0,KND-NES-049,0,Pashto,2,1632.369995,32.3127,65.6636,KND,NES,Shawez,3314,Nesh,???,Kandahar,??????,33
5704,5705,USAID AIDVillageView,NES-050,,0,KND-NES-050,0,Pashto,2,1699.1030269999999,32.2886,65.578,KND,NES,Shin Karez,3314,Nesh,???,Kandahar,??????,33
5705,5706,USAID AIDVillageView,NES-051,,0,KND-NES-051,0,Pashto,2,1499.23999,32.4409,65.7803,KND,NES,Shoraw (shorab),3314,Nesh,???,Kandahar,??????,33
5706,5707,USAID AIDVillageView,NES-052,,0,KND-NES-052,0,Pashto,2,1680.439941,32.293,65.5846,KND,NES,Suray,3314,Nesh,???,Kandahar,??????,33
5707,5708,USAID AIDVillageView,NES-053,,0,KND-NES-053,0,Pashto,2,1597.827026,32.3371,65.6092,KND,NES,Tatar (1),3314,Nesh,???,Kandahar,??????,33
5708,5709,USAID AIDVillageView,NES-054,,0,KND-NES-054,0,Pashto,2,1605.189941,32.3247,65.5928,KND,NES,Tatar (2),3314,Nesh,???,Kandahar,??????,33
5709,5710,USAID AIDVillageView,NES-055,,0,KND-NES-055,0,Pashto,2,1508.024048,32.4224,65.6633,KND,NES,Turkman Kalay,3314,Nesh,???,Kandahar,??????,33
5710,5711,USAID AIDVillageView,NES-057,,0,KND-NES-057,0,Pashto,2,1495.480957,32.4262,65.6481,KND,NES,Wurjani,3314,Nesh,???,Kandahar,??????,33
5711,5712,CSO AIMS Villages (ACSOR),NES-059,,0,KND-NES-059,0,Pashto,2,1349.833008,32.52499,65.69289,KND,NES,Kareze Naw,3314,Nesh,???,Kandahar,??????,33
5712,5713,CSO AIMS Villages (ACSOR),NES-060,,0,KND-NES-060,0,Pashto,2,1308.873047,32.53179,65.6741,KND,NES,Khartut,3314,Nesh,???,Kandahar,??????,33
5713,5714,CSO AIMS Villages (ACSOR),SWK-120,,0,KND-SWK-120,0,Pashto,2,1876.2569579999997,32.2361,65.7925,KND,SWK,Engarak,3306,Shahwalikot,??? ??? ???,Kandahar,??????,33
5714,5715,CSO AIMS Villages (ACSOR),SWK-094,,0,KND-SWK-094,0,Pashto,2,1482.619019,32.157090000000004,65.8771,KND,SWK,Chaharpalang,3306,Shahwalikot,??? ??? ???,Kandahar,??????,33
5715,5716,CSO AIMS Villages (ACSOR),SWK-250,,0,KND-SWK-250,0,Pashto,2,1785.495972,32.24239,65.83989,KND,SWK,Takhmak,3306,Shahwalikot,??? ??? ???,Kandahar,??????,33
5716,5717,CSO AIMS Villages (ACSOR),SWK-153,,0,KND-SWK-153,0,Pashto,2,1646.317017,32.22129,65.91239,KND,SWK,Khartizak,3306,Shahwalikot,??? ??? ???,Kandahar,??????,33
5717,5718,CSO AIMS Villages (ACSOR),SWK-184,,0,KND-SWK-184,0,Pashto,2,1910.302002,32.20989,65.75659,KND,SWK,Mastey,3306,Shahwalikot,??? ??? ???,Kandahar,??????,33
5718,5719,CSO AIMS Villages (ACSOR),SWK-232,,0,KND-SWK-232,0,Pashto,2,1890.359985,32.2511,65.77239,KND,SWK,Shahrak,3306,Shahwalikot,??? ??? ???,Kandahar,??????,33
5719,5720,CSO AIMS Villages (ACSOR),SWK-166,,0,KND-SWK-166,0,Pashto,2,1698.5909420000003,32.16669,65.92699,KND,SWK,Kundelan,3306,Shahwalikot,??? ??? ???,Kandahar,??????,33
5720,5721,CSO AIMS Villages (ACSOR),SWK-076,,0,KND-SWK-076,0,Pashto,2,1684.822998,32.18639,65.8315,KND,SWK,Akhundzadahkhel,3306,Shahwalikot,??? ??? ???,Kandahar,??????,33
5721,5722,CSO AIMS Villages (ACSOR),SWK-220,,0,KND-SWK-220,0,Pashto,2,1946.3459469999998,32.2027,65.76929,KND,SWK,Punga,3306,Shahwalikot,??? ??? ???,Kandahar,??????,33
5722,5723,CSO AIMS Villages (ACSOR),SWK-182,,0,KND-SWK-182,0,Pashto,2,1873.614014,32.20718,65.98956,KND,SWK,Mano,3306,Shahwalikot,??? ??? ???,Kandahar,??????,33
5723,5724,CSO AIMS Villages (ACSOR),SWK-206,,0,KND-SWK-206,0,Pashto,2,1657.7459720000002,32.229690000000005,65.90299,KND,SWK,Nawa(gharbi),3306,Shahwalikot,??? ??? ???,Kandahar,??????,33
5724,5725,CSO AIMS Villages (ACSOR),SWK-172,,0,KND-SWK-172,0,Pashto,2,1955.880005,32.210190000000004,65.78989,KND,SWK,Loy Lwargay,3306,Shahwalikot,??? ??? ???,Kandahar,??????,33
5725,5726,CSO AIMS Villages (ACSOR),SWK-247,,0,KND-SWK-247,0,Pashto,2,1711.022949,32.2157,65.95509,KND,SWK,Syahzamin,3306,Shahwalikot,??? ??? ???,Kandahar,??????,33
5726,5727,CSO AIMS Villages (ACSOR),SWK-167,,0,KND-SWK-167,0,Pashto,2,1981.2359620000002,32.1874,65.71369,KND,SWK,Kunder Wesh,3306,Shahwalikot,??? ??? ???,Kandahar,??????,33
5727,5728,CSO AIMS Villages (ACSOR),SWK-089,,0,KND-SWK-089,0,Pashto,2,1452.545044,32.1473,65.87479,KND,SWK,Baydullah(obaydullah),3306,Shahwalikot,??? ??? ???,Kandahar,??????,33
5728,5729,CSO AIMS Villages (ACSOR),SWK-119,,0,KND-SWK-119,0,Pashto,2,1607.713013,32.20819,65.9174,KND,SWK,Doab,3306,Shahwalikot,??? ??? ???,Kandahar,??????,33
5729,5730,CSO AIMS Villages (ACSOR),SWK-251,,0,KND-SWK-251,0,Pashto,2,1878.803955,32.19189,65.9884,KND,SWK,Tambakol,3306,Shahwalikot,??? ??? ???,Kandahar,??????,33
5730,5731,CSO AIMS Villages (ACSOR),SWK-090,,0,KND-SWK-090,0,Pashto,2,1719.8649899999998,32.2112,65.9581,KND,SWK,Beloysang,3306,Shahwalikot,??? ??? ???,Kandahar,??????,33
5731,5732,CSO AIMS Villages (ACSOR),SWK-179,,0,KND-SWK-179,0,Pashto,2,1809.9859620000002,32.2064,65.80639000000001,KND,SWK,Lwar Sheleh,3306,Shahwalikot,??? ??? ???,Kandahar,??????,33
5732,5733,USAID AIDVillageView,SWK-024,,0,KND-SWK-024,0,Pashto,2,1689.68103,32.260999999999996,65.914,KND,SWK,Khenjakak,3306,Shahwalikot,??? ??? ???,Kandahar,??????,33
5733,5734,CSO AIMS Villages (ACSOR),SWK-178,,0,KND-SWK-178,0,Pashto,2,1666.935059,32.21239,65.9256,KND,SWK,Lwar Shalizar,3306,Shahwalikot,??? ??? ???,Kandahar,??????,33
5734,5735,CSO AIMS Villages (ACSOR),SWK-157,,0,KND-SWK-157,0,Pashto,2,1600.671021,32.1806,65.9138,KND,SWK,Khushkkol,3306,Shahwalikot,??? ??? ???,Kandahar,??????,33
5789,5790,CSO AIMS Villages (ACSOR),ARN-124,,0,KND-ARN-124,0,Other,9,1474.010986,31.5825,66.8221,KND,ARN,Pungi,3312,Arghestan,???????,Kandahar,??????,33
5790,5791,CSO AIMS Villages (ACSOR),ARN-047,,0,KND-ARN-047,0,Other,9,1520.140015,31.622690000000002,66.85899,KND,ARN,Deresha,3312,Arghestan,???????,Kandahar,??????,33
5791,5792,CSO AIMS Villages (ACSOR),ARN-082,,0,KND-ARN-082,0,Other,9,1609.647949,31.65989,66.81989,KND,ARN,Kheshta,3312,Arghestan,???????,Kandahar,??????,33
5792,5793,CSO AIMS Villages (ACSOR),ARN-006,,0,KND-ARN-006,0,Other,9,1599.176025,31.6349,66.8101,KND,ARN,Akizay,3312,Arghestan,???????,Kandahar,??????,33
5793,5794,CSO AIMS Villages (ACSOR),ARN-010,,0,KND-ARN-010,0,Other,9,1611.624023,31.646990000000002,66.81969000000001,KND,ARN,Ali Sher,3312,Arghestan,???????,Kandahar,??????,33
5794,5795,USAID AIDVillageView,ARN-225,,0,KND-ARN-225,0,Other,9,1586.89502,31.4711,66.89,KND,ARN,Mullayan,3312,Arghestan,???????,Kandahar,??????,33
5795,5796,USAID AIDVillageView,ARN-228,,0,KND-ARN-228,0,Other,9,1544.473999,31.4809,66.8818,KND,ARN,Potak,3312,Arghestan,???????,Kandahar,??????,33
5796,5797,USAID AIDVillageView,ARN-234,,0,KND-ARN-234,0,Other,9,1528.409058,31.5059,66.8658,KND,ARN,Takey,3312,Arghestan,???????,Kandahar,??????,33
5797,5798,USAID AIDVillageView,ARN-203,,0,KND-ARN-203,0,Other,9,1587.500977,31.4875,66.8469,KND,ARN,Babey,3312,Arghestan,???????,Kandahar,??????,33
5798,5799,USAID AIDVillageView,ARN-210,,0,KND-ARN-210,0,Other,9,1529.906982,31.5016,66.8668,KND,ARN,Jamat,3312,Arghestan,???????,Kandahar,??????,33
5799,5800,USAID AIDVillageView,ARN-218,,0,KND-ARN-218,0,Other,9,1495.295044,31.5304,66.847,KND,ARN,Laday,3312,Arghestan,???????,Kandahar,??????,33
5800,5801,USAID AIDVillageView,ARN-220,,0,KND-ARN-220,0,Other,9,1609.0939939999998,31.4751,66.8431,KND,ARN,Lwar Babey,3312,Arghestan,???????,Kandahar,??????,33
5801,5802,CSO AIMS Villages (ACSOR),ARN-093,,0,KND-ARN-093,0,Other,9,1540.172974,31.62309,66.78419,KND,ARN,Mamunzay,3312,Arghestan,???????,Kandahar,??????,33
5802,5803,CSO AIMS Villages (ACSOR),ARN-138,,0,KND-ARN-138,0,Other,9,1539.571045,31.6451,66.8687,KND,ARN,Salokhel,3312,Arghestan,???????,Kandahar,??????,33
5803,5804,CSO AIMS Villages (ACSOR),ARN-161,,0,KND-ARN-161,0,Other,9,1509.256958,31.6133,66.84679,KND,ARN,Shelgera,3312,Arghestan,???????,Kandahar,??????,33
5804,5805,USAID AIDVillageView,ARN-221,,0,KND-ARN-221,0,Other,9,1534.6130369999998,31.4815,66.8876,KND,ARN,Macho Shela,3312,Arghestan,???????,Kandahar,??????,33
5805,5806,USAID AIDVillageView,MRF-130,,0,KND-MRF-130,0,Other,9,1488.11499,31.5333,66.8351,KND,MRF,Kashala,3316,Maruf,?????,Kandahar,??????,33
5806,5807,USAID AIDVillageView,MRF-206,,0,KND-MRF-206,0,Other,9,1516.5529789999998,31.5051,66.8793,KND,MRF,Panizay,3316,Maruf,?????,Kandahar,??????,33
5807,5808,USAID AIDVillageView,MRF-219,,0,KND-MRF-219,0,Other,9,1518.402954,31.5867,66.8379,KND,MRF,Pungi,3316,Maruf,?????,Kandahar,??????,33
5808,5809,USAID AIDVillageView,MRF-255,,0,KND-MRF-255,0,Other,9,1488.55603,31.5967,66.8388,KND,MRF,Sharan (1),3316,Maruf,?????,Kandahar,??????,33
5809,5810,USAID AIDVillageView,MRF-305,,0,KND-MRF-305,0,Other,9,1490.0410160000001,31.5372,66.8559,KND,MRF,Wulgay (2),3316,Maruf,?????,Kandahar,??????,33
5810,5811,USAID AIDVillageView,MRF-316,,0,KND-MRF-316,0,Other,9,1586.232056,31.5494,66.8183,KND,MRF,Zer Kabany,3316,Maruf,?????,Kandahar,??????,33
5811,5812,CSO AIMS Villages (ACSOR),ARN-114,,0,KND-ARN-114,0,Other,9,1567.1870119999999,31.7633,66.8407,KND,ARN,Pachakhel Kalay,3312,Arghestan,???????,Kandahar,??????,33
5812,5813,CSO AIMS Villages (ACSOR),ARN-034,,0,KND-ARN-034,0,Other,9,1523.015991,31.6988,66.79729,KND,ARN,Chawgay Kalay,3312,Arghestan,???????,Kandahar,??????,33
5813,5814,CSO AIMS Villages (ACSOR),ARN-049,,0,KND-ARN-049,0,Other,9,1650.0780029999999,31.6987,66.83739,KND,ARN,Domanda Kalay,3312,Arghestan,???????,Kandahar,??????,33
5814,5815,CSO AIMS Villages (ACSOR),ARN-053,,0,KND-ARN-053,0,Other,9,1443.319946,31.7572,66.70149,KND,ARN,Eshagzay,3312,Arghestan,???????,Kandahar,??????,33
5815,5816,CSO AIMS Villages (ACSOR),ARN-058,,0,KND-ARN-058,0,Other,9,1555.3439939999998,31.721790000000002,66.81799000000001,KND,ARN,Gari Kalay,3312,Arghestan,???????,Kandahar,??????,33
5816,5817,CSO AIMS Villages (ACSOR),ARN-075,,0,KND-ARN-075,0,Other,9,1496.2070310000001,31.7272,66.78409,KND,ARN,Karezwal Kalay,3312,Arghestan,???????,Kandahar,??????,33
5817,5818,CSO AIMS Villages (ACSOR),ARN-078,,0,KND-ARN-078,0,Other,9,1471.102051,31.71449,66.7653,KND,ARN,Kazhaki Kala,3312,Arghestan,???????,Kandahar,??????,33
5818,5819,CSO AIMS Villages (ACSOR),ARN-080,,0,KND-ARN-080,0,Other,9,1426.240967,31.761390000000002,66.73049,KND,ARN,Khangulkhel,3312,Arghestan,???????,Kandahar,??????,33
5819,5820,CSO AIMS Villages (ACSOR),ARN-007,,0,KND-ARN-007,0,Other,9,1451.310059,31.64,66.7476,KND,ARN,Alghamchi,3312,Arghestan,???????,Kandahar,??????,33
5820,5821,CSO AIMS Villages (ACSOR),ARN-201,,0,KND-ARN-201,0,Other,9,1439.307983,31.6987,66.73909,KND,ARN,Zor Kalay,3312,Arghestan,???????,Kandahar,??????,33
5821,5822,CSO AIMS Villages (ACSOR),ARN-089,,0,KND-ARN-089,0,Other,9,1444.5860599999999,31.7186,66.74749,KND,ARN,Loy Deh (2),3312,Arghestan,???????,Kandahar,??????,33
5822,5823,CSO AIMS Villages (ACSOR),ARN-132,,0,KND-ARN-132,0,Other,9,1432.232056,31.6687,66.74049000000001,KND,ARN,Qyamata,3312,Arghestan,???????,Kandahar,??????,33
5823,5824,CSO AIMS Villages (ACSOR),ARN-133,,0,KND-ARN-133,0,Other,9,1531.3360599999999,31.6766,66.78719,KND,ARN,Sadakay Kalay,3312,Arghestan,???????,Kandahar,??????,33
5824,5825,CSO AIMS Villages (ACSOR),ARN-136,,0,KND-ARN-136,0,Other,9,1647.860962,31.6918,66.84379,KND,ARN,Salehgay Kalay,3312,Arghestan,???????,Kandahar,??????,33
5825,5826,CSO AIMS Villages (ACSOR),ARN-142,,0,KND-ARN-142,0,Other,9,1504.274048,31.647990000000004,66.7766,KND,ARN,Sar Darrah,3312,Arghestan,???????,Kandahar,??????,33
5826,5827,CSO AIMS Villages (ACSOR),ARN-155,,0,KND-ARN-155,0,Other,9,1455.168945,31.774590000000003,66.70879000000001,KND,ARN,Sharan,3312,Arghestan,???????,Kandahar,??????,33
5827,5828,CSO AIMS Villages (ACSOR),ARN-164,,0,KND-ARN-164,0,Other,9,1534.791992,31.759990000000002,66.82259,KND,ARN,Shilgay Kalay,3312,Arghestan,???????,Kandahar,??????,33
5828,5829,CSO AIMS Villages (ACSOR),ARN-169,,0,KND-ARN-169,0,Other,9,1404.3339839999999,31.74069,66.7079,KND,ARN,Spin Masjed,3312,Arghestan,???????,Kandahar,??????,33
5829,5830,CSO AIMS Villages (ACSOR),ARN-170,,0,KND-ARN-170,0,Other,9,1444.904053,31.692459999999997,66.73318,KND,ARN,Spina Gara,3312,Arghestan,???????,Kandahar,??????,33
5830,5831,CSO AIMS Villages (ACSOR),ARN-174,,0,KND-ARN-174,0,Other,9,1471.1040039999998,31.703090000000003,66.77449,KND,ARN,Surkay Kalay,3312,Arghestan,???????,Kandahar,??????,33
5835,5836,Yale POP_MASTER,ARN-248,,0,KND-ARN-248,453,Other,9,1456.410034,31.7843,66.7443,KND,ARN,Payianda Kalay,3312,Arghestan,???????,Kandahar,??????,33
5840,5841,CSO AIMS Villages (ACSOR),ARN-109,,0,KND-ARN-109,0,Other,9,1672.583008,31.670990000000003,66.88039,KND,ARN,Nazarzay Kalay,3312,Arghestan,???????,Kandahar,??????,33
5841,5842,CSO AIMS Villages (ACSOR),ARN-123,,0,KND-ARN-123,0,Other,9,2081.894043,31.6568,66.97689,KND,ARN,Prang,3312,Arghestan,???????,Kandahar,??????,33
5842,5843,CSO AIMS Villages (ACSOR),ARN-063,,0,KND-ARN-063,0,Other,9,1717.609985,31.6884,66.86459,KND,ARN,Isagay Kalay,3312,Arghestan,???????,Kandahar,??????,33
5843,5844,CSO AIMS Villages (ACSOR),ARN-083,,0,KND-ARN-083,0,Other,9,1919.91394,31.6517,66.96247,KND,ARN,Khun Darrah,3312,Arghestan,???????,Kandahar,??????,33
5844,5845,CSO AIMS Villages (ACSOR),ARN-002,,0,KND-ARN-002,0,Other,9,1577.14502,31.682,66.89249000000001,KND,ARN,Abdullah Khan Kalay (2),3312,Arghestan,???????,Kandahar,??????,33
5845,5846,CSO AIMS Villages (ACSOR),ARN-181,,0,KND-ARN-181,0,Other,9,1638.1639400000001,31.734090000000002,66.93159,KND,ARN,Taraki Kalay,3312,Arghestan,???????,Kandahar,??????,33
5846,5847,CSO AIMS Villages (ACSOR),ARN-095,,0,KND-ARN-095,0,Other,9,1555.409058,31.660290000000003,66.88049000000001,KND,ARN,Mardankhel,3312,Arghestan,???????,Kandahar,??????,33
5847,5848,CSO AIMS Villages (ACSOR),ARN-140,,0,KND-ARN-140,0,Other,9,2232.649902,31.6947,66.9789,KND,ARN,Sami Kalay,3312,Arghestan,???????,Kandahar,??????,33
5848,5849,CSO AIMS Villages (ACSOR),ARN-173,,0,KND-ARN-173,0,Other,9,1670.4370119999999,31.7166,66.92279,KND,ARN,Surkani Kalay,3312,Arghestan,???????,Kandahar,??????,33
5849,5850,USAID AIDVillageView,MRF-001,,0,KND-MRF-001,0,Other,9,1854.6619870000002,31.4764,67.02,KND,MRF,Abdul Baqikhan Kalay,3316,Maruf,?????,Kandahar,??????,33
5850,5851,USAID AIDVillageView,MRF-003,,0,KND-MRF-003,0,Other,9,1749.397949,31.6225,67.2261,KND,MRF,Abo Kala,3316,Maruf,?????,Kandahar,??????,33
5851,5852,USAID AIDVillageView,MRF-004,,0,KND-MRF-004,0,Other,9,1884.1860350000002,31.5502,67.1992,KND,MRF,Adozay,3316,Maruf,?????,Kandahar,??????,33
5852,5853,USAID AIDVillageView,MRF-006,,0,KND-MRF-006,0,Other,9,1765.480957,31.4675,66.9986,KND,MRF,Akhtukhel (1),3316,Maruf,?????,Kandahar,??????,33
5853,5854,USAID AIDVillageView,MRF-007,,0,KND-MRF-007,0,Other,9,1802.128052,31.4673,67.0079,KND,MRF,Akhtukhel (2),3316,Maruf,?????,Kandahar,??????,33
5854,5855,USAID AIDVillageView,MRF-008,,0,KND-MRF-008,0,Other,9,2054.388916,31.4858,67.2316,KND,MRF,Ali Sher,3316,Maruf,?????,Kandahar,??????,33
5855,5856,USAID AIDVillageView,MRF-009,,0,KND-MRF-009,0,Other,9,1821.928955,31.565,67.165,KND,MRF,Ali Sher Kalay,3316,Maruf,?????,Kandahar,??????,33
5856,5857,USAID AIDVillageView,MRF-010,,0,KND-MRF-010,0,Other,9,1869.7869870000002,31.4444,67.1428,KND,MRF,Ambar Kalay,3316,Maruf,?????,Kandahar,??????,33
5857,5858,USAID AIDVillageView,MRF-011,,0,KND-MRF-011,0,Other,9,2038.953979,31.3243,67.2767,KND,MRF,Ambargay,3316,Maruf,?????,Kandahar,??????,33
5858,5859,USAID AIDVillageView,MRF-014,,0,KND-MRF-014,0,Other,9,1877.578979,31.3747,67.2317,KND,MRF,Angizay,3316,Maruf,?????,Kandahar,??????,33
5859,5860,USAID AIDVillageView,MRF-015,,0,KND-MRF-015,0,Other,9,1873.447998,31.488000000000003,67.0262,KND,MRF,Angukhel,3316,Maruf,?????,Kandahar,??????,33
5860,5861,USAID AIDVillageView,MRF-016,,0,KND-MRF-016,0,Other,9,2202.196045,31.2772,67.3368,KND,MRF,Awlad,3316,Maruf,?????,Kandahar,??????,33
5861,5862,USAID AIDVillageView,MRF-018,,0,KND-MRF-018,0,Other,9,1839.703003,31.3983,67.1606,KND,MRF,Bahlolzay(chehelgazi),3316,Maruf,?????,Kandahar,??????,33
5862,5863,USAID AIDVillageView,MRF-019,,0,KND-MRF-019,0,Other,9,1846.5100100000002,31.4712,67.0219,KND,MRF,Bahlolzay(shamali),3316,Maruf,?????,Kandahar,??????,33
5863,5864,USAID AIDVillageView,MRF-020,,0,KND-MRF-020,0,Other,9,1628.1779789999998,31.6009,67.0812,KND,MRF,Bakela,3316,Maruf,?????,Kandahar,??????,33
5864,5865,USAID AIDVillageView,MRF-022,,0,KND-MRF-022,0,Other,9,1645.109985,31.6027,67.1284,KND,MRF,Balanzay,3316,Maruf,?????,Kandahar,??????,33
5865,5866,USAID AIDVillageView,MRF-023,,0,KND-MRF-023,0,Other,9,1690.4820559999998,31.441,67.0181,KND,MRF,Balay,3316,Maruf,?????,Kandahar,??????,33
5866,5867,USAID AIDVillageView,MRF-024,,0,KND-MRF-024,0,Other,9,1720.817017,31.594,67.1651,KND,MRF,Balkherzay,3316,Maruf,?????,Kandahar,??????,33
5867,5868,USAID AIDVillageView,MRF-027,,0,KND-MRF-027,0,Other,9,1989.1159670000002,31.4751,67.3375,KND,MRF,Barat Karez Kalay,3316,Maruf,?????,Kandahar,??????,33
5868,5869,USAID AIDVillageView,MRF-029,,0,KND-MRF-029,0,Other,9,2042.015991,31.2362,67.2367,KND,MRF,Basha,3316,Maruf,?????,Kandahar,??????,33
5869,5870,USAID AIDVillageView,MRF-030,,0,KND-MRF-030,0,Other,9,1595.394043,31.5481,66.9711,KND,MRF,Bawu Kala,3316,Maruf,?????,Kandahar,??????,33
5870,5871,USAID AIDVillageView,MRF-031,,0,KND-MRF-031,0,Other,9,2019.4549559999998,31.2217,67.2469,KND,MRF,Bayanzay Karez,3316,Maruf,?????,Kandahar,??????,33
5871,5872,USAID AIDVillageView,MRF-032,,0,KND-MRF-032,0,Other,9,2126.214111,31.5014,67.2159,KND,MRF,Bayek,3316,Maruf,?????,Kandahar,??????,33
5872,5873,USAID AIDVillageView,MRF-033,,0,KND-MRF-033,0,Other,9,1578.891968,31.5839,67.0189,KND,MRF,Baz Mohammad Kalay,3316,Maruf,?????,Kandahar,??????,33
5873,5874,USAID AIDVillageView,MRF-034,,0,KND-MRF-034,0,Other,9,1792.5100100000002,31.5673,67.153,KND,MRF,Bazoray,3316,Maruf,?????,Kandahar,??????,33
5874,5875,USAID AIDVillageView,MRF-035,,0,KND-MRF-035,0,Other,9,1711.214966,31.5785,67.1125,KND,MRF,Bela,3316,Maruf,?????,Kandahar,??????,33
5875,5876,USAID AIDVillageView,MRF-036,,0,KND-MRF-036,0,Other,9,2010.567017,31.5002,67.0856,KND,MRF,Besmel Kalay,3316,Maruf,?????,Kandahar,??????,33
5876,5877,USAID AIDVillageView,MRF-037,,0,KND-MRF-037,0,Other,9,2117.355957,31.4927,67.2215,KND,MRF,Buragay,3316,Maruf,?????,Kandahar,??????,33
5877,5878,USAID AIDVillageView,MRF-038,,0,KND-MRF-038,0,Other,9,2333.612061,31.255,67.374,KND,MRF,Cagay,3316,Maruf,?????,Kandahar,??????,33
5878,5879,USAID AIDVillageView,MRF-039,,0,KND-MRF-039,0,Other,9,1923.012939,31.3483,67.2387,KND,MRF,Cala (1),3316,Maruf,?????,Kandahar,??????,33
5879,5880,USAID AIDVillageView,MRF-040,,0,KND-MRF-040,0,Other,9,1889.496948,31.3849,67.2522,KND,MRF,Cala (2),3316,Maruf,?????,Kandahar,??????,33
5880,5881,USAID AIDVillageView,MRF-041,,0,KND-MRF-041,0,Other,9,2070.659912,31.3254,67.3363,KND,MRF,Cerlan,3316,Maruf,?????,Kandahar,??????,33
5881,5882,USAID AIDVillageView,MRF-042,,0,KND-MRF-042,0,Other,9,1987.362061,31.414,67.3473,KND,MRF,Cerlena,3316,Maruf,?????,Kandahar,??????,33
5882,5883,USAID AIDVillageView,MRF-043,,0,KND-MRF-043,0,Other,9,1853.4040530000002,31.48,67.0245,KND,MRF,Cerlena (1),3316,Maruf,?????,Kandahar,??????,33
5883,5884,USAID AIDVillageView,MRF-044,,0,KND-MRF-044,0,Other,9,1906.7440190000002,31.3879,67.2643,KND,MRF,Cerlena (2),3316,Maruf,?????,Kandahar,??????,33
5884,5885,USAID AIDVillageView,MRF-045,,0,KND-MRF-045,0,Other,9,1743.57605,31.5921,67.1927,KND,MRF,Changazay,3316,Maruf,?????,Kandahar,??????,33
5885,5886,USAID AIDVillageView,MRF-046,,0,KND-MRF-046,0,Other,9,1686.9040530000002,31.5814,67.0975,KND,MRF,Chawday,3316,Maruf,?????,Kandahar,??????,33
5886,5887,USAID AIDVillageView,MRF-047,,0,KND-MRF-047,0,Other,9,2095.986084,31.3277,67.3627,KND,MRF,Chawgay (1),3316,Maruf,?????,Kandahar,??????,33
5887,5888,USAID AIDVillageView,MRF-048,,0,KND-MRF-048,0,Other,9,1559.93396,31.5142,66.9189,KND,MRF,Chawgay (2),3316,Maruf,?????,Kandahar,??????,33
5888,5889,USAID AIDVillageView,MRF-049,,0,KND-MRF-049,0,Other,9,1956.790039,31.4414,67.33,KND,MRF,Chengay,3316,Maruf,?????,Kandahar,??????,33
5889,5890,USAID AIDVillageView,MRF-050,,0,KND-MRF-050,0,Other,9,2113.4060059999997,31.2846,67.2861,KND,MRF,China (1),3316,Maruf,?????,Kandahar,??????,33
5890,5891,USAID AIDVillageView,MRF-051,,0,KND-MRF-051,0,Other,9,1699.449951,31.5714,67.0624,KND,MRF,China (2),3316,Maruf,?????,Kandahar,??????,33
5891,5892,USAID AIDVillageView,MRF-052,,0,KND-MRF-052,0,Other,9,2147.467041,31.2936,67.3454,KND,MRF,China (3),3316,Maruf,?????,Kandahar,??????,33
5892,5893,USAID AIDVillageView,MRF-054,,0,KND-MRF-054,0,Other,9,1916.0830079999998,31.3836,67.2183,KND,MRF,China (5),3316,Maruf,?????,Kandahar,??????,33
5893,5894,USAID AIDVillageView,MRF-056,,0,KND-MRF-056,0,Other,9,1686.7569579999997,31.5896,67.1364,KND,MRF,Churmay,3316,Maruf,?????,Kandahar,??????,33
5894,5895,USAID AIDVillageView,MRF-057,,0,KND-MRF-057,0,Other,9,2033.5100100000002,31.4115,67.3788,KND,MRF,Dabara,3316,Maruf,?????,Kandahar,??????,33
5895,5896,USAID AIDVillageView,MRF-058,,0,KND-MRF-058,0,Other,9,1987.859009,31.3366,67.2833,KND,MRF,Dabari,3316,Maruf,?????,Kandahar,??????,33
5896,5897,USAID AIDVillageView,MRF-059,,0,KND-MRF-059,0,Other,9,1713.082031,31.6628,67.2229,KND,MRF,Dag,3316,Maruf,?????,Kandahar,??????,33
5897,5898,USAID AIDVillageView,MRF-060,,0,KND-MRF-060,0,Other,9,1661.899048,31.6049,67.1429,KND,MRF,Dagay,3316,Maruf,?????,Kandahar,??????,33
5898,5899,USAID AIDVillageView,MRF-061,,0,KND-MRF-061,0,Other,9,1784.32605,31.5714,67.1702,KND,MRF,Dangar (karez),3316,Maruf,?????,Kandahar,??????,33
5899,5900,USAID AIDVillageView,MRF-062,,0,KND-MRF-062,0,Other,9,1936.314941,31.4208,67.225,KND,MRF,Daru,3316,Maruf,?????,Kandahar,??????,33
5900,5901,USAID AIDVillageView,MRF-063,,0,KND-MRF-063,0,Other,9,1990.417969,31.4675,67.3348,KND,MRF,De Eghzo Kalay,3316,Maruf,?????,Kandahar,??????,33
5901,5902,USAID AIDVillageView,MRF-064,,0,KND-MRF-064,0,Other,9,2051.322998,31.2843,67.1218,KND,MRF,De Kelaka Kala,3316,Maruf,?????,Kandahar,??????,33
5902,5903,USAID AIDVillageView,MRF-065,,0,KND-MRF-065,0,Other,9,1935.8850100000002,31.2496,67.1078,KND,MRF,De Kelaka Shela,3316,Maruf,?????,Kandahar,??????,33
5903,5904,USAID AIDVillageView,MRF-067,,0,KND-MRF-067,0,Other,9,1967.9389649999998,31.3192,67.2049,KND,MRF,De Shado Shela,3316,Maruf,?????,Kandahar,??????,33
5904,5905,USAID AIDVillageView,MRF-068,,0,KND-MRF-068,0,Other,9,2003.536011,31.3059,67.2337,KND,MRF,De Shado Tangay,3316,Maruf,?????,Kandahar,??????,33
5905,5906,USAID AIDVillageView,MRF-069,,0,KND-MRF-069,0,Other,9,2048.068115,31.2654,67.1617,KND,MRF,De Sreh Khwa Kalay,3316,Maruf,?????,Kandahar,??????,33
5906,5907,USAID AIDVillageView,MRF-070,,0,KND-MRF-070,0,Other,9,1849.858032,31.5435,67.0714,KND,MRF,De Zyarat Tangay,3316,Maruf,?????,Kandahar,??????,33
5907,5908,USAID AIDVillageView,MRF-071,,0,KND-MRF-071,0,Other,9,1616.295044,31.5613,66.9082,KND,MRF,De'azim Karez,3316,Maruf,?????,Kandahar,??????,33
5908,5909,USAID AIDVillageView,MRF-072,,0,KND-MRF-072,0,Other,9,2157.479004,31.2714,67.3031,KND,MRF,Derecele,3316,Maruf,?????,Kandahar,??????,33
5909,5910,USAID AIDVillageView,MRF-073,,0,KND-MRF-073,0,Other,9,1934.937012,31.416999999999998,67.2972,KND,MRF,Derkay,3316,Maruf,?????,Kandahar,??????,33
5910,5911,USAID AIDVillageView,MRF-074,,0,KND-MRF-074,0,Other,9,1636.2110599999999,31.5966,67.0557,KND,MRF,Dolagi,3316,Maruf,?????,Kandahar,??????,33
5911,5912,USAID AIDVillageView,MRF-075,,0,KND-MRF-075,0,Other,9,2090.14209,31.287,67.1075,KND,MRF,Dora,3316,Maruf,?????,Kandahar,??????,33
5912,5913,USAID AIDVillageView,MRF-076,,0,KND-MRF-076,0,Other,9,1985.822998,31.438000000000002,67.3644,KND,MRF,Duri,3316,Maruf,?????,Kandahar,??????,33
5913,5914,USAID AIDVillageView,MRF-077,,0,KND-MRF-077,0,Other,9,2030.42395,31.3404,67.3257,KND,MRF,Engercyan,3316,Maruf,?????,Kandahar,??????,33
5914,5915,USAID AIDVillageView,MRF-079,,0,KND-MRF-079,0,Other,9,2089.631104,31.3546,67.3247,KND,MRF,Esker,3316,Maruf,?????,Kandahar,??????,33
5915,5916,USAID AIDVillageView,MRF-080,,0,KND-MRF-080,0,Other,9,2057.8479,31.3278,67.3397,KND,MRF,Eskhar,3316,Maruf,?????,Kandahar,??????,33
5916,5917,USAID AIDVillageView,MRF-081,,0,KND-MRF-081,0,Other,9,1925.907959,31.4595,67.0952,KND,MRF,Ezghumay,3316,Maruf,?????,Kandahar,??????,33
5917,5918,USAID AIDVillageView,MRF-082,,0,KND-MRF-082,0,Other,9,1628.141968,31.6041,67.0926,KND,MRF,Gaday,3316,Maruf,?????,Kandahar,??????,33
5918,5919,USAID AIDVillageView,MRF-083,,0,KND-MRF-083,0,Other,9,1905.801025,31.4001,67.2753,KND,MRF,Gagera,3316,Maruf,?????,Kandahar,??????,33
5919,5920,USAID AIDVillageView,MRF-085,,0,KND-MRF-085,0,Other,9,1694.44104,31.6259,67.1597,KND,MRF,Garang (1),3316,Maruf,?????,Kandahar,??????,33
5920,5921,USAID AIDVillageView,MRF-086,,0,KND-MRF-086,0,Other,9,1731.078979,31.6334,67.1642,KND,MRF,Garang (2),3316,Maruf,?????,Kandahar,??????,33
5921,5922,USAID AIDVillageView,MRF-087,,0,KND-MRF-087,0,Other,9,1865.29895,31.3697,67.2039,KND,MRF,Gargayra,3316,Maruf,?????,Kandahar,??????,33
5922,5923,USAID AIDVillageView,MRF-089,,0,KND-MRF-089,0,Other,9,1685.494995,31.5542,67.0236,KND,MRF,Gaweda,3316,Maruf,?????,Kandahar,??????,33
5923,5924,USAID AIDVillageView,MRF-090,,0,KND-MRF-090,0,Other,9,1853.967041,31.5264,67.0403,KND,MRF,Gaweda China,3316,Maruf,?????,Kandahar,??????,33
5924,5925,USAID AIDVillageView,MRF-091,,0,KND-MRF-091,0,Other,9,1964.042969,31.4497,67.2248,KND,MRF,Gerdab (gerdaw),3316,Maruf,?????,Kandahar,??????,33
5925,5926,USAID AIDVillageView,MRF-092,,0,KND-MRF-092,0,Other,9,1931.3530269999999,31.4141,67.2926,KND,MRF,Gerday,3316,Maruf,?????,Kandahar,??????,33
5926,5927,USAID AIDVillageView,MRF-093,,0,KND-MRF-093,0,Other,9,1644.6030269999999,31.5792,67.0511,KND,MRF,Gharay,3316,Maruf,?????,Kandahar,??????,33
5927,5928,USAID AIDVillageView,MRF-094,,0,KND-MRF-094,0,Other,9,1915.100952,31.4146,67.2072,KND,MRF,Gharib,3316,Maruf,?????,Kandahar,??????,33
5928,5929,USAID AIDVillageView,MRF-097,,0,KND-MRF-097,0,Other,9,1971.94397,31.4312,67.2023,KND,MRF,Ghazi Bila,3316,Maruf,?????,Kandahar,??????,33
5929,5930,USAID AIDVillageView,MRF-098,,0,KND-MRF-098,0,Other,9,2139.116943,31.2504,67.3018,KND,MRF,Ghbargay (1),3316,Maruf,?????,Kandahar,??????,33
5930,5931,USAID AIDVillageView,MRF-099,,0,KND-MRF-099,0,Other,9,2253.314941,31.2571,67.3435,KND,MRF,Ghbargay (2),3316,Maruf,?????,Kandahar,??????,33
5931,5932,USAID AIDVillageView,MRF-100,,0,KND-MRF-100,0,Other,9,1839.948975,31.655,67.1412,KND,MRF,Ghbargay (3),3316,Maruf,?????,Kandahar,??????,33
5932,5933,USAID AIDVillageView,MRF-101,,0,KND-MRF-101,0,Other,9,1917.725952,31.4139,67.2868,KND,MRF,Ghors Gara,3316,Maruf,?????,Kandahar,??????,33
5933,5934,USAID AIDVillageView,MRF-102,,0,KND-MRF-102,0,Other,9,2051.431885,31.4891,67.2412,KND,MRF,Ghundey (1),3316,Maruf,?????,Kandahar,??????,33
5934,5935,USAID AIDVillageView,MRF-103,,0,KND-MRF-103,0,Other,9,1707.3969730000001,31.6566,67.2258,KND,MRF,Ghundey (2),3316,Maruf,?????,Kandahar,??????,33
5935,5936,USAID AIDVillageView,MRF-104,,0,KND-MRF-104,0,Other,9,1961.899048,31.45,67.3348,KND,MRF,Gujan,3316,Maruf,?????,Kandahar,??????,33
5936,5937,USAID AIDVillageView,MRF-105,,0,KND-MRF-105,0,Other,9,1917.031982,31.3991,67.2607,KND,MRF,Gul Mohammad,3316,Maruf,?????,Kandahar,??????,33
5937,5938,USAID AIDVillageView,MRF-108,,0,KND-MRF-108,0,Other,9,1589.391968,31.5654,66.9909,KND,MRF,Hotak,3316,Maruf,?????,Kandahar,??????,33
5938,5939,USAID AIDVillageView,MRF-109,,0,KND-MRF-109,0,Other,9,1797.6040039999998,31.3946,67.1011,KND,MRF,Jahangir,3316,Maruf,?????,Kandahar,??????,33
5939,5940,USAID AIDVillageView,MRF-110,,0,KND-MRF-110,0,Other,9,1715.473022,31.624000000000002,67.2138,KND,MRF,Jamrod,3316,Maruf,?????,Kandahar,??????,33
5940,5941,USAID AIDVillageView,MRF-111,,0,KND-MRF-111,0,Other,9,1705.7719730000001,31.4436,67.0389,KND,MRF,Jumakhan Kalay,3316,Maruf,?????,Kandahar,??????,33
5941,5942,USAID AIDVillageView,MRF-112,,0,KND-MRF-112,0,Other,9,1725.41394,31.4589,66.9826,KND,MRF,Jumakhel,3316,Maruf,?????,Kandahar,??????,33
5942,5943,USAID AIDVillageView,MRF-113,,0,KND-MRF-113,0,Other,9,1574.130005,31.4542,66.918,KND,MRF,Kac (1),3316,Maruf,?????,Kandahar,??????,33
5943,5944,USAID AIDVillageView,MRF-114,,0,KND-MRF-114,0,Other,9,1644.099976,31.5958,67.109,KND,MRF,Kac (2),3316,Maruf,?????,Kandahar,??????,33
5944,5945,USAID AIDVillageView,MRF-115,,0,KND-MRF-115,0,Other,9,2015.287964,31.2339,67.1795,KND,MRF,Kalagey,3316,Maruf,?????,Kandahar,??????,33
5945,5946,USAID AIDVillageView,MRF-116,,0,KND-MRF-116,0,Other,9,1958.859009,31.47,67.0931,KND,MRF,Kalalay,3316,Maruf,?????,Kandahar,??????,33
5946,5947,USAID AIDVillageView,MRF-117,,0,KND-MRF-117,0,Other,9,1930.483032,31.4343,67.2164,KND,MRF,Kalan,3316,Maruf,?????,Kandahar,??????,33
5947,5948,USAID AIDVillageView,MRF-118,,0,KND-MRF-118,0,Other,9,2008.727051,31.3398,67.3153,KND,MRF,Kara,3316,Maruf,?????,Kandahar,??????,33
5948,5949,USAID AIDVillageView,MRF-119,,0,KND-MRF-119,0,Other,9,2121.1020510000003,31.3399,67.4024,KND,MRF,Kardaw,3316,Maruf,?????,Kandahar,??????,33
5949,5950,USAID AIDVillageView,MRF-120,,0,KND-MRF-120,0,Other,9,1559.541992,31.5185,66.9229,KND,MRF,Karez (1),3316,Maruf,?????,Kandahar,??????,33
5950,5951,USAID AIDVillageView,MRF-121,,0,KND-MRF-121,0,Other,9,1874.155029,31.586,67.2525,KND,MRF,Karez (2),3316,Maruf,?????,Kandahar,??????,33
5951,5952,USAID AIDVillageView,MRF-123,,0,KND-MRF-123,0,Other,9,1896.6660160000001,31.3821,67.1849,KND,MRF,Karezgay (1),3316,Maruf,?????,Kandahar,??????,33
5952,5953,USAID AIDVillageView,MRF-124,,0,KND-MRF-124,0,Other,9,2131.550049,31.3048,67.3694,KND,MRF,Karezgay (2),3316,Maruf,?????,Kandahar,??????,33
5953,5954,USAID AIDVillageView,MRF-125,,0,KND-MRF-125,0,Other,9,2161.386963,31.5107,67.2424,KND,MRF,Kargeh Zalay,3316,Maruf,?????,Kandahar,??????,33
5954,5955,USAID AIDVillageView,MRF-127,,0,KND-MRF-127,0,Other,9,1824.526978,31.5623,67.1433,KND,MRF,Karwaray,3316,Maruf,?????,Kandahar,??????,33
5955,5956,USAID AIDVillageView,MRF-128,,0,KND-MRF-128,0,Other,9,2156.9370120000003,31.3806,67.375,KND,MRF,Karyan,3316,Maruf,?????,Kandahar,??????,33
5956,5957,USAID AIDVillageView,MRF-131,,0,KND-MRF-131,0,Other,9,2237.8701170000004,31.6963,67.0011,KND,MRF,Kazhakay,3316,Maruf,?????,Kandahar,??????,33
5957,5958,USAID AIDVillageView,MRF-132,,0,KND-MRF-132,0,Other,9,1599.784058,31.4315,66.9473,KND,MRF,Kazhlich,3316,Maruf,?????,Kandahar,??????,33
5958,5959,USAID AIDVillageView,MRF-133,,0,KND-MRF-133,0,Other,9,2146.333984,31.2762,67.2998,KND,MRF,Kewa,3316,Maruf,?????,Kandahar,??????,33
5959,5960,USAID AIDVillageView,MRF-134,,0,KND-MRF-134,0,Other,9,1859.237061,31.4839,67.0248,KND,MRF,Khalazay,3316,Maruf,?????,Kandahar,??????,33
5960,5961,USAID AIDVillageView,MRF-136,,0,KND-MRF-136,0,Other,9,1947.9940190000002,31.4277,67.3217,KND,MRF,Khalila,3316,Maruf,?????,Kandahar,??????,33
5961,5962,USAID AIDVillageView,MRF-137,,0,KND-MRF-137,0,Other,9,1966.7430420000003,31.4501,67.307,KND,MRF,Khalu,3316,Maruf,?????,Kandahar,??????,33
5962,5963,USAID AIDVillageView,MRF-138,,0,KND-MRF-138,0,Other,9,1907.185059,31.3965,67.2632,KND,MRF,Khan China,3316,Maruf,?????,Kandahar,??????,33
5963,5964,USAID AIDVillageView,MRF-140,,0,KND-MRF-140,0,Other,9,1585.983032,31.561,66.9281,KND,MRF,Khederkhel,3316,Maruf,?????,Kandahar,??????,33
5964,5965,USAID AIDVillageView,MRF-142,,0,KND-MRF-142,0,Other,9,1621.8480220000001,31.4492,66.9477,KND,MRF,Khojelzay,3316,Maruf,?????,Kandahar,??????,33
5965,5966,USAID AIDVillageView,MRF-143,,0,KND-MRF-143,0,Other,9,2137.925049,31.2241,67.3743,KND,MRF,Khoshuy,3316,Maruf,?????,Kandahar,??????,33
5966,5967,USAID AIDVillageView,MRF-146,,0,KND-MRF-146,0,Other,9,2128.3510739999997,31.2862,67.2997,KND,MRF,Kotay,3316,Maruf,?????,Kandahar,??????,33
5967,5968,USAID AIDVillageView,MRF-147,,0,KND-MRF-147,0,Other,9,2040.28894,31.5037,67.2956,KND,MRF,Kshata Akara,3316,Maruf,?????,Kandahar,??????,33
5968,5969,USAID AIDVillageView,MRF-150,,0,KND-MRF-150,0,Other,9,2014.3680420000003,31.3751,67.3134,KND,MRF,Kshatta Ghbargay,3316,Maruf,?????,Kandahar,??????,33
5969,5970,USAID AIDVillageView,MRF-151,,0,KND-MRF-151,0,Other,9,1553.890015,31.568,66.9714,KND,MRF,Kshatta Mashozay,3316,Maruf,?????,Kandahar,??????,33
5970,5971,USAID AIDVillageView,MRF-152,,0,KND-MRF-152,0,Other,9,1599.77002,31.5805,66.9825,KND,MRF,Kshatta Shekhzay,3316,Maruf,?????,Kandahar,??????,33
5971,5972,USAID AIDVillageView,MRF-153,,0,KND-MRF-153,0,Other,9,2091.038086,31.2137,67.3543,KND,MRF,Kuchnay Digan,3316,Maruf,?????,Kandahar,??????,33
5972,5973,USAID AIDVillageView,MRF-154,,0,KND-MRF-154,0,Other,9,1983.1230469999998,31.3428,67.2693,KND,MRF,Kurchey,3316,Maruf,?????,Kandahar,??????,33
5973,5974,USAID AIDVillageView,MRF-155,,0,KND-MRF-155,0,Other,9,1932.777954,31.2503,67.0747,KND,MRF,Kwat (1),3316,Maruf,?????,Kandahar,??????,33
5974,5975,USAID AIDVillageView,MRF-156,,0,KND-MRF-156,0,Other,9,2013.972046,31.2727,67.0804,KND,MRF,Kwat (2),3316,Maruf,?????,Kandahar,??????,33
5975,5976,USAID AIDVillageView,MRF-157,,0,KND-MRF-157,0,Other,9,2099.427002,31.5307,67.2888,KND,MRF,Lakari Band Kalay,3316,Maruf,?????,Kandahar,??????,33
5976,5977,USAID AIDVillageView,MRF-158,,0,KND-MRF-158,0,Other,9,2393.61792,31.701,67.0468,KND,MRF,Lali Kalay,3316,Maruf,?????,Kandahar,??????,33
5977,5978,USAID AIDVillageView,MRF-159,,0,KND-MRF-159,0,Other,9,1973.004028,31.3442,67.10300000000001,KND,MRF,Landay (1),3316,Maruf,?????,Kandahar,??????,33
5978,5979,USAID AIDVillageView,MRF-160,,0,KND-MRF-160,0,Other,9,1948.9739989999998,31.3376,67.1816,KND,MRF,Landay (2),3316,Maruf,?????,Kandahar,??????,33
5979,5980,USAID AIDVillageView,MRF-161,,0,KND-MRF-161,0,Other,9,1860.9090579999997,31.5649,67.2001,KND,MRF,Landey,3316,Maruf,?????,Kandahar,??????,33
5980,5981,USAID AIDVillageView,MRF-162,,0,KND-MRF-162,0,Other,9,2202.3479,31.2538,67.3259,KND,MRF,Lawara Ghbrgay,3316,Maruf,?????,Kandahar,??????,33
5981,5982,USAID AIDVillageView,MRF-164,,0,KND-MRF-164,0,Other,9,2071.0271,31.5248,67.3384,KND,MRF,Loghey,3316,Maruf,?????,Kandahar,??????,33
5982,5983,USAID AIDVillageView,MRF-165,,0,KND-MRF-165,0,Other,9,2150.3979489999997,31.2251,67.3604,KND,MRF,Loy Digan,3316,Maruf,?????,Kandahar,??????,33
5983,5984,USAID AIDVillageView,MRF-166,,0,KND-MRF-166,0,Other,9,1661.375,31.6087,67.1043,KND,MRF,Loy Kalay,3316,Maruf,?????,Kandahar,??????,33
5984,5985,USAID AIDVillageView,MRF-168,,0,KND-MRF-168,0,Other,9,2026.005005,31.4067,67.3657,KND,MRF,Lukha,3316,Maruf,?????,Kandahar,??????,33
5985,5986,USAID AIDVillageView,MRF-169,,0,KND-MRF-169,0,Other,9,2025.31604,31.5248,67.1699,KND,MRF,Lwar Changazay,3316,Maruf,?????,Kandahar,??????,33
5986,5987,USAID AIDVillageView,MRF-170,,0,KND-MRF-170,0,Other,9,2058.165039,31.3759,67.3274,KND,MRF,Lwar Ghbargay,3316,Maruf,?????,Kandahar,??????,33
5987,5988,USAID AIDVillageView,MRF-171,,0,KND-MRF-171,0,Other,9,1991.494995,31.4738,67.3022,KND,MRF,Lwar Persh,3316,Maruf,?????,Kandahar,??????,33
5988,5989,USAID AIDVillageView,MRF-173,,0,KND-MRF-173,0,Other,9,1738.7430420000003,31.4213,67.0699,KND,MRF,Ma'sum Kala,3316,Maruf,?????,Kandahar,??????,33
5989,5990,USAID AIDVillageView,MRF-174,,0,KND-MRF-174,0,Other,9,1699.359985,31.6459,67.2205,KND,MRF,Madezay,3316,Maruf,?????,Kandahar,??????,33
5990,5991,USAID AIDVillageView,MRF-175,,0,KND-MRF-175,0,Other,9,1572.560059,31.5196,66.9332,KND,MRF,Malay,3316,Maruf,?????,Kandahar,??????,33
5991,5992,USAID AIDVillageView,MRF-176,,0,KND-MRF-176,0,Other,9,1902.462036,31.6746,67.132,KND,MRF,Mali Kalay,3316,Maruf,?????,Kandahar,??????,33
5992,5993,USAID AIDVillageView,MRF-177,,0,KND-MRF-177,0,Other,9,1815.08606,31.441999999999997,67.0899,KND,MRF,Malut Kalay,3316,Maruf,?????,Kandahar,??????,33
5993,5994,USAID AIDVillageView,MRF-178,,0,KND-MRF-178,0,Other,9,1962.383057,31.3793,66.9789,KND,MRF,Mamoti,3316,Maruf,?????,Kandahar,??????,33
5994,5995,USAID AIDVillageView,MRF-179,,0,KND-MRF-179,0,Other,9,2006.062988,31.4764,67.1221,KND,MRF,Mangul,3316,Maruf,?????,Kandahar,??????,33
5995,5996,USAID AIDVillageView,MRF-180,,0,KND-MRF-180,0,Other,9,2025.524048,31.29,67.2509,KND,MRF,Marghelan,3316,Maruf,?????,Kandahar,??????,33
5996,5997,USAID AIDVillageView,MRF-181,,0,KND-MRF-181,0,Other,9,1658.321045,31.531,66.9876,KND,MRF,Mashozay,3316,Maruf,?????,Kandahar,??????,33
5997,5998,USAID AIDVillageView,MRF-182,,0,KND-MRF-182,0,Other,9,2341.23291,31.7097,67.0025,KND,MRF,Masigi Kalay,3316,Maruf,?????,Kandahar,??????,33
5998,5999,USAID AIDVillageView,MRF-183,,0,KND-MRF-183,0,Other,9,1992.5529789999998,31.3366,67.2936,KND,MRF,Matak,3316,Maruf,?????,Kandahar,??????,33
5999,6000,USAID AIDVillageView,MRF-184,,0,KND-MRF-184,0,Other,9,1702.6180420000003,31.5383,67.0161,KND,MRF,Mehrabankhel,3316,Maruf,?????,Kandahar,??????,33
6000,6001,USAID AIDVillageView,MRF-186,,0,KND-MRF-186,0,Other,9,1622.852051,31.588,67.0775,KND,MRF,Mihrab,3316,Maruf,?????,Kandahar,??????,33
6001,6002,USAID AIDVillageView,MRF-187,,0,KND-MRF-187,0,Other,9,1793.5989989999998,31.6626,67.1847,KND,MRF,Mohammadzay,3316,Maruf,?????,Kandahar,??????,33
6002,6003,USAID AIDVillageView,MRF-188,,0,KND-MRF-188,0,Other,9,2129.373047,31.5434,67.3294,KND,MRF,Morid,3316,Maruf,?????,Kandahar,??????,33
6003,6004,USAID AIDVillageView,MRF-189,,0,KND-MRF-189,0,Other,9,1941.0770260000002,31.4229,67.3087,KND,MRF,Mulkay,3316,Maruf,?????,Kandahar,??????,33
6004,6005,USAID AIDVillageView,MRF-190,,0,KND-MRF-190,0,Other,9,2005.6350100000002,31.3391,67.06,KND,MRF,Mulla Marghozar Kalay,3316,Maruf,?????,Kandahar,??????,33
6005,6006,USAID AIDVillageView,MRF-191,,0,KND-MRF-191,0,Other,9,2090.89502,31.3092,67.3391,KND,MRF,Murghkay,3316,Maruf,?????,Kandahar,??????,33
6006,6007,USAID AIDVillageView,MRF-193,,0,KND-MRF-193,0,Other,9,1677.18396,31.6117,67.1137,KND,MRF,Myan Kalay,3316,Maruf,?????,Kandahar,??????,33
6007,6008,USAID AIDVillageView,MRF-195,,0,KND-MRF-195,0,Other,9,1913.359009,31.4829,67.0382,KND,MRF,Naray,3316,Maruf,?????,Kandahar,??????,33
6008,6009,USAID AIDVillageView,MRF-196,,0,KND-MRF-196,0,Other,9,1801.6340329999998,31.5186,67.02,KND,MRF,Nawroz Jay,3316,Maruf,?????,Kandahar,??????,33
6009,6010,USAID AIDVillageView,MRF-197,,0,KND-MRF-197,0,Other,9,1799.573975,31.6014,67.2436,KND,MRF,Nazarkhel,3316,Maruf,?????,Kandahar,??????,33
6010,6011,USAID AIDVillageView,MRF-198,,0,KND-MRF-198,0,Other,9,1896.524048,31.6159,67.2929,KND,MRF,Neko Wola,3316,Maruf,?????,Kandahar,??????,33
6011,6012,USAID AIDVillageView,MRF-200,,0,KND-MRF-200,0,Other,9,1523.459961,31.5158,66.8975,KND,MRF,Nokorzay,3316,Maruf,?????,Kandahar,??????,33
6012,6013,USAID AIDVillageView,MRF-201,,0,KND-MRF-201,0,Other,9,2070.410889,31.3515,67.3115,KND,MRF,Nusi,3316,Maruf,?????,Kandahar,??????,33
6013,6014,USAID AIDVillageView,MRF-202,,0,KND-MRF-202,0,Other,9,2013.6030269999999,31.476999999999997,67.1781,KND,MRF,Omar Kalay,3316,Maruf,?????,Kandahar,??????,33
6014,6015,USAID AIDVillageView,MRF-204,,0,KND-MRF-204,0,Other,9,1741.379028,31.5116,66.9836,KND,MRF,Pakhoray,3316,Maruf,?????,Kandahar,??????,33
6015,6016,USAID AIDVillageView,MRF-205,,0,KND-MRF-205,0,Other,9,1660.009033,31.614,67.1288,KND,MRF,Pan Kalay,3316,Maruf,?????,Kandahar,??????,33
6016,6017,USAID AIDVillageView,MRF-207,,0,KND-MRF-207,0,Other,9,1725.171021,31.5471,67.0352,KND,MRF,Pas Gaweda,3316,Maruf,?????,Kandahar,??????,33
6017,6018,USAID AIDVillageView,MRF-208,,0,KND-MRF-208,0,Other,9,1819.265015,31.5639,67.1286,KND,MRF,Patak,3316,Maruf,?????,Kandahar,??????,33
6018,6019,USAID AIDVillageView,MRF-209,,0,KND-MRF-209,0,Other,9,1618.07605,31.5668,67.0141,KND,MRF,Patekzay China,3316,Maruf,?????,Kandahar,??????,33
6019,6020,USAID AIDVillageView,MRF-210,,0,KND-MRF-210,0,Other,9,1743.64502,31.4383,67.0245,KND,MRF,Paturi,3316,Maruf,?????,Kandahar,??????,33
6020,6021,USAID AIDVillageView,MRF-211,,0,KND-MRF-211,0,Other,9,1992.814941,31.4266,67.3703,KND,MRF,Payenda Kalay,3316,Maruf,?????,Kandahar,??????,33
6021,6022,USAID AIDVillageView,MRF-212,,0,KND-MRF-212,0,Other,9,1990.682983,31.4667,67.3015,KND,MRF,Persh,3316,Maruf,?????,Kandahar,??????,33
6022,6023,USAID AIDVillageView,MRF-213,,0,KND-MRF-213,0,Other,9,1766.362061,31.3943,67.0843,KND,MRF,Peshin,3316,Maruf,?????,Kandahar,??????,33
6023,6024,USAID AIDVillageView,MRF-215,,0,KND-MRF-215,0,Other,9,2130.888916,31.3455,67.3967,KND,MRF,Piwur,3316,Maruf,?????,Kandahar,??????,33
6024,6025,USAID AIDVillageView,MRF-216,,0,KND-MRF-216,0,Other,9,2087.240967,31.5233,67.2988,KND,MRF,Porta Akara,3316,Maruf,?????,Kandahar,??????,33
6025,6026,USAID AIDVillageView,MRF-218,,0,KND-MRF-218,0,Other,9,2141.2971190000003,31.5166,67.2679,KND,MRF,Potakay,3316,Maruf,?????,Kandahar,??????,33
6026,6027,USAID AIDVillageView,MRF-220,,0,KND-MRF-220,0,Other,9,2162.8439940000003,31.2893,67.3312,KND,MRF,Putay,3316,Maruf,?????,Kandahar,??????,33
6027,6028,USAID AIDVillageView,MRF-221,,0,KND-MRF-221,0,Other,9,2109.5778809999997,31.3933,67.4074,KND,MRF,Putey,3316,Maruf,?????,Kandahar,??????,33
6028,6029,USAID AIDVillageView,MRF-223,,0,KND-MRF-223,0,Other,9,1791.5,31.6695,67.1894,KND,MRF,Qarya-i-sayedan,3316,Maruf,?????,Kandahar,??????,33
6029,6030,USAID AIDVillageView,MRF-224,,0,KND-MRF-224,0,Other,9,1790.109985,31.6727,67.1956,KND,MRF,Qarya-i-shela,3316,Maruf,?????,Kandahar,??????,33
6030,6031,USAID AIDVillageView,MRF-225,,0,KND-MRF-225,0,Other,9,1905.4630129999998,31.3531,67.2383,KND,MRF,Regi,3316,Maruf,?????,Kandahar,??????,33
6031,6032,USAID AIDVillageView,MRF-226,,0,KND-MRF-226,0,Other,9,2060.246094,31.3253,67.3248,KND,MRF,Saba,3316,Maruf,?????,Kandahar,??????,33
6032,6033,USAID AIDVillageView,MRF-227,,0,KND-MRF-227,0,Other,9,1874.984009,31.3776,67.1964,KND,MRF,Sadeka,3316,Maruf,?????,Kandahar,??????,33
6033,6034,USAID AIDVillageView,MRF-228,,0,KND-MRF-228,0,Other,9,1878.055054,31.4557,67.1274,KND,MRF,Safar Mohammad Kalay,3316,Maruf,?????,Kandahar,??????,33
6034,6035,USAID AIDVillageView,MRF-230,,0,KND-MRF-230,0,Other,9,1572.671021,31.5813,67.0096,KND,MRF,Salam Kalay,3316,Maruf,?????,Kandahar,??????,33
6035,6036,USAID AIDVillageView,MRF-231,,0,KND-MRF-231,0,Other,9,2201.013916,31.2794,67.3969,KND,MRF,Salamat,3316,Maruf,?????,Kandahar,??????,33
6036,6037,USAID AIDVillageView,MRF-232,,0,KND-MRF-232,0,Other,9,2136.826904,31.313000000000002,67.4033,KND,MRF,Salamat Kala,3316,Maruf,?????,Kandahar,??????,33
6037,6038,USAID AIDVillageView,MRF-233,,0,KND-MRF-233,0,Other,9,2023.239014,31.4067,67.2117,KND,MRF,Samu,3316,Maruf,?????,Kandahar,??????,33
6038,6039,USAID AIDVillageView,MRF-234,,0,KND-MRF-234,0,Other,9,1792.2950440000002,31.3969,67.1126,KND,MRF,Sandarzay,3316,Maruf,?????,Kandahar,??????,33
6039,6040,USAID AIDVillageView,MRF-235,,0,KND-MRF-235,0,Other,9,2117.343018,31.3864,67.3897,KND,MRF,Sanjley,3316,Maruf,?????,Kandahar,??????,33
6040,6041,USAID AIDVillageView,MRF-236,,0,KND-MRF-236,0,Other,9,1809.5610350000002,31.3917,67.1359,KND,MRF,Saracha,3316,Maruf,?????,Kandahar,??????,33
6041,6042,USAID AIDVillageView,MRF-237,,0,KND-MRF-237,0,Other,9,1872.189941,31.3719,67.2198,KND,MRF,Sargheray,3316,Maruf,?????,Kandahar,??????,33
6042,6043,USAID AIDVillageView,MRF-238,,0,KND-MRF-238,0,Other,9,1698.1429440000002,31.6056,67.1678,KND,MRF,Sawganey,3316,Maruf,?????,Kandahar,??????,33
6043,6044,USAID AIDVillageView,MRF-239,,0,KND-MRF-239,0,Other,9,1550.659058,31.4692,66.9025,KND,MRF,Sayed'omar Kalay,3316,Maruf,?????,Kandahar,??????,33
6044,6045,USAID AIDVillageView,MRF-240,,0,KND-MRF-240,0,Other,9,2062.045898,31.656999999999996,67.053,KND,MRF,Sayedan,3316,Maruf,?????,Kandahar,??????,33
6045,6046,USAID AIDVillageView,MRF-241,,0,KND-MRF-241,0,Other,9,1835.5250239999998,31.5657,67.1849,KND,MRF,Seh Palzay,3316,Maruf,?????,Kandahar,??????,33
6046,6047,USAID AIDVillageView,MRF-242,,0,KND-MRF-242,0,Other,9,1677.2889400000001,31.6103,67.1558,KND,MRF,Sekandrzay,3316,Maruf,?????,Kandahar,??????,33
6047,6048,USAID AIDVillageView,MRF-243,,0,KND-MRF-243,0,Other,9,1972.91394,31.3456,67.072,KND,MRF,Senjelay Kalay,3316,Maruf,?????,Kandahar,??????,33
6048,6049,USAID AIDVillageView,MRF-244,,0,KND-MRF-244,0,Other,9,2150.025879,31.375,67.3522,KND,MRF,Sera (1),3316,Maruf,?????,Kandahar,??????,33
6049,6050,USAID AIDVillageView,MRF-245,,0,KND-MRF-245,0,Other,9,1914.983032,31.4699,67.1082,KND,MRF,Sera (2),3316,Maruf,?????,Kandahar,??????,33
6050,6051,USAID AIDVillageView,MRF-246,,0,KND-MRF-246,0,Other,9,2128.0271,31.5142,67.2688,KND,MRF,Serkay Ghozhay,3316,Maruf,?????,Kandahar,??????,33
6051,6052,USAID AIDVillageView,MRF-247,,0,KND-MRF-247,0,Other,9,1915.70105,31.4104,67.2873,KND,MRF,Serkay Kace,3316,Maruf,?????,Kandahar,??????,33
6052,6053,USAID AIDVillageView,MRF-248,,0,KND-MRF-248,0,Other,9,1586.0429689999999,31.559,66.9205,KND,MRF,Shabyan,3316,Maruf,?????,Kandahar,??????,33
6053,6054,USAID AIDVillageView,MRF-250,,0,KND-MRF-250,0,Other,9,1963.432983,31.4728,67.1506,KND,MRF,Shah Mohammad Kalay,3316,Maruf,?????,Kandahar,??????,33
6054,6055,USAID AIDVillageView,MRF-251,,0,KND-MRF-251,0,Other,9,2010.512939,31.5402,67.1335,KND,MRF,Shah Tangay,3316,Maruf,?????,Kandahar,??????,33
6055,6056,USAID AIDVillageView,MRF-252,,0,KND-MRF-252,0,Other,9,1954.802002,31.4327,67.2805,KND,MRF,Shahan Karez,3316,Maruf,?????,Kandahar,??????,33
6056,6057,USAID AIDVillageView,MRF-253,,0,KND-MRF-253,0,Other,9,1720.2600100000002,31.6618,67.2108,KND,MRF,Shahyarkhel,3316,Maruf,?????,Kandahar,??????,33
6057,6058,USAID AIDVillageView,MRF-254,,0,KND-MRF-254,0,Other,9,1748.016968,31.4327,67.0624,KND,MRF,Sharan (2),3316,Maruf,?????,Kandahar,??????,33
6058,6059,USAID AIDVillageView,MRF-256,,0,KND-MRF-256,0,Other,9,2043.218018,31.2826,67.0877,KND,MRF,Sharmina,3316,Maruf,?????,Kandahar,??????,33
6059,6060,USAID AIDVillageView,MRF-257,,0,KND-MRF-257,0,Other,9,2051.61792,31.2864,67.2596,KND,MRF,Sheganay,3316,Maruf,?????,Kandahar,??????,33
6060,6061,USAID AIDVillageView,MRF-258,,0,KND-MRF-258,0,Other,9,1754.344971,31.4379,67.0438,KND,MRF,Shehuzay,3316,Maruf,?????,Kandahar,??????,33
6061,6062,USAID AIDVillageView,MRF-259,,0,KND-MRF-259,0,Other,9,1728.928955,31.6142,67.2002,KND,MRF,Shekhayena,3316,Maruf,?????,Kandahar,??????,33
6062,6063,USAID AIDVillageView,MRF-260,,0,KND-MRF-260,0,Other,9,1892.657959,31.4876,67.0321,KND,MRF,Shekhgay,3316,Maruf,?????,Kandahar,??????,33
6063,6064,USAID AIDVillageView,MRF-261,,0,KND-MRF-261,0,Other,9,1786.640991,31.6664,67.1882,KND,MRF,Shekhzay,3316,Maruf,?????,Kandahar,??????,33
6064,6065,USAID AIDVillageView,MRF-262,,0,KND-MRF-262,0,Other,9,1557.078979,31.4821,66.9002,KND,MRF,Shela,3316,Maruf,?????,Kandahar,??????,33
6065,6066,USAID AIDVillageView,MRF-264,,0,KND-MRF-264,0,Other,9,1623.4139400000001,31.5558,66.9982,KND,MRF,Sher Ghashlunay (1),3316,Maruf,?????,Kandahar,??????,33
6066,6067,USAID AIDVillageView,MRF-265,,0,KND-MRF-265,0,Other,9,1627.265991,31.5555,67.0012,KND,MRF,Sher Ghashlunay (2),3316,Maruf,?????,Kandahar,??????,33
6067,6068,USAID AIDVillageView,MRF-266,,0,KND-MRF-266,0,Other,9,2129.514893,31.2993,67.3471,KND,MRF,Sher Ghesh,3316,Maruf,?????,Kandahar,??????,33
6068,6069,USAID AIDVillageView,MRF-267,,0,KND-MRF-267,0,Other,9,1971.272949,31.4439,67.232,KND,MRF,Sheraw,3316,Maruf,?????,Kandahar,??????,33
6069,6070,USAID AIDVillageView,MRF-268,,0,KND-MRF-268,0,Other,9,2089.001953,31.6547,67.0442,KND,MRF,Shin Kac,3316,Maruf,?????,Kandahar,??????,33
6070,6071,USAID AIDVillageView,MRF-269,,0,KND-MRF-269,0,Other,9,1799.472046,31.3974,67.0916,KND,MRF,Shinkhel,3316,Maruf,?????,Kandahar,??????,33
6071,6072,USAID AIDVillageView,MRF-270,,0,KND-MRF-270,0,Other,9,1800.947998,31.4711,67.0118,KND,MRF,Slemanzay (1),3316,Maruf,?????,Kandahar,??????,33
6072,6073,USAID AIDVillageView,MRF-271,,0,KND-MRF-271,0,Other,9,1765.0340579999997,31.4088,67.0741,KND,MRF,Slemanzay (2),3316,Maruf,?????,Kandahar,??????,33
6073,6074,USAID AIDVillageView,MRF-272,,0,KND-MRF-272,0,Other,9,1941.977051,31.5365,67.1896,KND,MRF,Somochak,3316,Maruf,?????,Kandahar,??????,33
6074,6075,USAID AIDVillageView,MRF-273,,0,KND-MRF-273,0,Other,9,1547.3029789999998,31.5323,66.9342,KND,MRF,Spingay,3316,Maruf,?????,Kandahar,??????,33
6075,6076,USAID AIDVillageView,MRF-274,,0,KND-MRF-274,0,Other,9,1950.932983,31.4155,67.3197,KND,MRF,Sra Cala,3316,Maruf,?????,Kandahar,??????,33
6076,6077,USAID AIDVillageView,MRF-275,,0,KND-MRF-275,0,Other,9,1940.652954,31.3387,67.1411,KND,MRF,Sreh,3316,Maruf,?????,Kandahar,??????,33
6077,6078,USAID AIDVillageView,MRF-276,,0,KND-MRF-276,0,Other,9,1982.3809809999998,31.3258,67.1162,KND,MRF,Sreh Kalay,3316,Maruf,?????,Kandahar,??????,33
6078,6079,USAID AIDVillageView,MRF-277,,0,KND-MRF-277,0,Other,9,2101.844971,31.2646,67.2242,KND,MRF,Sreh Tumbel(angezey),3316,Maruf,?????,Kandahar,??????,33
6079,6080,USAID AIDVillageView,MRF-278,,0,KND-MRF-278,0,Other,9,1868.4389649999998,31.3645,67.1856,KND,MRF,Sup,3316,Maruf,?????,Kandahar,??????,33
6080,6081,USAID AIDVillageView,MRF-279,,0,KND-MRF-279,0,Other,9,2269.100098,31.6869,67.0603,KND,MRF,Sur Kac,3316,Maruf,?????,Kandahar,??????,33
6081,6082,USAID AIDVillageView,MRF-280,,0,KND-MRF-280,0,Other,9,2106.405029,31.3102,67.3625,KND,MRF,Sureghzay,3316,Maruf,?????,Kandahar,??????,33
6082,6083,USAID AIDVillageView,MRF-281,,0,KND-MRF-281,0,Other,9,1781.390991,31.5816,67.2101,KND,MRF,Surwam,3316,Maruf,?????,Kandahar,??????,33
6083,6084,USAID AIDVillageView,MRF-282,,0,KND-MRF-282,0,Other,9,1761.662964,31.6183,67.2428,KND,MRF,Tabey,3316,Maruf,?????,Kandahar,??????,33
6084,6085,USAID AIDVillageView,MRF-283,,0,KND-MRF-283,0,Other,9,1615.3120119999999,31.5952,67.0688,KND,MRF,Takaray,3316,Maruf,?????,Kandahar,??????,33
6085,6086,USAID AIDVillageView,MRF-284,,0,KND-MRF-284,0,Other,9,1680.5100100000002,31.5924,66.9921,KND,MRF,Takha'i,3316,Maruf,?????,Kandahar,??????,33
6086,6087,USAID AIDVillageView,MRF-285,,0,KND-MRF-285,0,Other,9,1606.100952,31.4428,66.9184,KND,MRF,Takhum,3316,Maruf,?????,Kandahar,??????,33
6087,6088,USAID AIDVillageView,MRF-286,,0,KND-MRF-286,0,Other,9,1593.984985,31.4618,66.90100000000001,KND,MRF,Tan Karez,3316,Maruf,?????,Kandahar,??????,33
6088,6089,USAID AIDVillageView,MRF-287,,0,KND-MRF-287,0,Other,9,1850.6590579999997,31.3939,66.9597,KND,MRF,Tandah,3316,Maruf,?????,Kandahar,??????,33
6089,6090,USAID AIDVillageView,MRF-288,,0,KND-MRF-288,0,Other,9,1834.230957,31.3764,67.1565,KND,MRF,Tangay,3316,Maruf,?????,Kandahar,??????,33
6090,6091,USAID AIDVillageView,MRF-289,,0,KND-MRF-289,0,Other,9,2076.819092,31.2881,67.2824,KND,MRF,Teleray (1),3316,Maruf,?????,Kandahar,??????,33
6091,6092,USAID AIDVillageView,MRF-290,,0,KND-MRF-290,0,Other,9,1827.8570559999998,31.5946,67.2507,KND,MRF,Teleray (2),3316,Maruf,?????,Kandahar,??????,33
6092,6093,USAID AIDVillageView,MRF-291,,0,KND-MRF-291,0,Other,9,1995.1540530000002,31.4501,67.2721,KND,MRF,Teliray,3316,Maruf,?????,Kandahar,??????,33
6093,6094,USAID AIDVillageView,MRF-292,,0,KND-MRF-292,0,Other,9,2097.405029,31.3135,67.3518,KND,MRF,Terkha,3316,Maruf,?????,Kandahar,??????,33
6094,6095,USAID AIDVillageView,MRF-293,,0,KND-MRF-293,0,Other,9,1781.144043,31.6011,67.2146,KND,MRF,Terwa,3316,Maruf,?????,Kandahar,??????,33
6095,6096,USAID AIDVillageView,MRF-294,,0,KND-MRF-294,0,Other,9,1671.714966,31.5092,66.9543,KND,MRF,Tor Kan (1),3316,Maruf,?????,Kandahar,??????,33
6096,6097,USAID AIDVillageView,MRF-295,,0,KND-MRF-295,0,Other,9,1724.551025,31.5108,66.9754,KND,MRF,Tor Kan (2),3316,Maruf,?????,Kandahar,??????,33
6097,6098,USAID AIDVillageView,MRF-296,,0,KND-MRF-296,0,Other,9,1712.560059,31.4426,67.0442,KND,MRF,Torkhankhel Kalay,3316,Maruf,?????,Kandahar,??????,33
6098,6099,USAID AIDVillageView,MRF-297,,0,KND-MRF-297,0,Other,9,1929.43103,31.5597,67.2475,KND,MRF,Torwam,3316,Maruf,?????,Kandahar,??????,33
6099,6100,USAID AIDVillageView,MRF-298,,0,KND-MRF-298,0,Other,9,1853.5369870000002,31.3691,67.1852,KND,MRF,Tughay,3316,Maruf,?????,Kandahar,??????,33
6100,6101,USAID AIDVillageView,MRF-299,,0,KND-MRF-299,0,Other,9,2081.434082,31.3215,67.3414,KND,MRF,Wal,3316,Maruf,?????,Kandahar,??????,33
6101,6102,USAID AIDVillageView,MRF-300,,0,KND-MRF-300,0,Other,9,1865.9940190000002,31.2385,67.0266,KND,MRF,Wam,3316,Maruf,?????,Kandahar,??????,33
6102,6103,USAID AIDVillageView,MRF-301,,0,KND-MRF-301,0,Other,9,1836.5959469999998,31.5999,67.2567,KND,MRF,Wastalay,3316,Maruf,?????,Kandahar,??????,33
6103,6104,USAID AIDVillageView,MRF-303,,0,KND-MRF-303,0,Other,9,1993.2559809999998,31.4753,67.3556,KND,MRF,Wuch Khwar,3316,Maruf,?????,Kandahar,??????,33
6104,6105,USAID AIDVillageView,MRF-304,,0,KND-MRF-304,0,Other,9,1945.483032,31.4252,67.2344,KND,MRF,Wulgay (1),3316,Maruf,?????,Kandahar,??????,33
6105,6106,USAID AIDVillageView,MRF-306,,0,KND-MRF-306,0,Other,9,1780.838989,31.5689,67.1294,KND,MRF,Wulgay (3),3316,Maruf,?????,Kandahar,??????,33
6106,6107,USAID AIDVillageView,MRF-308,,0,KND-MRF-308,0,Other,9,2102.9689940000003,31.2836,67.277,KND,MRF,Wulgay (5),3316,Maruf,?????,Kandahar,??????,33
6107,6108,USAID AIDVillageView,MRF-309,,0,KND-MRF-309,0,Other,9,2087.741943,31.5338,67.1415,KND,MRF,Wustelay,3316,Maruf,?????,Kandahar,??????,33
6108,6109,USAID AIDVillageView,MRF-310,,0,KND-MRF-310,0,Other,9,1667.42395,31.4397,66.9659,KND,MRF,Yolar,3316,Maruf,?????,Kandahar,??????,33
6109,6110,USAID AIDVillageView,MRF-312,,0,KND-MRF-312,0,Other,9,2166.801025,31.2855,67.3627,KND,MRF,Zara Ghbarga (1),3316,Maruf,?????,Kandahar,??????,33
6110,6111,USAID AIDVillageView,MRF-314,,0,KND-MRF-314,0,Other,9,1772.171997,31.5541,67.0789,KND,MRF,Zawerkan,3316,Maruf,?????,Kandahar,??????,33
6111,6112,USAID AIDVillageView,MRF-315,,0,KND-MRF-315,0,Other,9,1847.0,31.5718,67.219,KND,MRF,Zelargak,3316,Maruf,?????,Kandahar,??????,33
6112,6113,USAID AIDVillageView,MRF-318,,0,KND-MRF-318,0,Other,9,1603.842041,31.4378,66.9358,KND,MRF,Zorwam,3316,Maruf,?????,Kandahar,??????,33
6113,6114,CSO AIMS Villages (ACSOR),ARN-070,,0,KND-ARN-070,0,Other,9,1649.1130369999998,31.7475,66.9381,KND,ARN,Jumakhan Kalay (2),3312,Arghestan,???????,Kandahar,??????,33
6114,6115,USAID AIDVillageView,ARN-216,,0,KND-ARN-216,0,Other,9,1668.8120119999999,31.7612,66.952,KND,ARN,Khodadadkhel Kalay,3312,Arghestan,???????,Kandahar,??????,33
6115,6116,CSO AIMS Villages (ACSOR),ARN-101,,0,KND-ARN-101,0,Other,9,1704.7239989999998,31.73459,66.8737,KND,ARN,Mulla Mohammad Amin Kalay,3312,Arghestan,???????,Kandahar,??????,33
6116,6117,CSO AIMS Villages (ACSOR),ARN-147,,0,KND-ARN-147,0,Other,9,1804.2280269999999,31.747790000000002,66.90389,KND,ARN,Sayfullah Kalay,3312,Arghestan,???????,Kandahar,??????,33
6123,6124,Yale POP_MASTER,MRF-326,,0,KND-MRF-326,894,Other,9,1750.499023,31.6482,67.1784,KND,MRF,Khugyanay,3316,Maruf,?????,Kandahar,??????,33
6124,6125,Yale POP_MASTER,MRF-327,District,1,KND-MRF-327,35451,Other,9,1738.4010010000002,31.6445,67.1732,KND,MRF,Maruf,3316,Maruf,?????,Kandahar,??????,33
6125,6126,Yale POP_MASTER,MRF-328,,0,KND-MRF-328,894,Other,9,1746.956055,31.5847,66.9217,KND,MRF,Shemek,3316,Maruf,?????,Kandahar,??????,33
7251,7252,CSO AIMS Villages (ACSOR),SWK-252,,0,KND-SWK-252,0,Pashto,2,1342.0620119999999,32.065490000000004,65.8905,KND,SWK,Tangay (1),3306,Shahwalikot,??? ??? ???,Kandahar,??????,33
7252,7253,CSO AIMS Villages (ACSOR),AG1-069,,0,KND-AG1-069,0,Pashto,2,1103.063965,31.7765,65.66639,KND,AG1,Azizullahkhan Kariz,3302,Arghandab,???????,Kandahar,??????,33
7253,7254,CSO AIMS Villages (ACSOR),SWK-127,,0,KND-SWK-127,0,Pashto,2,1391.93103,31.918290000000002,65.6801,KND,SWK,Ghafur Kalay,3306,Shahwalikot,??? ??? ???,Kandahar,??????,33
7254,7255,CSO AIMS Villages (ACSOR),SWK-240,,0,KND-SWK-240,0,Pashto,2,1320.355957,31.924390000000002,65.70409000000001,KND,SWK,Shkatta Chakaw,3306,Shahwalikot,??? ??? ???,Kandahar,??????,33
7255,7256,CSO AIMS Villages (ACSOR),SWK-218,,0,KND-SWK-218,0,Pashto,2,1087.499023,31.8107,65.77379,KND,SWK,Payo Kalay,3306,Shahwalikot,??? ??? ???,Kandahar,??????,33
7256,7257,CSO AIMS Villages (ACSOR),SWK-199,,0,KND-SWK-199,0,Pashto,2,1246.661011,31.9139,65.7447,KND,SWK,Myanzkal,3306,Shahwalikot,??? ??? ???,Kandahar,??????,33
7257,7258,CSO AIMS Villages (ACSOR),SWK-075,,0,KND-SWK-075,0,Pashto,2,1075.4880369999998,31.80129,65.7652,KND,SWK,Akhtar Mohammad Khan Kalay,3306,Shahwalikot,??? ??? ???,Kandahar,??????,33
7258,7259,CSO AIMS Villages (ACSOR),SWK-261,,0,KND-SWK-261,0,Pashto,2,1070.5860599999999,31.7974,65.81779,KND,SWK,Tughay,3306,Shahwalikot,??? ??? ???,Kandahar,??????,33
7259,7260,USAID AIDVillageView,SWK-020,,0,KND-SWK-020,0,Pashto,2,1157.220947,31.8368,65.7546,KND,SWK,Kariz Qal'a,3306,Shahwalikot,??? ??? ???,Kandahar,??????,33
7260,7261,CSO AIMS Villages (ACSOR),SWK-249,,0,KND-SWK-249,0,Pashto,2,1082.012939,31.820490000000003,65.84609,KND,SWK,Takatu,3306,Shahwalikot,??? ??? ???,Kandahar,??????,33
7261,7262,CSO AIMS Villages (ACSOR),SWK-106,,0,KND-SWK-106,0,Pashto,2,1068.19104,31.786509999999996,65.78876,KND,SWK,Darbazan,3306,Shahwalikot,??? ??? ???,Kandahar,??????,33
7262,7263,CSO AIMS Villages (ACSOR),SWK-180,,0,KND-SWK-180,0,Pashto,2,1081.942993,31.8,65.7888,KND,SWK,Malizo Kariz,3306,Shahwalikot,??? ??? ???,Kandahar,??????,33
7263,7264,CSO AIMS Villages (ACSOR),SWK-212,,0,KND-SWK-212,0,Pashto,2,1047.452026,31.78159,65.7568,KND,SWK,Pachah,3306,Shahwalikot,??? ??? ???,Kandahar,??????,33
7264,7265,CSO AIMS Villages (ACSOR),SWK-196,,0,KND-SWK-196,0,Pashto,2,1170.802002,31.86729,65.8111,KND,SWK,Mundey Kariz,3306,Shahwalikot,??? ??? ???,Kandahar,??????,33
7265,7266,CSO AIMS Villages (ACSOR),SWK-071,,0,KND-SWK-071,0,Pashto,2,1066.389038,31.79549,65.76619000000001,KND,SWK,Abdul Samad Kalay,3306,Shahwalikot,??? ??? ???,Kandahar,??????,33
7266,7267,CSO AIMS Villages (ACSOR),SWK-141,,0,KND-SWK-141,0,Pashto,2,1106.597046,31.817590000000003,65.8348,KND,SWK,Jaman,3306,Shahwalikot,??? ??? ???,Kandahar,??????,33
7267,7268,CSO AIMS Villages (ACSOR),SWK-073,,0,KND-SWK-073,0,Pashto,2,1231.7230220000001,31.9025,65.75819,KND,SWK,Acakzo Soznay,3306,Shahwalikot,??? ??? ???,Kandahar,??????,33
7268,7269,CSO AIMS Villages (ACSOR),SWK-186,,0,KND-SWK-186,0,Pashto,2,1053.784058,31.78609,65.75476,KND,SWK,Mir Ahmad Kalay,3306,Shahwalikot,??? ??? ???,Kandahar,??????,33
7269,7270,CSO AIMS Villages (ACSOR),SWK-210,,0,KND-SWK-210,0,Pashto,2,1136.2709960000002,31.873490000000004,65.85419,KND,SWK,Nur Mohammad Khan Shorab,3306,Shahwalikot,??? ??? ???,Kandahar,??????,33
7270,7271,CSO AIMS Villages (ACSOR),SWK-183,,0,KND-SWK-183,0,Pashto,2,1065.734985,31.8034,65.81329000000001,KND,SWK,Mardanza'i,3306,Shahwalikot,??? ??? ???,Kandahar,??????,33
7271,7272,CSO AIMS Villages (ACSOR),SWK-139,,0,KND-SWK-139,0,Pashto,2,1063.237061,31.7917,65.76369,KND,SWK,Hosayn Kalay,3306,Shahwalikot,??? ??? ???,Kandahar,??????,33
7272,7273,CSO AIMS Villages (ACSOR),SWK-227,,0,KND-SWK-227,0,Pashto,2,1066.609985,31.798090000000002,65.76709,KND,SWK,Sayed Kalay,3306,Shahwalikot,??? ??? ???,Kandahar,??????,33
7273,7274,CSO AIMS Villages (ACSOR),SWK-187,,0,KND-SWK-187,0,Pashto,2,1298.753052,31.9063,65.81219,KND,SWK,Miragha,3306,Shahwalikot,??? ??? ???,Kandahar,??????,33
7274,7275,CSO AIMS Villages (ACSOR),SWK-112,,0,KND-SWK-112,0,Pashto,2,1061.7230220000001,31.795659999999998,65.79915,KND,SWK,Dehe Buchi,3306,Shahwalikot,??? ??? ???,Kandahar,??????,33
7275,7276,CSO AIMS Villages (ACSOR),SWK-130,,0,KND-SWK-130,0,Pashto,2,1211.13501,31.88999,65.8067,KND,SWK,Habibullah Kalay,3306,Shahwalikot,??? ??? ???,Kandahar,??????,33
7276,7277,USAID AIDVillageView,SWK-001,,0,KND-SWK-001,0,Pashto,2,1423.290039,32.0224,65.7942,KND,SWK,Acekzi,3306,Shahwalikot,??? ??? ???,Kandahar,??????,33
7277,7278,CSO AIMS Villages (ACSOR),SWK-104,,0,KND-SWK-104,0,Pashto,2,1098.406982,31.823390000000003,65.7748,KND,SWK,Damana,3306,Shahwalikot,??? ??? ???,Kandahar,??????,33
7278,7279,CSO AIMS Villages (ACSOR),SWK-069,,0,KND-SWK-069,0,Pashto,2,1100.244019,31.8422,65.85169,KND,SWK,Abdul Ahadkhan Kariz,3306,Shahwalikot,??? ??? ???,Kandahar,??????,33
7279,7280,CSO AIMS Villages (ACSOR),SWK-265,,0,KND-SWK-265,0,Pashto,2,1231.671021,31.951890000000002,65.85599,KND,SWK,Zanda,3306,Shahwalikot,??? ??? ???,Kandahar,??????,33
7280,7281,CSO AIMS Villages (ACSOR),SWK-079,,0,KND-SWK-079,0,Pashto,2,1342.421021,32.005390000000006,65.83489,KND,SWK,Almesh,3306,Shahwalikot,??? ??? ???,Kandahar,??????,33
7281,7282,CSO AIMS Villages (ACSOR),SWK-100,,0,KND-SWK-100,0,Pashto,2,1282.040039,31.9835,65.85749,KND,SWK,Chughak,3306,Shahwalikot,??? ??? ???,Kandahar,??????,33
7282,7283,CSO AIMS Villages (ACSOR),SWK-253,,0,KND-SWK-253,0,Pashto,2,1206.3129880000001,31.882590000000004,65.77709,KND,SWK,Tangay (2),3306,Shahwalikot,??? ??? ???,Kandahar,??????,33
7283,7284,CSO AIMS Villages (ACSOR),SWK-077,,0,KND-SWK-077,0,Pashto,2,1435.7230220000001,32.033429999999996,65.7837,KND,SWK,Alekozi,3306,Shahwalikot,??? ??? ???,Kandahar,??????,33
7284,7285,CSO AIMS Villages (ACSOR),SWK-096,,0,KND-SWK-096,0,Pashto,2,1379.030029,31.933000000000003,65.67739,KND,SWK,Chakaw (2),3306,Shahwalikot,??? ??? ???,Kandahar,??????,33
7285,7286,CSO AIMS Villages (ACSOR),SWK-242,,0,KND-SWK-242,0,Pashto,2,1308.339966,31.9418,65.8045,KND,SWK,Shorabgay,3306,Shahwalikot,??? ??? ???,Kandahar,??????,33
7286,7287,CSO AIMS Villages (ACSOR),AG1-077,,0,KND-AG1-077,930,Pashto,2,1041.93103,31.75058,65.73524,KND,AG1,Sayidan Kalacha (2),3302,Arghandab,???????,Kandahar,??????,33
7287,7288,CSO AIMS Villages (ACSOR),SWK-217,,0,KND-SWK-217,0,Pashto,2,1168.411987,31.943990000000003,66.01059000000001,KND,SWK,Payaw Kalay,3306,Shahwalikot,??? ??? ???,Kandahar,??????,33
7288,7289,CSO AIMS Villages (ACSOR),SWK-200,,0,KND-SWK-200,0,Pashto,2,1152.035034,31.961190000000002,66.0393,KND,SWK,Najmuddin,3306,Shahwalikot,??? ??? ???,Kandahar,??????,33
7289,7290,CSO AIMS Villages (ACSOR),SWK-246,,0,KND-SWK-246,0,Pashto,2,1156.430054,31.9518,66.02809,KND,SWK,Syahsang,3306,Shahwalikot,??? ??? ???,Kandahar,??????,33
7290,7291,CSO AIMS Villages (ACSOR),SWK-225,,0,KND-SWK-225,0,Pashto,2,1145.541992,31.94163,66.00663,KND,SWK,Sarwarjan Kalay,3306,Shahwalikot,??? ??? ???,Kandahar,??????,33
7291,7292,CSO AIMS Villages (ACSOR),SWK-128,,0,KND-SWK-128,0,Pashto,2,1144.786987,31.94649,66.03339,KND,SWK,Ghashin,3306,Shahwalikot,??? ??? ???,Kandahar,??????,33
7292,7293,CSO AIMS Villages (ACSOR),SWK-098,,0,KND-SWK-098,0,Pashto,2,1167.920044,31.953390000000002,65.9765,KND,SWK,Chaman,3306,Shahwalikot,??? ??? ???,Kandahar,??????,33
7293,7294,CSO AIMS Villages (ACSOR),SWK-114,,0,KND-SWK-114,0,Pashto,2,1198.041992,31.965490000000003,65.9622,KND,SWK,Delak,3306,Shahwalikot,??? ??? ???,Kandahar,??????,33
7294,7295,CSO AIMS Villages (ACSOR),SWK-158,,0,KND-SWK-158,0,Pashto,2,1151.024048,31.922990000000002,65.98409000000001,KND,SWK,Khvajeh Za'i,3306,Shahwalikot,??? ??? ???,Kandahar,??????,33
7295,7296,CSO AIMS Villages (ACSOR),SWK-083,,0,KND-SWK-083,0,Pashto,2,1139.246948,31.85189,65.87669,KND,SWK,Arghandab Camp,3306,Shahwalikot,??? ??? ???,Kandahar,??????,33
7296,7297,CSO AIMS Villages (ACSOR),SWK-161,,0,KND-SWK-161,0,Pashto,2,1113.967041,31.8446,65.88439,KND,SWK,Kim,3306,Shahwalikot,??? ??? ???,Kandahar,??????,33
7297,7298,CSO AIMS Villages (ACSOR),SWK-248,,0,KND-SWK-248,0,Pashto,2,1149.9370119999999,31.91299,65.94849,KND,SWK,Tahsildar,3306,Shahwalikot,??? ??? ???,Kandahar,??????,33
7298,7299,CSO AIMS Villages (ACSOR),SWK-229,,0,KND-SWK-229,0,Pashto,2,1169.44397,31.9418,65.98539,KND,SWK,Shada,3306,Shahwalikot,??? ??? ???,Kandahar,??????,33
7299,7300,CSO AIMS Villages (ACSOR),SWK-147,,0,KND-SWK-147,0,Pashto,2,1147.112061,31.8948,65.89829,KND,SWK,Kar Molla,3306,Shahwalikot,??? ??? ???,Kandahar,??????,33
7300,7301,CSO AIMS Villages (ACSOR),SWK-156,,0,KND-SWK-156,0,Pashto,2,1160.864014,31.9491,65.98289,KND,SWK,Khugiani,3306,Shahwalikot,??? ??? ???,Kandahar,??????,33
7301,7302,CSO AIMS Villages (ACSOR),SWK-143,,0,KND-SWK-143,0,Pashto,2,1189.282959,31.9556,65.96689,KND,SWK,Janubi'alizay,3306,Shahwalikot,??? ??? ???,Kandahar,??????,33
7302,7303,CSO AIMS Villages (ACSOR),SWK-116,,0,KND-SWK-116,0,Pashto,2,1198.2769779999999,31.960490000000004,65.96569000000001,KND,SWK,Delake Pa'in,3306,Shahwalikot,??? ??? ???,Kandahar,??????,33
7303,7304,CSO AIMS Villages (ACSOR),SWK-264,,0,KND-SWK-264,0,Pashto,2,1172.621948,31.958890000000004,65.97289,KND,SWK,Yardad Kalay,3306,Shahwalikot,??? ??? ???,Kandahar,??????,33
7304,7305,CSO AIMS Villages (ACSOR),SWK-170,,0,KND-SWK-170,0,Pashto,2,1210.2709960000002,31.9437,65.87299,KND,SWK,Langar,3306,Shahwalikot,??? ??? ???,Kandahar,??????,33
7305,7306,CSO AIMS Villages (ACSOR),SWK-208,,0,KND-SWK-208,0,Pashto,2,1211.121948,31.9419,65.86369,KND,SWK,Nilay,3306,Shahwalikot,??? ??? ???,Kandahar,??????,33
7306,7307,CSO AIMS Villages (ACSOR),SWK-082,,0,KND-SWK-082,0,Pashto,2,1177.375977,31.917690000000004,65.8867,KND,SWK,Arab,3306,Shahwalikot,??? ??? ???,Kandahar,??????,33
7307,7308,CSO AIMS Villages (ACSOR),SWK-088,,0,KND-SWK-088,0,Pashto,2,1182.984985,31.945690000000003,65.97089,KND,SWK,Barlas,3306,Shahwalikot,??? ??? ???,Kandahar,??????,33
7308,7309,CSO AIMS Villages (ACSOR),SWK-131,,0,KND-SWK-131,0,Pashto,2,1169.759033,31.9292,65.9726,KND,SWK,Haji Karimdad,3306,Shahwalikot,??? ??? ???,Kandahar,??????,33
7309,7310,Yale POP_MASTER,SWK-060,,0,KND-SWK-060,220,Pashto,2,1411.390015,32.1181,65.8714,KND,SWK,Sorkhsang,3306,Shahwalikot,??? ??? ???,Kandahar,??????,33
7310,7311,Yale POP_MASTER,SWK-063,,0,KND-SWK-063,500,Pashto,2,1550.130005,32.0756,66.0306,KND,SWK,Baghtu,3306,Shahwalikot,??? ??? ???,Kandahar,??????,33
7311,7312,Yale POP_MASTER,SWK-068,,0,KND-SWK-068,250,Pashto,2,1235.474976,31.9095,65.7555,KND,SWK,Mianzkal,3306,Shahwalikot,??? ??? ???,Kandahar,??????,33
7312,7313,Yale POP_MASTER,SWK-051,District,1,KND-SWK-051,6705,Pashto,2,1055.631958,31.7823,65.7798,KND,SWK,Shah Wali Kot,3306,Shahwalikot,??? ??? ???,Kandahar,??????,33
7313,7314,Yale POP_MASTER,AG1-030,,0,KND-AG1-030,271,Pashto,2,1051.885986,31.7803,65.7441,KND,AG1,Khana Gerdab,3302,Arghandab,???????,Kandahar,??????,33
7314,7315,Yale POP_MASTER,SWK-067,,0,KND-SWK-067,250,Pashto,2,1270.043945,31.9191,65.7335,KND,SWK,Lur Kalay,3306,Shahwalikot,??? ??? ???,Kandahar,??????,33
7315,7316,Yale POP_MASTER,AG1-055,,0,KND-AG1-055,410,Pashto,2,1053.2910160000001,31.7738,65.7366,KND,AG1,Shahtori,3302,Arghandab,???????,Kandahar,??????,33
7316,7317,Yale POP_MASTER,SWK-066,,0,KND-SWK-066,225,Pashto,2,1315.6639400000001,31.9486,65.71600000000001,KND,SWK,Sara Aw,3306,Shahwalikot,??? ??? ???,Kandahar,??????,33
7317,7318,Yale POP_MASTER,AG1-012,,0,KND-AG1-012,996,Pashto,2,1037.172974,31.7285,65.7157,KND,AG1,Dailawaran Kalacha,3302,Arghandab,???????,Kandahar,??????,33
7318,7319,Yale POP_MASTER,AG1-026,,0,KND-AG1-026,754,Pashto,2,1040.499023,31.7551,65.7174,KND,AG1,Jaza,3302,Arghandab,???????,Kandahar,??????,33
7319,7320,Yale POP_MASTER,AG1-059,,0,KND-AG1-059,732,Pashto,2,1033.160034,31.7389,65.7029,KND,AG1,Shewon Hulya,3302,Arghandab,???????,Kandahar,??????,33
7320,7321,Yale POP_MASTER,AG1-046,,0,KND-AG1-046,637,Pashto,2,1041.720947,31.7329,65.7216,KND,AG1,Mohammad Yaqoub Kalacha,3302,Arghandab,???????,Kandahar,??????,33
7321,7322,Yale POP_MASTER,AG1-040,,0,KND-AG1-040,1202,Pashto,2,1041.993042,31.7424,65.7288,KND,AG1,Maranjan,3302,Arghandab,???????,Kandahar,??????,33
7322,7323,Yale POP_MASTER,AG1-054,,0,KND-AG1-054,70,Pashto,2,1066.182007,31.7693,65.7726,KND,AG1,Sediqe Kalacha,3302,Arghandab,???????,Kandahar,??????,33
7323,7324,Yale POP_MASTER,SWK-050,,0,KND-SWK-050,967,Pashto,2,1067.8129880000001,31.7783,65.8011,KND,SWK,Mansor Abad,3306,Shahwalikot,??? ??? ???,Kandahar,??????,33
7324,7325,Yale POP_MASTER,SWK-049,,0,KND-SWK-049,107,Pashto,2,1090.6719970000001,31.7751,65.8185,KND,SWK,Haji Qayoum Kalacha,3306,Shahwalikot,??? ??? ???,Kandahar,??????,33
7325,7326,Yale POP_MASTER,AG1-034,,0,KND-AG1-034,1838,Pashto,2,1048.706055,31.7589,65.7482,KND,AG1,Khowja Malik Sufla,3302,Arghandab,???????,Kandahar,??????,33
