,OBJECTID,SOURCE,VIL_UID,CENTER,CNTR_CODE,AFG_UID,POPULATION,LANGUAGE_,LANG_CODE,ELEVATION,LAT_Y,LON_X,MISTI_PROV,MISTI_DIST,VILLAGE_NA,DIST_CODE,DIST_NA_EN,DIST_NA_DA,PROV_NA_EN,PROV_NA_DA,PROV_CODE
3,4,USAID AIDVillageView,KJK-011,,0,HLM-KJK-011,0,Pashto,2,1021.958984,32.3822,65.1318,HLM,KJK,Jarya,3210,Kajaki,????,Hilmand,?????,32
15,16,CSO AIMS Villages (ACSOR),NIS-293,,0,HLM-NIS-293,1918,Pashto,2,841.059082,31.823859999999996,64.63544,HLM,NIS,Sayidan Kalay (2),3202,Nahr-e-Saraj,??? ????,Hilmand,?????,32
16,17,USAID AIDVillageView,NIS-004,,0,HLM-NIS-004,0,Pashto,2,966.8809204,31.9563,64.8776,HLM,NIS,Awghani,3205,Sangin,?????,Hilmand,?????,32
50,51,USAID AIDVillageView,KJK-006,,0,HLM-KJK-006,0,Pashto,2,1039.594971,32.4119,65.0549,HLM,KJK,Chaharbagh,3210,Kajaki,????,Hilmand,?????,32
375,376,USAID AIDVillageView,DES-002,,0,HLM-DES-002,0,Balochi,5,589.8853149,30.34,63.231,HLM,DES,Khvajeh 'ali Olya,3213,Deh-e-shu,????,Hilmand,?????,32
376,377,USAID AIDVillageView,DES-004,,0,HLM-DES-004,0,Balochi,5,599.5468139999999,30.2384,62.9701,HLM,DES,Mulla Nurullah Kalay,3213,Deh-e-shu,????,Hilmand,?????,32
377,378,USAID AIDVillageView,DES-005,,0,HLM-DES-005,0,Balochi,5,573.9946289,30.2488,62.9404,HLM,DES,Omar Kalay,3213,Deh-e-shu,????,Hilmand,?????,32
379,380,Yale POP_MASTER,DES-010,,0,HLM-DES-010,1215,Hazaragi,8,631.5100097999999,30.1846,63.1656,HLM,DES,Barabacha Haji Abdul Khaliq,3213,Deh-e-shu,????,Hilmand,?????,32
380,381,Yale POP_MASTER,DES-011,,0,HLM-DES-011,0,Hazaragi,8,627.5845947,30.1779,63.1619,HLM,DES,Bazar Barabacha,3213,Deh-e-shu,????,Hilmand,?????,32
381,382,Yale POP_MASTER,DES-014,,0,HLM-DES-014,245,Hazaragi,8,668.4671021,30.2103,63.1044,HLM,DES,Gharib Abad,3213,Deh-e-shu,????,Hilmand,?????,32
382,383,Yale POP_MASTER,DES-016,,0,HLM-DES-016,1889,Hazaragi,8,636.6591797,30.2066,63.157,HLM,DES,Gul Gaz,3213,Deh-e-shu,????,Hilmand,?????,32
383,384,Yale POP_MASTER,DES-017,,0,HLM-DES-017,226,Hazaragi,8,635.0100708,30.1915,63.1435,HLM,DES,Haji Abdul Aziz,3213,Deh-e-shu,????,Hilmand,?????,32
384,385,Yale POP_MASTER,DES-018,,0,HLM-DES-018,534,Hazaragi,8,641.9675292999999,30.1858,63.1314,HLM,DES,Haji Abdul Halim,3213,Deh-e-shu,????,Hilmand,?????,32
385,386,Yale POP_MASTER,DES-022,,0,HLM-DES-022,210,Balochi,5,642.3875122000001,30.1854,63.1868,HLM,DES,Haji Ayoub Khan Barabacha,3213,Deh-e-shu,????,Hilmand,?????,32
386,387,Yale POP_MASTER,DES-023,,0,HLM-DES-023,493,Hazaragi,8,646.1124877999999,30.2106,63.1468,HLM,DES,Haji Aziz Kalay,3213,Deh-e-shu,????,Hilmand,?????,32
387,388,Yale POP_MASTER,DES-024,,0,HLM-DES-024,792,Hazaragi,8,624.8048706000001,30.1721,63.1595,HLM,DES,Haji Dohat Khan Bara Bacha,3213,Deh-e-shu,????,Hilmand,?????,32
388,389,Yale POP_MASTER,DES-026,,0,HLM-DES-026,910,Hazaragi,8,637.581604,30.1996,63.1739,HLM,DES,Haji Iman Khan Barabacha,3213,Deh-e-shu,????,Hilmand,?????,32
389,390,Yale POP_MASTER,DES-027,,0,HLM-DES-027,165,Balochi,5,649.5020752,30.1941,63.1988,HLM,DES,Haji Khuday Rahm Barabacha,3213,Deh-e-shu,????,Hilmand,?????,32
390,391,Yale POP_MASTER,DES-028,,0,HLM-DES-028,571,Hazaragi,8,624.6276855000001,30.1841,63.1454,HLM,DES,Haji Mullah Bari Dad Bari Bacha,3213,Deh-e-shu,????,Hilmand,?????,32
391,392,Yale POP_MASTER,DES-030,,0,HLM-DES-030,186,Balochi,5,644.6710815,30.1956,63.1903,HLM,DES,Haji Nayeb Barabacha,3213,Deh-e-shu,????,Hilmand,?????,32
569,570,Yale POP_MASTER,DES-031,,0,HLM-DES-031,654,Hazaragi,8,631.1732787999999,30.1855,63.1393,HLM,DES,Haji Noorullah Kalay,3213,Deh-e-shu,????,Hilmand,?????,32
570,571,Yale POP_MASTER,DES-032,,0,HLM-DES-032,761,Hazaragi,8,626.140625,30.1856,63.1521,HLM,DES,Haji Now Khan,3213,Deh-e-shu,????,Hilmand,?????,32
571,572,Yale POP_MASTER,DES-033,,0,HLM-DES-033,430,Balochi,5,643.2451782,30.2041,63.1852,HLM,DES,Haji Obaidullah,3213,Deh-e-shu,????,Hilmand,?????,32
572,573,Yale POP_MASTER,DES-034,,0,HLM-DES-034,218,Hazaragi,8,629.2894287,30.1913,63.1508,HLM,DES,Haji Saifo Khan,3213,Deh-e-shu,????,Hilmand,?????,32
573,574,Yale POP_MASTER,DES-036,,0,HLM-DES-036,573,Hazaragi,8,631.5200806,30.1937,63.1672,HLM,DES,Islam Abad Haji Wakil,3213,Deh-e-shu,????,Hilmand,?????,32
574,575,Yale POP_MASTER,DES-037,,0,HLM-DES-037,257,Balochi,5,655.2086182,30.1975,63.2066,HLM,DES,Jangiyan Barabacha,3213,Deh-e-shu,????,Hilmand,?????,32
575,576,Yale POP_MASTER,DES-038,,0,HLM-DES-038,1324,Balochi,5,669.9016723999999,30.1741,62.9082,HLM,DES,Jeljal Rabat,3213,Deh-e-shu,????,Hilmand,?????,32
576,577,Yale POP_MASTER,DES-040,,0,HLM-DES-040,450,Balochi,5,592.6453247000001,30.3426,63.2424,HLM,DES,Khowja Albar Hulya,3213,Deh-e-shu,????,Hilmand,?????,32
577,578,Yale POP_MASTER,DES-041,,0,HLM-DES-041,140,Balochi,5,581.8328247000001,30.2485,63.0599,HLM,DES,Khowja Halber Sufla,3213,Deh-e-shu,????,Hilmand,?????,32
578,579,Yale POP_MASTER,DES-043,,0,HLM-DES-043,142,Balochi,5,576.6815796,30.250999999999998,62.9754,HLM,DES,Khuday Nazar Khan Kalay,3213,Deh-e-shu,????,Hilmand,?????,32
579,580,Yale POP_MASTER,DES-044,,0,HLM-DES-044,401,Hazaragi,8,669.4829712000001,30.2208,63.1373,HLM,DES,Kiya Chye,3213,Deh-e-shu,????,Hilmand,?????,32
580,581,Yale POP_MASTER,DES-045,,0,HLM-DES-045,429,Hazaragi,8,664.7189941,30.2285,63.1502,HLM,DES,Kochen Barabacha,3213,Deh-e-shu,????,Hilmand,?????,32
581,582,Yale POP_MASTER,DES-046,,0,HLM-DES-046,257,Balochi,5,578.2938232000001,30.2448,63.0339,HLM,DES,Lech,3213,Deh-e-shu,????,Hilmand,?????,32
582,583,Yale POP_MASTER,DES-049,,0,HLM-DES-049,272,Hazaragi,8,668.1931762999999,30.1906,63.1161,HLM,DES,Nayeb Abdul Rahman,3213,Deh-e-shu,????,Hilmand,?????,32
695,696,USAID AIDVillageView,RKN-002,,0,HLM-RKN-002,0,Pashto,2,613.7280883999999,30.5672,63.53,HLM,RKN,De Zhrand Kalay,3212,Reg,???,Hilmand,?????,32
696,697,USAID AIDVillageView,RKN-011,,0,HLM-RKN-011,0,Pashto,2,602.2233887,30.495,63.3583,HLM,RKN,Soleyman Kalay,3212,Reg,???,Hilmand,?????,32
697,698,CSO AIMS Villages (ACSOR),RKN-012,,0,HLM-RKN-012,737,Pashto,2,614.5875854,30.552770000000002,63.51862,HLM,RKN,Naqelen Taghaz Sharqi,3212,Reg,???,Hilmand,?????,32
698,699,USAID AIDVillageView,DES-001,,0,HLM-DES-001,0,Pashto,2,597.34552,30.4352,63.3074,HLM,DES,Alaqadari Dehe Shu,3213,Deh-e-shu,????,Hilmand,?????,32
699,700,USAID AIDVillageView,DES-003,,0,HLM-DES-003,0,Pashto,2,582.7863159,30.2783,63.111000000000004,HLM,DES,Mohammad Zaher,3213,Deh-e-shu,????,Hilmand,?????,32
700,701,USAID AIDVillageView,DES-007,,0,HLM-DES-007,0,Pashto,2,600.8621826,30.4521,63.3306,HLM,DES,Qal'eh-ye Mortaza,3213,Deh-e-shu,????,Hilmand,?????,32
701,702,CSO AIMS Villages (ACSOR),DES-008,,0,HLM-DES-008,41,Pashto,2,601.4044188999999,30.46238,63.3435,HLM,DES,Haji Sakhi Kalay,3213,Deh-e-shu,????,Hilmand,?????,32
702,703,Yale POP_MASTER,RKN-013,,0,HLM-RKN-013,178,Pashto,2,609.0206299,30.5376,63.4615,HLM,RKN,Abdullah Khan,3212,Reg,???,Hilmand,?????,32
703,704,Yale POP_MASTER,RKN-015,,0,HLM-RKN-015,158,Pashto,2,607.0134887999999,30.5006,63.4246,HLM,RKN,Balkh Soro,3212,Reg,???,Hilmand,?????,32
704,705,Yale POP_MASTER,RKN-017,,0,HLM-RKN-017,25,Pashto,2,603.6743164,30.463,63.3609,HLM,RKN,Be Be Jan,3212,Reg,???,Hilmand,?????,32
705,706,Yale POP_MASTER,RKN-018,,0,HLM-RKN-018,464,Pashto,2,603.0435181,30.4908,63.3861,HLM,RKN,Dashtook,3212,Reg,???,Hilmand,?????,32
706,707,Yale POP_MASTER,RKN-021,,0,HLM-RKN-021,500,Pashto,2,602.1436767999999,30.5111,63.3741,HLM,RKN,Garm,3212,Reg,???,Hilmand,?????,32
707,708,Yale POP_MASTER,RKN-026,,0,HLM-RKN-026,199,Pashto,2,610.47052,30.5235,63.4585,HLM,RKN,Hanif Khan Kalay,3212,Reg,???,Hilmand,?????,32
708,709,Yale POP_MASTER,RKN-031,,0,HLM-RKN-031,500,Pashto,2,610.8082886,30.5156,63.4465,HLM,RKN,Malik Baran,3212,Reg,???,Hilmand,?????,32
709,710,Yale POP_MASTER,RKN-032,,0,HLM-RKN-032,337,Pashto,2,604.2407227000001,30.5195,63.3844,HLM,RKN,Malkhan,3212,Reg,???,Hilmand,?????,32
710,711,Yale POP_MASTER,RKN-047,,0,HLM-RKN-047,232,Pashto,2,603.3076782,30.493000000000002,63.3577,HLM,RKN,Shah Diwar Ya Khari,3212,Reg,???,Hilmand,?????,32
711,712,Yale POP_MASTER,RKN-048,,0,HLM-RKN-048,698,Pashto,2,606.0205078,30.511,63.4124,HLM,RKN,Sultan Takht,3212,Reg,???,Hilmand,?????,32
712,713,Yale POP_MASTER,RKN-049,,0,HLM-RKN-049,153,Other,9,610.2515258999999,30.5394,63.4796,HLM,RKN,Taghaz,3212,Reg,???,Hilmand,?????,32
713,714,Yale POP_MASTER,RKN-050,,0,HLM-RKN-050,698,Pashto,2,608.0891723999999,30.5184,63.4307,HLM,RKN,Taghaz Naqelen Gharbi,3212,Reg,???,Hilmand,?????,32
714,715,Yale POP_MASTER,RKN-051,,0,HLM-RKN-051,32,Pashto,2,607.8109741000001,30.5349,63.4437,HLM,RKN,Wakil Khan Kalay,3212,Reg,???,Hilmand,?????,32
715,716,Yale POP_MASTER,RKN-058,,0,HLM-RKN-058,50,Pashto,2,767.6254272000001,30.7144,63.3019,HLM,RKN,Shah Mohammad Pat,3212,Reg,???,Hilmand,?????,32
716,717,Yale POP_MASTER,GRM-190,,0,HLM-GRM-190,302,Pashto,2,714.2523193,31.1347,64.2071,HLM,GRM,Mohammda Osman Khan Kalay,3209,Garmser,??? ???,Hilmand,?????,32
717,718,Yale POP_MASTER,GRM-119,,0,HLM-GRM-119,1117,Pashto,2,701.5496826,31.0764,64.2423,HLM,GRM,Dewala Haji Mohammad Wali,3209,Garmser,??? ???,Hilmand,?????,32
718,719,Yale POP_MASTER,GRM-197,,0,HLM-GRM-197,755,Pashto,2,704.7194824,31.0831,64.1836,HLM,GRM,Mullayan,3209,Garmser,??? ???,Hilmand,?????,32
719,720,Yale POP_MASTER,GRM-135,,0,HLM-GRM-135,708,Pashto,2,707.7537231000001,31.1147,64.2442,HLM,GRM,Haji Bahlol Kalay,3209,Garmser,??? ???,Hilmand,?????,32
720,721,Yale POP_MASTER,GRM-124,,0,HLM-GRM-124,619,Pashto,2,703.2322998,31.0777,64.1866,HLM,GRM,Ghulam Haidar Khan Abdul Samad Omer Zai,3209,Garmser,??? ???,Hilmand,?????,32
721,722,Yale POP_MASTER,GRM-221,,0,HLM-GRM-221,310,Pashto,2,709.2686157,31.1118,64.2273,HLM,GRM,Sultan Mohammad,3209,Garmser,??? ???,Hilmand,?????,32
722,723,Yale POP_MASTER,GRM-118,,0,HLM-GRM-118,1212,Pashto,2,708.4755249,31.0834,64.2105,HLM,GRM,Dahi Zakirya Wakil M.omer Khan,3209,Garmser,??? ???,Hilmand,?????,32
723,724,Yale POP_MASTER,GRM-166,,0,HLM-GRM-166,1268,Pashto,2,711.2473144999999,31.1267,64.1637,HLM,GRM,Jangali Haji Sharafuddin,3209,Garmser,??? ???,Hilmand,?????,32
724,725,Yale POP_MASTER,GRM-182,,0,HLM-GRM-182,419,Pashto,2,698.3814087000001,31.0099,64.1781,HLM,GRM,Mawalwi Mohammda Agha,3209,Garmser,??? ???,Hilmand,?????,32
725,726,Yale POP_MASTER,GRM-157,,0,HLM-GRM-157,1093,Pashto,2,687.5490722999999,30.9489,64.1771,HLM,GRM,Haji Shair Mohammad Khan,3209,Garmser,??? ???,Hilmand,?????,32
726,727,Yale POP_MASTER,GRM-163,,0,HLM-GRM-163,654,Pashto,2,681.8303222999999,30.8913,64.1291,HLM,GRM,Herte,3209,Garmser,??? ???,Hilmand,?????,32
727,728,Yale POP_MASTER,GRM-217,,0,HLM-GRM-217,871,Pashto,2,683.6774292,30.9021,64.1456,HLM,GRM,Sayidan Faqeran,3209,Garmser,??? ???,Hilmand,?????,32
728,729,Yale POP_MASTER,NYB-100,,0,HLM-NYB-100,330,Pashto,2,722.9683838,31.361,64.26899999999999,HLM,NYB,Juma Khan Wa Toti Khan,3204,Nawa-e-Barakzaiy,???? ????????,Hilmand,?????,32
729,730,Yale POP_MASTER,NYB-101,,0,HLM-NYB-101,410,Pashto,2,739.1478271000001,31.4068,64.3582,HLM,NYB,Kahajerin,3204,Nawa-e-Barakzaiy,???? ????????,Hilmand,?????,32
730,731,Yale POP_MASTER,NYB-102,,0,HLM-NYB-102,486,Pashto,2,743.8521728999999,31.3824,64.2881,HLM,NYB,Kalak-i-potiyan,3204,Nawa-e-Barakzaiy,???? ????????,Hilmand,?????,32
731,732,Yale POP_MASTER,NYB-104,,0,HLM-NYB-104,712,Pashto,2,723.045105,31.3367,64.2752,HLM,NYB,Khan M. Khan Wa Din M. Khan,3204,Nawa-e-Barakzaiy,???? ????????,Hilmand,?????,32
732,733,Yale POP_MASTER,NYB-105,,0,HLM-NYB-105,140,Pashto,2,736.0714722,31.3896,64.3263,HLM,NYB,Khatim Khan,3204,Nawa-e-Barakzaiy,???? ????????,Hilmand,?????,32
733,734,Yale POP_MASTER,NYB-107,,0,HLM-NYB-107,89,Pashto,2,805.4271851,31.3724,64.3288,HLM,NYB,Lachmi,3204,Nawa-e-Barakzaiy,???? ????????,Hilmand,?????,32
734,735,Yale POP_MASTER,NYB-109,,0,HLM-NYB-109,1685,Pashto,2,739.1828002999999,31.2845,64.2435,HLM,NYB,Mahjirin Sharqi Aminullah Wa Khatam,3204,Nawa-e-Barakzaiy,???? ????????,Hilmand,?????,32
735,736,Yale POP_MASTER,NYB-110,,0,HLM-NYB-110,533,Pashto,2,747.5635986000001,31.3168,64.26100000000001,HLM,NYB,Malang,3204,Nawa-e-Barakzaiy,???? ????????,Hilmand,?????,32
736,737,Yale POP_MASTER,NYB-111,,0,HLM-NYB-111,316,Pashto,2,730.2462158,31.386,64.3194,HLM,NYB,Malik Hashim Wa Abdul Abdulhaq Kalay,3204,Nawa-e-Barakzaiy,???? ????????,Hilmand,?????,32
737,738,Yale POP_MASTER,NYB-112,,0,HLM-NYB-112,839,Pashto,2,732.5678101,31.389,64.3141,HLM,NYB,Marjan Wa Haji Salim,3204,Nawa-e-Barakzaiy,???? ????????,Hilmand,?????,32
738,739,Yale POP_MASTER,NYB-113,,0,HLM-NYB-113,0,Pashto,2,743.1569824,31.3694,64.2905,HLM,NYB,Markaz Walliwali,3204,Nawa-e-Barakzaiy,???? ????????,Hilmand,?????,32
739,740,Yale POP_MASTER,NYB-114,,0,HLM-NYB-114,584,Pashto,2,743.7498168999999,31.3857,64.2993,HLM,NYB,Mata Khail,3204,Nawa-e-Barakzaiy,???? ????????,Hilmand,?????,32
740,741,Yale POP_MASTER,NYB-116,,0,HLM-NYB-116,554,Pashto,2,743.227478,31.3443,64.2672,HLM,NYB,Mohammad Abrahim Wa Juma Khan,3204,Nawa-e-Barakzaiy,???? ????????,Hilmand,?????,32
741,742,Yale POP_MASTER,NYB-117,,0,HLM-NYB-117,1225,Pashto,2,725.2653809,31.4352,64.3141,HLM,NYB,Mohammad Ali Mohammad Azim Kalay,3204,Nawa-e-Barakzaiy,???? ????????,Hilmand,?????,32
742,743,Yale POP_MASTER,NYB-118,,0,HLM-NYB-118,335,Pashto,2,736.0032959,31.3043,64.2612,HLM,NYB,Mohammad Wazer Wa Haji Mohammad,3204,Nawa-e-Barakzaiy,???? ????????,Hilmand,?????,32
743,744,Yale POP_MASTER,NYB-119,,0,HLM-NYB-119,349,Pashto,2,750.9522705,31.4747,64.3376,HLM,NYB,Munir Khan,3204,Nawa-e-Barakzaiy,???? ????????,Hilmand,?????,32
744,745,Yale POP_MASTER,NYB-120,,0,HLM-NYB-120,583,Pashto,2,732.7457886,31.2826,64.2541,HLM,NYB,Naqelin Abdullah Khan Wa Khaliq Kalay,3204,Nawa-e-Barakzaiy,???? ????????,Hilmand,?????,32
745,746,Yale POP_MASTER,NYB-121,,0,HLM-NYB-121,2034,Pashto,2,755.7072754,31.4098,64.33800000000001,HLM,NYB,Naqelin Gawhar Gin,3204,Nawa-e-Barakzaiy,???? ????????,Hilmand,?????,32
746,747,Yale POP_MASTER,NYB-122,,0,HLM-NYB-122,198,Pashto,2,728.6901855000001,31.381999999999998,64.3044,HLM,NYB,Naqelin Ghur Ghuri,3204,Nawa-e-Barakzaiy,???? ????????,Hilmand,?????,32
993,994,Yale POP_MASTER,NIS-187,,0,HLM-NIS-187,654,Pashto,2,852.9456177000001,31.8735,64.7315,HLM,NIS,Mir Mando Miyan Qala,3202,Nahr-e-Saraj,??? ????,Hilmand,?????,32
994,995,Yale POP_MASTER,NIS-225,,0,HLM-NIS-225,1880,Pashto,2,832.2927856000001,31.715999999999998,64.6725,HLM,NIS,Sar Shakh,3202,Nahr-e-Saraj,??? ????,Hilmand,?????,32
995,996,Yale POP_MASTER,NIS-185,,0,HLM-NIS-185,349,Pashto,2,856.5286865,31.8801,64.743,HLM,NIS,Mika Zai,3202,Nahr-e-Saraj,??? ????,Hilmand,?????,32
997,998,Yale POP_MASTER,NWZ-019,,0,HLM-NWZ-019,546,Pashto,2,994.1165161,32.1083,64.5595,HLM,NWZ,Ali Abad,3207,Nawzad,?????,Hilmand,?????,32
998,999,USAID AIDVillageView,WSR-002,,0,HLM-WSR-002,0,Pashto,2,1120.730957,32.2199,64.3498,HLM,WSR,Cahe Daraz Karez,3208,Washer,?????,Hilmand,?????,32
999,1000,USAID AIDVillageView,WSR-005,,0,HLM-WSR-005,0,Pashto,2,982.00177,32.0659,64.2896,HLM,WSR,Lare Pa `in,3208,Washer,?????,Hilmand,?????,32
1000,1001,CSO AIMS Villages (ACSOR),WSR-014,,0,HLM-WSR-014,685,Pashto,2,1071.1459960000002,32.180890000000005,64.38328,HLM,WSR,Langar (1),3208,Washer,?????,Hilmand,?????,32
1001,1002,CSO AIMS Villages (ACSOR),WSR-016,,0,HLM-WSR-016,456,Pashto,2,1144.967041,32.25213,64.40584,HLM,WSR,Patoo,3208,Washer,?????,Hilmand,?????,32
1002,1003,USAID AIDVillageView,MSQ-005,,0,HLM-MSQ-005,0,Pashto,2,1046.5780029999999,32.3752,64.8143,HLM,MSQ,Kareze Nadamat,3206,Musaqalah,???? ????,Hilmand,?????,32
1003,1004,CSO AIMS Villages (ACSOR),MSQ-161,,0,HLM-MSQ-161,1462,Pashto,2,1040.264038,32.36833,64.79863,HLM,MSQ,Nabo Kalay,3206,Musaqalah,???? ????,Hilmand,?????,32
1004,1005,USAID AIDVillageView,MSQ-003,,0,HLM-MSQ-003,0,Pashto,2,1046.95105,32.3654,64.8323,HLM,MSQ,De Hazarmishi Karez,3206,Musaqalah,???? ????,Hilmand,?????,32
1005,1006,USAID AIDVillageView,MSQ-004,,0,HLM-MSQ-004,0,Pashto,2,1043.9959720000002,32.3418,64.85600000000001,HLM,MSQ,Karez Julji,3206,Musaqalah,???? ????,Hilmand,?????,32
1006,1007,USAID AIDVillageView,KJK-019,,0,HLM-KJK-019,0,Pashto,2,1059.855957,32.3768,64.9402,HLM,KJK,Kareze Naswaryan,3210,Kajaki,????,Hilmand,?????,32
1007,1008,USAID AIDVillageView,KJK-017,,0,HLM-KJK-017,0,Pashto,2,1043.035034,32.3588,64.9361,HLM,KJK,Kareze Mirzi,3210,Kajaki,????,Hilmand,?????,32
1008,1009,CCI Field Team,MSQ-120,,0,HLM-MSQ-120,977,Pashto,2,1016.823975,32.3402,64.7981,HLM,MSQ,Kareze Pi,3206,Musaqalah,???? ????,Hilmand,?????,32
1009,1010,Yale POP_MASTER,KJK-156,,0,HLM-KJK-156,1124,Pashto,2,1011.5200199999999,32.2927,64.9345,HLM,KJK,Qaisarak Ya Ghaiisarak,3210,Kajaki,????,Hilmand,?????,32
1010,1011,Yale POP_MASTER,NWZ-138,,0,HLM-NWZ-138,1995,Pashto,2,1066.6679689999999,32.2735,64.6274,HLM,NWZ,Sara Kala Bismullah Khan,3207,Nawzad,?????,Hilmand,?????,32
1011,1012,Yale POP_MASTER,NWZ-140,,0,HLM-NWZ-140,1654,Pashto,2,1021.653015,32.1943,64.6604,HLM,NWZ,Sara Kala Haji Mohammado,3207,Nawzad,?????,Hilmand,?????,32
1012,1013,Yale POP_MASTER,MSQ-040,,0,HLM-MSQ-040,1413,Pashto,2,994.4752808000001,32.3422,64.7664,HLM,MSQ,Chena Sufla,3206,Musaqalah,???? ????,Hilmand,?????,32
1013,1014,Yale POP_MASTER,MSQ-069,,0,HLM-MSQ-069,966,Pashto,2,998.2689208999999,32.3265,64.7564,HLM,MSQ,Ghundi Kalay,3206,Musaqalah,???? ????,Hilmand,?????,32
1014,1015,Yale POP_MASTER,MSQ-049,,0,HLM-MSQ-049,82,Pashto,2,1003.8309939999999,32.3343,64.7543,HLM,MSQ,Dand,3206,Musaqalah,???? ????,Hilmand,?????,32
1015,1016,Yale POP_MASTER,MSQ-050,,0,HLM-MSQ-050,1619,Pashto,2,982.7713013,32.3175,64.7716,HLM,MSQ,Dara Khail Ya Dagiyan,3206,Musaqalah,???? ????,Hilmand,?????,32
1016,1017,Yale POP_MASTER,MSQ-045,,0,HLM-MSQ-045,979,Pashto,2,990.6473999,32.3303,64.766,HLM,MSQ,Dahi Mastan,3206,Musaqalah,???? ????,Hilmand,?????,32
1017,1018,Yale POP_MASTER,MSQ-081,,0,HLM-MSQ-081,615,Pashto,2,959.93927,32.2646,64.8092,HLM,MSQ,Kandar,3206,Musaqalah,???? ????,Hilmand,?????,32
1018,1019,Yale POP_MASTER,MSQ-033,,0,HLM-MSQ-033,362,Pashto,2,960.6464232999999,32.2726,64.8064,HLM,MSQ,Chaharr Kocha,3206,Musaqalah,???? ????,Hilmand,?????,32
1019,1020,Yale POP_MASTER,MSQ-076,,0,HLM-MSQ-076,187,Pashto,2,1038.35498,32.2524,64.682,HLM,MSQ,Hata Karaiz,3206,Musaqalah,???? ????,Hilmand,?????,32
1020,1021,Yale POP_MASTER,MSQ-119,,0,HLM-MSQ-119,737,Pashto,2,973.3734131000001,32.2318,64.7665,HLM,MSQ,Padlak,3206,Musaqalah,???? ????,Hilmand,?????,32
1021,1022,Yale POP_MASTER,MSQ-024,,0,HLM-MSQ-024,1340,Pashto,2,996.3618163999998,32.2959,64.7679,HLM,MSQ,Ahmad Khawazi,3206,Musaqalah,???? ????,Hilmand,?????,32
1022,1023,Yale POP_MASTER,MSQ-139,,0,HLM-MSQ-139,4803,Pashto,2,958.0159912,32.2326,64.7924,HLM,MSQ,Sharaga,3206,Musaqalah,???? ????,Hilmand,?????,32
1023,1024,Yale POP_MASTER,MSQ-155,,0,HLM-MSQ-155,1186,Pashto,2,985.0172118999999,32.2529,64.7691,HLM,MSQ,Zulm Abad,3206,Musaqalah,???? ????,Hilmand,?????,32
1024,1025,Yale POP_MASTER,MSQ-051,,0,HLM-MSQ-051,2592,Pashto,2,961.1331787,32.2538,64.816,HLM,MSQ,Darotay,3206,Musaqalah,???? ????,Hilmand,?????,32
1025,1026,Yale POP_MASTER,MSQ-085,,0,HLM-MSQ-085,733,Pashto,2,1015.573975,32.2431,64.6831,HLM,MSQ,Karaiz Khushk Aba,3206,Musaqalah,???? ????,Hilmand,?????,32
1026,1027,Yale POP_MASTER,MSQ-125,,0,HLM-MSQ-125,460,Uzbek,3,1035.97998,32.2737,64.6687,HLM,MSQ,Sar Ab,3206,Musaqalah,???? ????,Hilmand,?????,32
1027,1028,Yale POP_MASTER,MSQ-096,,0,HLM-MSQ-096,670,Pashto,2,975.9758301,32.1966,64.7285,HLM,MSQ,Kharwari,3206,Musaqalah,???? ????,Hilmand,?????,32
1028,1029,Yale POP_MASTER,MSQ-031,,0,HLM-MSQ-031,2526,Pashto,2,964.4722289999999,32.2579,64.7922,HLM,MSQ,Chaghali,3206,Musaqalah,???? ????,Hilmand,?????,32
1029,1030,Yale POP_MASTER,MSQ-035,,0,HLM-MSQ-035,952,Pashto,2,939.3925171,32.2271,64.8124,HLM,MSQ,Chalawyan Ya Sandal,3206,Musaqalah,???? ????,Hilmand,?????,32
1030,1031,Yale POP_MASTER,RKN-059,,0,HLM-RKN-059,50,Pashto,2,765.8220825,30.71,63.3733,HLM,RKN,Shah Gol Pat,3212,Reg,???,Hilmand,?????,32
1031,1032,Yale POP_MASTER,DES-009,,0,HLM-DES-009,309,Pashto,2,599.2592772999999,30.4522,63.3157,HLM,DES,Bangal,3213,Deh-e-shu,????,Hilmand,?????,32
1032,1033,Yale POP_MASTER,DES-019,,0,HLM-DES-019,67,Pashto,2,600.2587891,30.4529,63.3403,HLM,DES,Haji Abdul Qayoum,3213,Deh-e-shu,????,Hilmand,?????,32
1033,1034,Yale POP_MASTER,DES-020,,0,HLM-DES-020,497,Balochi,5,600.1768187999999,30.3959,63.3149,HLM,DES,Haji Abdul Rahman Kalay,3213,Deh-e-shu,????,Hilmand,?????,32
1034,1035,Yale POP_MASTER,DES-025,,0,HLM-DES-025,262,Pashto,2,601.9318847999999,30.4586,63.3435,HLM,DES,Haji Hassan,3213,Deh-e-shu,????,Hilmand,?????,32
1035,1036,Yale POP_MASTER,DES-029,,0,HLM-DES-029,86,Pashto,2,595.9063110000001,30.2923,63.1777,HLM,DES,Haji Nafas Wa Sultan Mohammad,3213,Deh-e-shu,????,Hilmand,?????,32
1036,1037,Yale POP_MASTER,DES-035,,0,HLM-DES-035,291,Pashto,2,599.2855225,30.429000000000002,63.3114,HLM,DES,Haji Yaqoub Khan Kalay,3213,Deh-e-shu,????,Hilmand,?????,32
1037,1038,Yale POP_MASTER,DES-047,,0,HLM-DES-047,271,Pashto,2,583.4860229,30.2679,63.1029,HLM,DES,Mohammad Ali Khan Kalay,3213,Deh-e-shu,????,Hilmand,?????,32
1038,1039,Yale POP_MASTER,DES-058,,0,HLM-DES-058,411,Balochi,5,599.8306274,30.4558,63.3243,HLM,DES,Sofyan Kalay,3213,Deh-e-shu,????,Hilmand,?????,32
1039,1040,Yale POP_MASTER,DES-060,,0,HLM-DES-060,235,Pashto,2,583.2114257999999,30.294,63.1312,HLM,DES,Wakil Khan Mohammda Kalay,3213,Deh-e-shu,????,Hilmand,?????,32
1040,1041,Yale POP_MASTER,DES-061,District,1,HLM-DES-061,2800,Hazaragi,8,599.6588135,30.4287,63.3126,HLM,DES,Dishu,3213,Deh-e-shu,????,Hilmand,?????,32
1041,1042,USAID AIDVillageView,GRM-251,,0,HLM-GRM-251,0,Pashto,2,637.2092285,30.5109,63.8326,HLM,GRM,Alimaroan Khane,3209,Garmser,??? ???,Hilmand,?????,32
1042,1043,USAID AIDVillageView,RKN-004,,0,HLM-RKN-004,0,Pashto,2,633.5280762,30.5514,63.7773,HLM,RKN,Khanishin,3212,Reg,???,Hilmand,?????,32
1043,1044,USAID AIDVillageView,RKN-005,,0,HLM-RKN-005,0,Pashto,2,623.3491211,30.576999999999998,63.6149,HLM,RKN,Kheyrabad,3212,Reg,???,Hilmand,?????,32
1044,1045,USAID AIDVillageView,RKN-006,,0,HLM-RKN-006,0,Pashto,2,647.8762207000001,30.6196,63.6332,HLM,RKN,Khodai,3212,Reg,???,Hilmand,?????,32
1045,1046,USAID AIDVillageView,GRM-252,,0,HLM-GRM-252,0,Pashto,2,1102.149048,29.7524,64.3254,HLM,GRM,Khoni Bibi,3209,Garmser,??? ???,Hilmand,?????,32
1046,1047,USAID AIDVillageView,GRM-253,,0,HLM-GRM-253,0,Pashto,2,632.9011841,30.5291,63.7956,HLM,GRM,Landay,3209,Garmser,??? ???,Hilmand,?????,32
1047,1048,USAID AIDVillageView,GRM-065,,0,HLM-GRM-065,0,Pashto,2,668.5806274,30.715999999999998,64.1161,HLM,GRM,Nabiullahkhan Kalay,3209,Garmser,??? ???,Hilmand,?????,32
1048,1049,USAID AIDVillageView,GRM-034,,0,HLM-GRM-034,0,Pashto,2,660.6021118,30.6628,64.0526,HLM,GRM,Haji Rawo Khan (2),3209,Garmser,??? ???,Hilmand,?????,32
1049,1050,USAID AIDVillageView,GRM-017,,0,HLM-GRM-017,0,Pashto,2,670.1226196,30.7314,64.1222,HLM,GRM,Gholam Nabi Kalay,3209,Garmser,??? ???,Hilmand,?????,32
1050,1051,USAID AIDVillageView,GRM-009,,0,HLM-GRM-009,0,Pashto,2,656.0870972,30.599,64.006,HLM,GRM,De Lowy Wayalah Kalay,3209,Garmser,??? ???,Hilmand,?????,32
1051,1052,USAID AIDVillageView,GRM-081,,0,HLM-GRM-081,0,Pashto,2,651.6860962000001,30.5595,63.9852,HLM,GRM,Rava Khan Kala,3209,Garmser,??? ???,Hilmand,?????,32
1052,1053,USAID AIDVillageView,GRM-053,,0,HLM-GRM-053,0,Pashto,2,669.9500732000001,30.7249,64.1164,HLM,GRM,Mohammad Akbarkhan Kalay,3209,Garmser,??? ???,Hilmand,?????,32
1053,1054,USAID AIDVillageView,GRM-066,,0,HLM-GRM-066,0,Pashto,2,683.4038696,30.7207,64.1289,HLM,GRM,Naqilin,3209,Garmser,??? ???,Hilmand,?????,32
1054,1055,USAID AIDVillageView,GRM-078,,0,HLM-GRM-078,0,Pashto,2,649.2211914,30.543000000000003,63.9632,HLM,GRM,Pay Banadir,3209,Garmser,??? ???,Hilmand,?????,32
1055,1056,USAID AIDVillageView,GRM-058,,0,HLM-GRM-058,0,Pashto,2,666.5957031,30.6887,64.0978,HLM,GRM,Mohammad Rahim Kalay,3209,Garmser,??? ???,Hilmand,?????,32
1056,1057,USAID AIDVillageView,GRM-010,,0,HLM-GRM-010,0,Pashto,2,668.1729126,30.7165,64.1164,HLM,GRM,Dih Baba,3209,Garmser,??? ???,Hilmand,?????,32
1057,1058,USAID AIDVillageView,GRM-088,,0,HLM-GRM-088,0,Pashto,2,663.3375244,30.7138,64.0837,HLM,GRM,Shah Vali Khan Kalay,3209,Garmser,??? ???,Hilmand,?????,32
1058,1059,USAID AIDVillageView,GRM-100,,0,HLM-GRM-100,0,Pashto,2,657.3720093,30.6508,64.0357,HLM,GRM,Zahir Khan (1),3209,Garmser,??? ???,Hilmand,?????,32
1059,1060,USAID AIDVillageView,GRM-086,,0,HLM-GRM-086,0,Pashto,2,658.7921142999999,30.623,64.0312,HLM,GRM,Sar Banader (qarya-i-gawharkhan),3209,Garmser,??? ???,Hilmand,?????,32
1060,1061,USAID AIDVillageView,GRM-055,,0,HLM-GRM-055,0,Pashto,2,666.4719848999999,30.6907,64.0856,HLM,GRM,Mohammad Anvar Khan Kalay,3209,Garmser,??? ???,Hilmand,?????,32
1061,1062,USAID AIDVillageView,GRM-023,,0,HLM-GRM-023,0,Pashto,2,684.1721191,30.7461,64.0786,HLM,GRM,Haji Awrang Khan,3209,Garmser,??? ???,Hilmand,?????,32
1062,1063,USAID AIDVillageView,GRM-060,,0,HLM-GRM-060,0,Pashto,2,659.9843139999999,30.6825,64.0621,HLM,GRM,Mohammad Wali Khan,3209,Garmser,??? ???,Hilmand,?????,32
1063,1064,USAID AIDVillageView,GRM-098,,0,HLM-GRM-098,0,Pashto,2,667.3029785,30.6981,64.1011,HLM,GRM,Yar Mohammad Khan,3209,Garmser,??? ???,Hilmand,?????,32
1064,1065,USAID AIDVillageView,GRM-082,,0,HLM-GRM-082,0,Pashto,2,646.2828979,30.5413,63.9331,HLM,GRM,Sahe Madan Kala,3209,Garmser,??? ???,Hilmand,?????,32
1065,1066,USAID AIDVillageView,GRM-090,,0,HLM-GRM-090,0,Pashto,2,655.3225097999999,30.5885,64.0015,HLM,GRM,Shin Zahir Khan,3209,Garmser,??? ???,Hilmand,?????,32
1146,1147,Yale POP_MASTER,NIS-233,,0,HLM-NIS-233,526,Pashto,2,838.0980835,31.8314,64.6588,HLM,NIS,Shadi Kalay,3202,Nahr-e-Saraj,??? ????,Hilmand,?????,32
1147,1148,Yale POP_MASTER,NIS-104,,0,HLM-NIS-104,913,Pashto,2,835.652771,31.8467,64.6595,HLM,NIS,Ghulam Sarwar Khan Kalay,3202,Nahr-e-Saraj,??? ????,Hilmand,?????,32
1148,1149,Yale POP_MASTER,NIS-260,,0,HLM-NIS-260,854,Pashto,2,854.3508301,31.8512,64.7088,HLM,NIS,Zamboli,3202,Nahr-e-Saraj,??? ????,Hilmand,?????,32
1149,1150,Yale POP_MASTER,NIS-235,,0,HLM-NIS-235,1040,Pashto,2,823.0327147999999,31.6843,64.6569,HLM,NIS,Shakh Popal Zai,3202,Nahr-e-Saraj,??? ????,Hilmand,?????,32
1150,1151,Yale POP_MASTER,NIS-137,,0,HLM-NIS-137,207,Pashto,2,807.7227173,31.6676,64.6594,HLM,NIS,Jar Nil Manda,3202,Nahr-e-Saraj,??? ????,Hilmand,?????,32
1151,1152,Yale POP_MASTER,NIS-102,,0,HLM-NIS-102,1091,Pashto,2,850.5546265,31.7254,64.6973,HLM,NIS,Gaw Band,3202,Nahr-e-Saraj,??? ????,Hilmand,?????,32
1152,1153,Yale POP_MASTER,NIS-068,,0,HLM-NIS-068,862,Pashto,2,849.2213744999999,31.8941,64.721,HLM,NIS,Atta Khan Kalay,3202,Nahr-e-Saraj,??? ????,Hilmand,?????,32
1153,1154,Yale POP_MASTER,NIS-201,,0,HLM-NIS-201,234,Pashto,2,858.1478271,31.9073,64.7531,HLM,NIS,Naziran,3202,Nahr-e-Saraj,??? ????,Hilmand,?????,32
1154,1155,Yale POP_MASTER,NIS-111,,0,HLM-NIS-111,598,Pashto,2,854.7053222999999,31.8912,64.7409,HLM,NIS,Haidar Abad,3202,Nahr-e-Saraj,??? ????,Hilmand,?????,32
1155,1156,Yale POP_MASTER,NIS-159,,0,HLM-NIS-159,377,Pashto,2,838.6173706000001,31.7419,64.6979,HLM,NIS,Khuday Dad Shakh,3202,Nahr-e-Saraj,??? ????,Hilmand,?????,32
1156,1157,Yale POP_MASTER,NIS-180,,0,HLM-NIS-180,265,Pashto,2,820.8720703,31.6976,64.6898,HLM,NIS,Manda Gaw Band,3202,Nahr-e-Saraj,??? ????,Hilmand,?????,32
1157,1158,Yale POP_MASTER,NIS-135,,0,HLM-NIS-135,1229,Pashto,2,852.4968262,31.9114,64.7356,HLM,NIS,Isahaq Zai,3202,Nahr-e-Saraj,??? ????,Hilmand,?????,32
1158,1159,Yale POP_MASTER,NIS-165,,0,HLM-NIS-165,1574,Pashto,2,852.0416869999999,31.9081,64.7328,HLM,NIS,Laghar Yan,3202,Nahr-e-Saraj,??? ????,Hilmand,?????,32
1159,1160,Yale POP_MASTER,NIS-097,,0,HLM-NIS-097,484,Pashto,2,853.6301269999999,31.9162,64.7389,HLM,NIS,Dawlat Zai,3202,Nahr-e-Saraj,??? ????,Hilmand,?????,32
1160,1161,Yale POP_MASTER,NIS-116,,0,HLM-NIS-116,222,Pashto,2,858.2011107999999,31.8934,64.7532,HLM,NIS,Haji Abdul Rahim Kalay,3202,Nahr-e-Saraj,??? ????,Hilmand,?????,32
1161,1162,Yale POP_MASTER,NIS-194,,0,HLM-NIS-194,128,Pashto,2,831.6525268999999,31.7165,64.6597,HLM,NIS,Mohammmad Qazi Akhund Zada,3202,Nahr-e-Saraj,??? ????,Hilmand,?????,32
1162,1163,Yale POP_MASTER,NIS-156,,0,HLM-NIS-156,1429,Pashto,2,858.1331787,31.864,64.73,HLM,NIS,Khogyani Ghundi,3202,Nahr-e-Saraj,??? ????,Hilmand,?????,32
1163,1164,Yale POP_MASTER,NIS-262,,0,HLM-NIS-262,750,Pashto,2,853.9492187999999,31.9014,64.7449,HLM,NIS,Haydarabad,3202,Nahr-e-Saraj,??? ????,Hilmand,?????,32
1164,1165,Yale POP_MASTER,NIS-115,,0,HLM-NIS-115,663,Pashto,2,858.8364257999999,31.8637,64.7412,HLM,NIS,Haji Abdul Manan Kalay,3202,Nahr-e-Saraj,??? ????,Hilmand,?????,32
1165,1166,Yale POP_MASTER,NIS-074,,0,HLM-NIS-074,822,Pashto,2,841.102417,31.7543,64.7129,HLM,NIS,Balochan,3202,Nahr-e-Saraj,??? ????,Hilmand,?????,32
1166,1167,Yale POP_MASTER,NIS-234,,0,HLM-NIS-234,681,Pashto,2,825.8815917999999,31.6975,64.6658,HLM,NIS,Shakh Alikozai,3202,Nahr-e-Saraj,??? ????,Hilmand,?????,32
1167,1168,Yale POP_MASTER,NIS-079,,0,HLM-NIS-079,881,Pashto,2,850.0,31.9019,64.7249,HLM,NIS,Barwan,3202,Nahr-e-Saraj,??? ????,Hilmand,?????,32
1168,1169,Yale POP_MASTER,NIS-157,,0,HLM-NIS-157,1091,Pashto,2,850.2061156999999,31.8696,64.7235,HLM,NIS,Khogyani Mir Mando Haji Bar Khan,3202,Nahr-e-Saraj,??? ????,Hilmand,?????,32
1320,1321,Yale POP_MASTER,NYB-123,,0,HLM-NYB-123,3164,Pashto,2,745.5969848999999,31.4741,64.317,HLM,NYB,Naqelin Khudi Rahm,3204,Nawa-e-Barakzaiy,???? ????????,Hilmand,?????,32
1321,1322,Yale POP_MASTER,NYB-124,,0,HLM-NYB-124,387,Pashto,2,740.8289185,31.3991,64.3411,HLM,NYB,Naqelin Sharqi,3204,Nawa-e-Barakzaiy,???? ????????,Hilmand,?????,32
1322,1323,Yale POP_MASTER,NYB-125,,0,HLM-NYB-125,928,Pashto,2,760.2125854,31.4428,64.3578,HLM,NYB,Naqelin Shora Gaz,3204,Nawa-e-Barakzaiy,???? ????????,Hilmand,?????,32
1829,1830,USAID AIDVillageView,WSR-012,,0,HLM-WSR-012,0,Pashto,2,875.3187256000001,32.2273,63.6229,HLM,WSR,Zolekhare Sufla,3208,Washer,?????,Hilmand,?????,32
1886,1887,Yale POP_MASTER,NDA-068,,0,HLM-NDA-068,925,Pashto,2,816.6636963,31.7339,64.3106,HLM,NDA,Khalifa Lahl Mohammad Naray Manda,3203,Nad-e-Ali,??????,Hilmand,?????,32
1887,1888,Yale POP_MASTER,NDA-124,,0,HLM-NDA-124,1199,Pashto,2,770.5471191,31.4951,64.1628,HLM,NDA,Mir Baland,3203,Nad-e-Ali,??????,Hilmand,?????,32
1888,1889,Yale POP_MASTER,NDA-060,,0,HLM-NDA-060,1804,Pashto,2,808.3466187000001,31.7111,64.3281,HLM,NDA,Hazara Ha,3203,Nad-e-Ali,??????,Hilmand,?????,32
1889,1890,Yale POP_MASTER,NDA-112,,0,HLM-NDA-112,2541,Pashto,2,769.96698,31.4619,64.0725,HLM,NDA,Marja Block B-4,3203,Nad-e-Ali,??????,Hilmand,?????,32
1890,1891,Yale POP_MASTER,NDA-114,,0,HLM-NDA-114,1434,Pashto,2,769.3245239,31.484,64.1167,HLM,NDA,Marja Block B-7,3203,Nad-e-Ali,??????,Hilmand,?????,32
1891,1892,Yale POP_MASTER,NDA-043,,0,HLM-NDA-043,997,Pashto,2,815.7147217,31.7337,64.2734,HLM,NDA,Gharbi Naray Manda Nawi Kalay,3203,Nad-e-Ali,??????,Hilmand,?????,32
1892,1893,Yale POP_MASTER,NDA-049,,0,HLM-NDA-049,1879,Pashto,2,813.2872925,31.7231,64.2996,HLM,NDA,Haji Abdullah Jan Wa Halam Khan,3203,Nad-e-Ali,??????,Hilmand,?????,32
1893,1894,Yale POP_MASTER,NDA-120,,0,HLM-NDA-120,1072,Pashto,2,768.1207886,31.4609,64.0979,HLM,NDA,Marja Block F-6,3203,Nad-e-Ali,??????,Hilmand,?????,32
1894,1895,Yale POP_MASTER,NDA-125,,0,HLM-NDA-125,1994,Balochi,5,775.2827758999999,31.514,64.2155,HLM,NDA,Mir Hamza,3203,Nad-e-Ali,??????,Hilmand,?????,32
1895,1896,Yale POP_MASTER,NDA-111,,0,HLM-NDA-111,983,Pashto,2,769.8795166,31.5015,64.1227,HLM,NDA,Marja Block B-1,3203,Nad-e-Ali,??????,Hilmand,?????,32
1896,1897,Yale POP_MASTER,NDA-018,,0,HLM-NDA-018,595,Pashto,2,811.0031738,31.718000000000004,64.3153,HLM,NDA,Abadullah Ya Haji Karim,3203,Nad-e-Ali,??????,Hilmand,?????,32
1897,1898,Yale POP_MASTER,NDA-109,,0,HLM-NDA-109,2896,Pashto,2,770.6602783,31.4987,64.107,HLM,NDA,Marja Block A-1,3203,Nad-e-Ali,??????,Hilmand,?????,32
1898,1899,Yale POP_MASTER,NDA-092,,0,HLM-NDA-092,1684,Pashto,2,768.6547241000001,31.462,64.0898,HLM,NDA,Marja Block 6-e,3203,Nad-e-Ali,??????,Hilmand,?????,32
1899,1900,Yale POP_MASTER,NDA-091,,0,HLM-NDA-091,1224,Pashto,2,773.8773193,31.491,64.0859,HLM,NDA,Marja Block 5-e,3203,Nad-e-Ali,??????,Hilmand,?????,32
1900,1901,Yale POP_MASTER,NDA-047,,0,HLM-NDA-047,570,Pashto,2,821.3408812999999,31.7463,64.3496,HLM,NDA,Gurgan Kalay,3203,Nad-e-Ali,??????,Hilmand,?????,32
1901,1902,Yale POP_MASTER,NDA-077,,0,HLM-NDA-077,3738,Pashto,2,767.1428833,31.4751,64.1295,HLM,NDA,Marja Block 1-c,3203,Nad-e-Ali,??????,Hilmand,?????,32
1902,1903,Yale POP_MASTER,NDA-024,,0,HLM-NDA-024,1135,Pashto,2,775.7097167999999,31.4838,63.9969,HLM,NDA,Abdul Wahab,3203,Nad-e-Ali,??????,Hilmand,?????,32
1903,1904,Yale POP_MASTER,NDA-053,,0,HLM-NDA-053,2092,Pashto,2,772.0164795,31.47,63.9865,HLM,NDA,Haji Ghulam Mohammad,3203,Nad-e-Ali,??????,Hilmand,?????,32
1904,1905,Yale POP_MASTER,NDA-137,,0,HLM-NDA-137,1019,Pashto,2,773.0031738,31.4738,63.9911,HLM,NDA,Noor Mohammad,3203,Nad-e-Ali,??????,Hilmand,?????,32
1905,1906,Yale POP_MASTER,NDA-156,,0,HLM-NDA-156,795,Pashto,2,792.305481,31.4833,64.0146,HLM,NDA,Wakil Ghulam Mohammad,3203,Nad-e-Ali,??????,Hilmand,?????,32
1906,1907,Yale POP_MASTER,NDA-126,,0,HLM-NDA-126,753,Pashto,2,780.1625977000001,31.4456,63.9948,HLM,NDA,Mohammad Lahl Haji Wazir,3203,Nad-e-Ali,??????,Hilmand,?????,32
1907,1908,Yale POP_MASTER,NDA-020,,0,HLM-NDA-020,724,Pashto,2,787.9384766,31.5069,63.9709,HLM,NDA,Abdul Khaliq Kalay,3203,Nad-e-Ali,??????,Hilmand,?????,32
1908,1909,Yale POP_MASTER,NDA-022,,0,HLM-NDA-022,684,Pashto,2,777.2537231000001,31.4937,63.9926,HLM,NDA,Abdul Qadir,3203,Nad-e-Ali,??????,Hilmand,?????,32
1909,1910,Yale POP_MASTER,NDA-110,,0,HLM-NDA-110,1864,Pashto,2,765.4315796,31.4429,64.0456,HLM,NDA,Marja Block A-7,3203,Nad-e-Ali,??????,Hilmand,?????,32
1910,1911,Yale POP_MASTER,LKG-082,,0,HLM-LKG-082,72,Pashto,2,795.0679932,31.6751,64.3363,HLM,LKG,Rawuf Khan Kalay,3201,Lashkargah,???????,Hilmand,?????,32
1911,1912,Yale POP_MASTER,LKG-078,,0,HLM-LKG-078,551,Pashto,2,794.3873291,31.6789,64.3407,HLM,LKG,Popal Zayi,3201,Lashkargah,???????,Hilmand,?????,32
1912,1913,Yale POP_MASTER,LKG-040,,0,HLM-LKG-040,61,Pashto,2,796.4022827,31.6326,64.3164,HLM,LKG,Haji Abdul Hamid Khan,3201,Lashkargah,???????,Hilmand,?????,32
1913,1914,Yale POP_MASTER,LKG-049,,0,HLM-LKG-049,1376,Pashto,2,797.538208,31.65,64.3146,HLM,LKG,Haji Sher Mohammad,3201,Lashkargah,???????,Hilmand,?????,32
1914,1915,Yale POP_MASTER,LKG-045,,0,HLM-LKG-045,215,Pashto,2,798.4180298,31.6819,64.337,HLM,LKG,Haji Mohammad Ayoub,3201,Lashkargah,???????,Hilmand,?????,32
1915,1916,Yale POP_MASTER,LKG-046,,0,HLM-LKG-046,389,Pashto,2,796.8007202,31.6553,64.3134,HLM,LKG,Haji Mohammad Shah Kalay,3201,Lashkargah,???????,Hilmand,?????,32
1916,1917,Yale POP_MASTER,LKG-083,,0,HLM-LKG-083,325,Pashto,2,797.7360229,31.6892,64.3483,HLM,LKG,Safid Malok,3201,Lashkargah,???????,Hilmand,?????,32
1917,1918,Yale POP_MASTER,LKG-066,,0,HLM-LKG-066,641,Pashto,2,798.3109131,31.6617,64.311,HLM,LKG,M.yousaf Haji M.karam Khan,3201,Lashkargah,???????,Hilmand,?????,32
1918,1919,Yale POP_MASTER,LKG-089,,0,HLM-LKG-089,731,Pashto,2,806.7783203,31.7095,64.3451,HLM,LKG,Takhtan,3203,Nad-e-Ali,??????,Hilmand,?????,32
1919,1920,Yale POP_MASTER,LKG-072,,0,HLM-LKG-072,516,Pashto,2,795.1931152000001,31.6613,64.32600000000001,HLM,LKG,Mirza Kalay,3201,Lashkargah,???????,Hilmand,?????,32
1920,1921,Yale POP_MASTER,LKG-036,,0,HLM-LKG-036,664,Pashto,2,792.6760864,31.67,64.3318,HLM,LKG,Fayzullha Kalay,3201,Lashkargah,???????,Hilmand,?????,32
1921,1922,Yale POP_MASTER,LKG-031,,0,HLM-LKG-031,1014,Pashto,2,800.8690186000001,31.6954,64.3521,HLM,LKG,Char Bagh,3201,Lashkargah,???????,Hilmand,?????,32
1922,1923,Yale POP_MASTER,NIS-238,,0,HLM-NIS-238,1030,Pashto,2,819.3529053,31.7661,64.3812,HLM,NIS,Shen Ghazi,3202,Nahr-e-Saraj,??? ????,Hilmand,?????,32
1923,1924,Yale POP_MASTER,NIS-166,,0,HLM-NIS-166,1188,Pashto,2,814.6397705,31.7503,64.3826,HLM,NIS,Lahl Mohammad Kalay,3201,Lashkargah,???????,Hilmand,?????,32
1924,1925,Yale POP_MASTER,NIS-173,,0,HLM-NIS-173,1437,Pashto,2,816.0908203,31.7453,64.3732,HLM,NIS,Lowy Manda,3201,Lashkargah,???????,Hilmand,?????,32
1925,1926,Yale POP_MASTER,NIS-113,,0,HLM-NIS-113,431,Dari,1,805.6188965,31.7256,64.3654,HLM,NIS,Haji Abdul Hamid,3201,Lashkargah,???????,Hilmand,?????,32
1926,1927,Yale POP_MASTER,NIS-256,,0,HLM-NIS-256,1604,Pashto,2,813.7086182,31.7339,64.3656,HLM,NIS,Wakil Alauldin Kalay,3201,Lashkargah,???????,Hilmand,?????,32
1927,1928,Yale POP_MASTER,MAR-121,,0,HLM-MAR-121,2304,Pashto,2,773.7979126,31.5156,64.096,HLM,MAR,Marja Block G-4,3203,Nad-e-Ali,??????,Hilmand,?????,32
1928,1929,Yale POP_MASTER,MAR-064,,0,HLM-MAR-064,797,Pashto,2,776.4332275,31.5173,64.1098,HLM,MAR,Kamp,3203,Nad-e-Ali,??????,Hilmand,?????,32
1929,1930,Yale POP_MASTER,MAR-045,,0,HLM-MAR-045,689,Pashto,2,782.505188,31.5323,64.0794,HLM,MAR,Ghulam Mohammad Wa Allah Nazar,3203,Nad-e-Ali,??????,Hilmand,?????,32
1930,1931,Yale POP_MASTER,MAR-167,District,1,HLM-MAR-167,67414,Pashto,2,772.324585,31.5136,64.1159,HLM,MAR,Marjeh,3203,Nad-e-Ali,??????,Hilmand,?????,32
1931,1932,Yale POP_MASTER,MAR-066,,0,HLM-MAR-066,1572,Pashto,2,782.7355957000001,31.5645,64.1298,HLM,MAR,Khair Mohammad Wa Sahib Khan,3203,Nad-e-Ali,??????,Hilmand,?????,32
1932,1933,Yale POP_MASTER,MAR-115,,0,HLM-MAR-115,1603,Pashto,2,774.6713257,31.4911,64.0635,HLM,MAR,Marja Block C-5,3203,Nad-e-Ali,??????,Hilmand,?????,32
1933,1934,Yale POP_MASTER,MAR-154,,0,HLM-MAR-154,320,Pashto,2,784.6547241000001,31.5619,64.1083,HLM,MAR,Wakil Agha Mohammad,3203,Nad-e-Ali,??????,Hilmand,?????,32
1934,1935,Yale POP_MASTER,MAR-065,,0,HLM-MAR-065,488,Pashto,2,779.6707153,31.5432,64.1183,HLM,MAR,Kashmiri,3203,Nad-e-Ali,??????,Hilmand,?????,32
1935,1936,Yale POP_MASTER,MAR-030,,0,HLM-MAR-030,1350,Pashto,2,781.6409302000001,31.5546,64.1174,HLM,MAR,Ayoub Kalay,3203,Nad-e-Ali,??????,Hilmand,?????,32
1936,1937,Yale POP_MASTER,MAR-127,,0,HLM-MAR-127,731,Pashto,2,784.6621704,31.5495,64.0927,HLM,MAR,Mullah Allah Dad,3203,Nad-e-Ali,??????,Hilmand,?????,32
1937,1938,Yale POP_MASTER,MAR-117,,0,HLM-MAR-117,2162,Pashto,2,774.6661987000001,31.5041,64.0769,HLM,MAR,Marja Block D-5,3203,Nad-e-Ali,??????,Hilmand,?????,32
1938,1939,Yale POP_MASTER,MAR-055,,0,HLM-MAR-055,700,Pashto,2,773.770813,31.5253,64.1477,HLM,MAR,Haji Khail Kalay,3203,Nad-e-Ali,??????,Hilmand,?????,32
1939,1940,Yale POP_MASTER,MAR-046,,0,HLM-MAR-046,545,Pashto,2,786.5435181,31.5839,64.1522,HLM,MAR,Gul Mir Kalay,3203,Nad-e-Ali,??????,Hilmand,?????,32
1940,1941,Yale POP_MASTER,MAR-132,,0,HLM-MAR-132,410,Pashto,2,778.1558227999999,31.5443,64.1573,HLM,MAR,Nasir Abad,3203,Nad-e-Ali,??????,Hilmand,?????,32
1941,1942,Yale POP_MASTER,MAR-136,,0,HLM-MAR-136,4004,Pashto,2,789.5692749,31.601999999999997,64.2315,HLM,MAR,Naway Khushmal Kalay,3203,Nad-e-Ali,??????,Hilmand,?????,32
1942,1943,Yale POP_MASTER,MAR-155,,0,HLM-MAR-155,1239,Pashto,2,781.8959961,31.5601,64.1525,HLM,MAR,Wakil Akhlas,3203,Nad-e-Ali,??????,Hilmand,?????,32
1943,1944,Yale POP_MASTER,MAR-027,,0,HLM-MAR-027,503,Pashto,2,773.9014892999999,31.5319,64.13600000000001,HLM,MAR,Allah Dad Wa Habibullah Kalay,3203,Nad-e-Ali,??????,Hilmand,?????,32
1944,1945,Yale POP_MASTER,MAR-150,,0,HLM-MAR-150,668,Pashto,2,774.1655883999999,31.5369,64.1502,HLM,MAR,Sulaiman Khail,3203,Nad-e-Ali,??????,Hilmand,?????,32
1945,1946,Yale POP_MASTER,MAR-133,,0,HLM-MAR-133,750,Pashto,2,771.7373047,31.5144,64.1459,HLM,MAR,Naw Abad Mawlawi Bahawudin,3203,Nad-e-Ali,??????,Hilmand,?????,32
1946,1947,Yale POP_MASTER,MAR-052,,0,HLM-MAR-052,2052,Pashto,2,780.4743042,31.5281,64.1184,HLM,MAR,Haji Faizludin Wa M.amin Kalay,3203,Nad-e-Ali,??????,Hilmand,?????,32
1947,1948,Yale POP_MASTER,MAR-119,,0,HLM-MAR-119,2866,Pashto,2,774.0549927000001,31.5071,64.0852,HLM,MAR,Marja Block F-4,3203,Nad-e-Ali,??????,Hilmand,?????,32
1948,1949,Yale POP_MASTER,MAR-144,,0,HLM-MAR-144,2824,Pashto,2,789.5108032,31.6035,64.1921,HLM,MAR,Shagi Biland Daw,3203,Nad-e-Ali,??????,Hilmand,?????,32
1949,1950,Yale POP_MASTER,MAR-058,,0,HLM-MAR-058,534,Pashto,2,786.5369262999999,31.5765,64.1946,HLM,MAR,Hamid Kalay,3203,Nad-e-Ali,??????,Hilmand,?????,32
1950,1951,Yale POP_MASTER,MAR-057,,0,HLM-MAR-057,710,Pashto,2,781.5532227000001,31.5648,64.141,HLM,MAR,Haji Pair Khan,3203,Nad-e-Ali,??????,Hilmand,?????,32
1951,1952,Yale POP_MASTER,MAR-059,,0,HLM-MAR-059,1321,Pashto,2,784.1439819,31.5711,64.2036,HLM,MAR,Hazar Ha Sayid Abad,3203,Nad-e-Ali,??????,Hilmand,?????,32
1952,1953,Yale POP_MASTER,MAR-122,,0,HLM-MAR-122,1796,Pashto,2,781.4459839,31.5108,64.0162,HLM,MAR,Marja Garbi,3203,Nad-e-Ali,??????,Hilmand,?????,32
1953,1954,Yale POP_MASTER,MAR-151,,0,HLM-MAR-151,490,Pashto,2,782.9840088,31.563000000000002,64.1743,HLM,MAR,Sultan Kalay Ya Haji Faizullah,3203,Nad-e-Ali,??????,Hilmand,?????,32
1954,1955,Yale POP_MASTER,MAR-158,,0,HLM-MAR-158,1890,Pashto,2,788.5825806,31.5889,64.18,HLM,MAR,Wakil Khudai Nazar,3203,Nad-e-Ali,??????,Hilmand,?????,32
1955,1956,Yale POP_MASTER,MAR-162,,0,HLM-MAR-162,1450,Pashto,2,782.5441284,31.5655,64.227,HLM,MAR,Zabir Abad Kalay,3203,Nad-e-Ali,??????,Hilmand,?????,32
1956,1957,Yale POP_MASTER,MAR-051,,0,HLM-MAR-051,800,Pashto,2,784.9730225,31.5757,64.1401,HLM,MAR,Haji Baruk Kalay,3203,Nad-e-Ali,??????,Hilmand,?????,32
1957,1958,Yale POP_MASTER,MAR-160,,0,HLM-MAR-160,288,Pashto,2,787.8259277000001,31.59,64.1621,HLM,MAR,Wakil Murad Kalay,3203,Nad-e-Ali,??????,Hilmand,?????,32
1958,1959,Yale POP_MASTER,MAR-071,,0,HLM-MAR-071,4821,Pashto,2,790.1738281,31.6045,64.2072,HLM,MAR,Khushal Kalay,3203,Nad-e-Ali,??????,Hilmand,?????,32
1959,1960,Yale POP_MASTER,MAR-041,,0,HLM-MAR-041,240,Dari,1,781.2645874,31.5598,64.214,HLM,MAR,Gawhar Kalay,3203,Nad-e-Ali,??????,Hilmand,?????,32
1960,1961,Yale POP_MASTER,MAR-139,,0,HLM-MAR-139,1974,Pashto,2,787.8250732000001,31.5921,64.2126,HLM,MAR,Now Abad Khushmal Kalay,3203,Nad-e-Ali,??????,Hilmand,?????,32
1961,1962,Yale POP_MASTER,NDA-017,,0,HLM-NDA-017,569,Pashto,2,786.0239868,31.5802,64.242,HLM,NDA,4 Kilo Metri Gurop 6,3203,Nad-e-Ali,??????,Hilmand,?????,32
1962,1963,Yale POP_MASTER,NDA-163,,0,HLM-NDA-163,2363,Pashto,2,798.0717772999999,31.6509,64.2689,HLM,NDA,Zarghon Kalay Suliman Khail,3203,Nad-e-Ali,??????,Hilmand,?????,32
1963,1964,Yale POP_MASTER,NDA-048,,0,HLM-NDA-048,4004,Pashto,2,787.1151732999999,31.5959,64.2529,HLM,NDA,Gurop 4,3203,Nad-e-Ali,??????,Hilmand,?????,32
1964,1965,Yale POP_MASTER,NDA-028,,0,HLM-NDA-028,2793,Pashto,2,795.2503052000001,31.6418,64.3012,HLM,NDA,Arab Khail Daktar Nooruldin Kalay,3203,Nad-e-Ali,??????,Hilmand,?????,32
1965,1966,Yale POP_MASTER,NDA-148,,0,HLM-NDA-148,1489,Balochi,5,798.06073,31.6353,64.2145,HLM,NDA,Shen Kalay Junobi,3203,Nad-e-Ali,??????,Hilmand,?????,32
1966,1967,Yale POP_MASTER,NDA-129,,0,HLM-NDA-129,2332,Pashto,2,808.6270142000001,31.6938,64.2693,HLM,NDA,Naqel Abad,3203,Nad-e-Ali,??????,Hilmand,?????,32
1967,1968,Yale POP_MASTER,NDA-019,,0,HLM-NDA-019,1906,Pashto,2,808.6433716,31.7038,64.2821,HLM,NDA,Abdul Halim,3203,Nad-e-Ali,??????,Hilmand,?????,32
1968,1969,Yale POP_MASTER,NDA-056,,0,HLM-NDA-056,1330,Pashto,2,794.93927,31.6382,64.2877,HLM,NDA,Haji Obaidullah,3203,Nad-e-Ali,??????,Hilmand,?????,32
1969,1970,Yale POP_MASTER,NDA-075,,0,HLM-NDA-075,2303,Pashto,2,792.7667847,31.6254,64.2928,HLM,NDA,Lowy Baghi Sharqi,3203,Nad-e-Ali,??????,Hilmand,?????,32
1970,1971,Yale POP_MASTER,NDA-026,,0,HLM-NDA-026,1696,Pashto,2,796.9108276000001,31.6388,64.2289,HLM,NDA,Adam Kalay,3203,Nad-e-Ali,??????,Hilmand,?????,32
1971,1972,Yale POP_MASTER,NDA-143,,0,HLM-NDA-143,2283,Pashto,2,802.3436889999999,31.671,64.2564,HLM,NDA,Shadi Khan Kalay,3203,Nad-e-Ali,??????,Hilmand,?????,32
1972,1973,Yale POP_MASTER,NDA-165,,0,HLM-NDA-165,1489,Pashto,2,811.3980713,31.6915,64.2276,HLM,NDA,Zor Abad,3203,Nad-e-Ali,??????,Hilmand,?????,32
1973,1974,Yale POP_MASTER,NDA-050,,0,HLM-NDA-050,1278,Pashto,2,804.9506836,31.6949,64.3187,HLM,NDA,Haji Alo Gul Kalay,3203,Nad-e-Ali,??????,Hilmand,?????,32
1974,1975,Yale POP_MASTER,NDA-073,,0,HLM-NDA-073,2757,Pashto,2,790.9334106000001,31.6161,64.2544,HLM,NDA,Lowy Baghi Junobi,3203,Nad-e-Ali,??????,Hilmand,?????,32
1975,1976,Yale POP_MASTER,NDA-067,,0,HLM-NDA-067,1154,Pashto,2,793.1917114,31.6211,64.2691,HLM,NDA,Khalifa Dost Mohammad,3203,Nad-e-Ali,??????,Hilmand,?????,32
1976,1977,Yale POP_MASTER,NDA-123,,0,HLM-NDA-123,2919,Pashto,2,795.9515991000001,31.6422,64.2384,HLM,NDA,Markazi Nad Ali,3203,Nad-e-Ali,??????,Hilmand,?????,32
1977,1978,Yale POP_MASTER,NDA-039,,0,HLM-NDA-039,608,Pashto,2,788.5046997000001,31.5946,64.2804,HLM,NDA,Dashti Lowy Abghi Sharqi,3203,Nad-e-Ali,??????,Hilmand,?????,32
1978,1979,Yale POP_MASTER,NDA-164,,0,HLM-NDA-164,2111,Pashto,2,799.0836792,31.6533,64.2605,HLM,NDA,Zarghon Kalay Wakil Malang,3203,Nad-e-Ali,??????,Hilmand,?????,32
1979,1980,Yale POP_MASTER,NDA-074,,0,HLM-NDA-074,3213,Pashto,2,794.0269775,31.6298,64.2565,HLM,NDA,Lowy Baghi Shamali,3203,Nad-e-Ali,??????,Hilmand,?????,32
1980,1981,Yale POP_MASTER,NDA-128,,0,HLM-NDA-128,1507,Pashto,2,792.3201293999999,31.6171,64.2408,HLM,NDA,Mullah Wazer Kalay,3203,Nad-e-Ali,??????,Hilmand,?????,32
1981,1982,Yale POP_MASTER,NDA-025,,0,HLM-NDA-025,892,Pashto,2,799.2775879,31.6866,64.3014,HLM,NDA,Abdul Wahid,3203,Nad-e-Ali,??????,Hilmand,?????,32
1982,1983,Yale POP_MASTER,NDA-134,,0,HLM-NDA-134,840,Pashto,2,818.3765258999999,31.6982,64.211,HLM,NDA,Naw Abad Saifon,3203,Nad-e-Ali,??????,Hilmand,?????,32
1983,1984,Yale POP_MASTER,NDA-054,,0,HLM-NDA-054,466,Pashto,2,782.9797973999999,31.564,64.2572,HLM,NDA,Haji Kabir Kalay,3203,Nad-e-Ali,??????,Hilmand,?????,32
1984,1985,Yale POP_MASTER,NDA-063,,0,HLM-NDA-063,2628,Pashto,2,805.5352783,31.6739,64.2331,HLM,NDA,Kakarani Chah Mirza,3203,Nad-e-Ali,??????,Hilmand,?????,32
1985,1986,Yale POP_MASTER,NDA-135,,0,HLM-NDA-135,1028,Pashto,2,818.7142944,31.7182,64.2567,HLM,NDA,Naw Abad Shah Wali,3203,Nad-e-Ali,??????,Hilmand,?????,32
1986,1987,Yale POP_MASTER,NDA-037,,0,HLM-NDA-037,1483,Pashto,2,801.5969238,31.6748,64.286,HLM,NDA,Chah Anjir Sherban,3203,Nad-e-Ali,??????,Hilmand,?????,32
1987,1988,Yale POP_MASTER,KJK-107,,0,HLM-KJK-107,443,Pashto,2,1006.807007,32.373000000000005,65.0711,HLM,KJK,Karaiz Dai,3210,Kajaki,????,Hilmand,?????,32
1988,1989,Yale POP_MASTER,KJK-161,,0,HLM-KJK-161,662,Pashto,2,998.5142212000001,32.3613,65.0951,HLM,KJK,Raisachi,3210,Kajaki,????,Hilmand,?????,32
1989,1990,Yale POP_MASTER,KJK-193,,0,HLM-KJK-193,480,Pashto,2,1050.749023,32.3962,65.2001,HLM,KJK,Zair Khak,3210,Kajaki,????,Hilmand,?????,32
1990,1991,Yale POP_MASTER,KJK-153,,0,HLM-KJK-153,1678,Pashto,2,1037.967041,32.4048,65.1307,HLM,KJK,Niacha,3210,Kajaki,????,Hilmand,?????,32
1991,1992,Yale POP_MASTER,KJK-163,,0,HLM-KJK-163,801,Pashto,2,1015.4559939999999,32.3456,65.0226,HLM,KJK,Sabzi Kar,3210,Kajaki,????,Hilmand,?????,32
1992,1993,Yale POP_MASTER,KJK-147,,0,HLM-KJK-147,478,Pashto,2,1008.0720210000001,32.3727,65.1205,HLM,KJK,Mir Zai,3210,Kajaki,????,Hilmand,?????,32
2025,2026,Yale POP_MASTER,MSQ-052,,0,HLM-MSQ-052,614,Pashto,2,1030.202026,32.2621,64.6717,HLM,MSQ,Darozay,3206,Musaqalah,???? ????,Hilmand,?????,32
2026,2027,Yale POP_MASTER,MSQ-032,,0,HLM-MSQ-032,614,Pashto,2,989.0250854000001,32.312,64.7616,HLM,MSQ,Chahar Dahi,3206,Musaqalah,???? ????,Hilmand,?????,32
2027,2028,Yale POP_MASTER,MSQ-130,,0,HLM-MSQ-130,835,Pashto,2,950.2565917999999,32.2453,64.8093,HLM,MSQ,Sarkiyan Ya Mashhad Yan,3206,Musaqalah,???? ????,Hilmand,?????,32
2028,2029,Yale POP_MASTER,MSQ-114,,0,HLM-MSQ-114,381,Pashto,2,944.6359252999998,32.2232,64.8206,HLM,MSQ,Mohammad Sharif Karaiz,3206,Musaqalah,???? ????,Hilmand,?????,32
2029,2030,Yale POP_MASTER,MSQ-104,,0,HLM-MSQ-104,648,Pashto,2,1022.742004,32.227,64.6878,HLM,MSQ,Lashkarak,3206,Musaqalah,???? ????,Hilmand,?????,32
2030,2031,Yale POP_MASTER,MSQ-044,,0,HLM-MSQ-044,337,Pashto,2,976.7277832000001,32.2707,64.7915,HLM,MSQ,Dahi Ghawchak,3206,Musaqalah,???? ????,Hilmand,?????,32
2031,2032,Yale POP_MASTER,MSQ-118,,0,HLM-MSQ-118,541,Pashto,2,976.4716797,32.3048,64.7775,HLM,MSQ,Mussa Zaye Ya Jowi Bawari,3206,Musaqalah,???? ????,Hilmand,?????,32
2032,2033,Yale POP_MASTER,MSQ-153,,0,HLM-MSQ-153,2705,Pashto,2,968.4976807,32.2896,64.7977,HLM,MSQ,Yatemcha Wa Chah Karaiz,3206,Musaqalah,???? ????,Hilmand,?????,32
2033,2034,Yale POP_MASTER,MSQ-100,,0,HLM-MSQ-100,610,Pashto,2,945.1057129000001,32.2151,64.8009,HLM,MSQ,Kochnay Riagi,3206,Musaqalah,???? ????,Hilmand,?????,32
2034,2035,Yale POP_MASTER,MSQ-048,,0,HLM-MSQ-048,1997,Pashto,2,1008.353027,32.3052,64.7417,HLM,MSQ,Dahi Zor Sufla,3206,Musaqalah,???? ????,Hilmand,?????,32
2035,2036,Yale POP_MASTER,MSQ-101,,0,HLM-MSQ-101,206,Pashto,2,973.9534912,32.2944,64.779,HLM,MSQ,Koghka,3206,Musaqalah,???? ????,Hilmand,?????,32
2036,2037,Yale POP_MASTER,MSQ-137,,0,HLM-MSQ-137,1686,Pashto,2,1000.862,32.2303,64.6939,HLM,MSQ,Shair Ghazi,3206,Musaqalah,???? ????,Hilmand,?????,32
2037,2038,Yale POP_MASTER,MSQ-062,,0,HLM-MSQ-062,538,Uzbek,3,1029.4219970000001,32.2469,64.7076,HLM,MSQ,Garjat,3206,Musaqalah,???? ????,Hilmand,?????,32
2038,2039,Yale POP_MASTER,MSQ-054,,0,HLM-MSQ-054,508,Pashto,2,1006.9349980000001,32.3063,64.7535,HLM,MSQ,Deshar Mesh Shela,3206,Musaqalah,???? ????,Hilmand,?????,32
2039,2040,Yale POP_MASTER,MSQ-079,,0,HLM-MSQ-079,2317,Pashto,2,992.4155883999999,32.2091,64.7125,HLM,MSQ,Jawz Ghori,3206,Musaqalah,???? ????,Hilmand,?????,32
2040,2041,Yale POP_MASTER,MSQ-046,,0,HLM-MSQ-046,338,Pashto,2,983.2185059000001,32.2822,64.788,HLM,MSQ,Dahi Sofiyan,3206,Musaqalah,???? ????,Hilmand,?????,32
2041,2042,Yale POP_MASTER,MSQ-056,,0,HLM-MSQ-056,714,Pashto,2,972.9000854000001,32.2623,64.7791,HLM,MSQ,Doghak,3206,Musaqalah,???? ????,Hilmand,?????,32
2042,2043,Yale POP_MASTER,KJK-141,,0,HLM-KJK-141,66,Pashto,2,1407.717041,32.6693,64.8579,HLM,KJK,Malik Shah,3210,Kajaki,????,Hilmand,?????,32
2043,2044,Yale POP_MASTER,MSQ-063,,0,HLM-MSQ-063,90,Pashto,2,1101.400024,32.5568,64.7427,HLM,MSQ,Ghaljae,3206,Musaqalah,???? ????,Hilmand,?????,32
2044,2045,Yale POP_MASTER,MSQ-136,,0,HLM-MSQ-136,152,Pashto,2,1102.840942,32.5647,64.741,HLM,MSQ,Shahidan,3206,Musaqalah,???? ????,Hilmand,?????,32
2045,2046,Yale POP_MASTER,MSQ-073,,0,HLM-MSQ-073,221,Pashto,2,1116.156982,32.5674,64.749,HLM,MSQ,Gurdi Zangal,3206,Musaqalah,???? ????,Hilmand,?????,32
2046,2047,Yale POP_MASTER,MSQ-129,,0,HLM-MSQ-129,297,Pashto,2,1157.0389400000001,32.6048,64.7207,HLM,MSQ,Sara Wali,3207,Nawzad,?????,Hilmand,?????,32
2047,2048,Yale POP_MASTER,MSQ-038,,0,HLM-MSQ-038,733,Pashto,2,1146.714966,32.6299,64.7747,HLM,MSQ,Char Saye,3206,Musaqalah,???? ????,Hilmand,?????,32
2048,2049,Yale POP_MASTER,MSQ-151,,0,HLM-MSQ-151,280,Pashto,2,1188.301025,32.6887,64.7786,HLM,MSQ,Yak Leng,3206,Musaqalah,???? ????,Hilmand,?????,32
2049,2050,Yale POP_MASTER,MSQ-141,,0,HLM-MSQ-141,307,Pashto,2,1148.0839839999999,32.6181,64.7652,HLM,MSQ,Sofiyan,3206,Musaqalah,???? ????,Hilmand,?????,32
2050,2051,Yale POP_MASTER,MSQ-084,,0,HLM-MSQ-084,139,Pashto,2,1339.3959960000002,32.6791,64.6663,HLM,MSQ,Karaiz Kay,3207,Nawzad,?????,Hilmand,?????,32
2051,2052,Yale POP_MASTER,MSQ-142,,0,HLM-MSQ-142,203,Pashto,2,1228.272949,32.586999999999996,64.7672,HLM,MSQ,Sokhta,3206,Musaqalah,???? ????,Hilmand,?????,32
2052,2053,Yale POP_MASTER,MSQ-090,,0,HLM-MSQ-090,144,Pashto,2,1124.665039,32.5945,64.7575,HLM,MSQ,Kas Osman Ya Kas M. Amin,3206,Musaqalah,???? ????,Hilmand,?????,32
2053,2054,Yale POP_MASTER,MSQ-149,,0,HLM-MSQ-149,90,Pashto,2,1302.233032,32.6829,64.6826,HLM,MSQ,Wacha Qolba,3207,Nawzad,?????,Hilmand,?????,32
2054,2055,Yale POP_MASTER,MSQ-026,,0,HLM-MSQ-026,973,Pashto,2,1244.725952,32.6392,64.7087,HLM,MSQ,Ali Zay,3207,Nawzad,?????,Hilmand,?????,32
2055,2056,Yale POP_MASTER,MSQ-041,,0,HLM-MSQ-041,479,Pashto,2,1307.130005,32.6785,64.6771,HLM,MSQ,Chengay,3207,Nawzad,?????,Hilmand,?????,32
2056,2057,Yale POP_MASTER,MSQ-122,,0,HLM-MSQ-122,289,Pashto,2,1265.88501,32.667,64.6961,HLM,MSQ,Qalba,3207,Nawzad,?????,Hilmand,?????,32
2057,2058,Yale POP_MASTER,MSQ-123,,0,HLM-MSQ-123,1335,Pashto,2,1341.782959,32.7262,64.6979,HLM,MSQ,Riabak,3207,Nawzad,?????,Hilmand,?????,32
2058,2059,Yale POP_MASTER,MSQ-135,,0,HLM-MSQ-135,298,Pashto,2,1409.402954,32.7671,64.7041,HLM,MSQ,Shadi Khail,3207,Nawzad,?????,Hilmand,?????,32
2059,2060,Yale POP_MASTER,MSQ-094,,0,HLM-MSQ-094,1180,Pashto,2,1377.878052,32.7613,64.7283,HLM,MSQ,Khala Shrodd,3207,Nawzad,?????,Hilmand,?????,32
2060,2061,Yale POP_MASTER,MSQ-061,,0,HLM-MSQ-061,815,Pashto,2,1332.259033,32.7275,64.7286,HLM,MSQ,Gami Zar,3207,Nawzad,?????,Hilmand,?????,32
2061,2062,Yale POP_MASTER,MSQ-146,,0,HLM-MSQ-146,512,Pashto,2,1318.160034,32.6966,64.6808,HLM,MSQ,Tazi,3207,Nawzad,?????,Hilmand,?????,32
2062,2063,Yale POP_MASTER,MSQ-133,,0,HLM-MSQ-133,769,Pashto,2,1295.2110599999999,32.6936,64.7156,HLM,MSQ,Seya Khola,3207,Nawzad,?????,Hilmand,?????,32
2063,2064,Yale POP_MASTER,MSQ-074,,0,HLM-MSQ-074,1983,Pashto,2,1393.9060060000002,32.7626,64.7101,HLM,MSQ,Gurgan,3207,Nawzad,?????,Hilmand,?????,32
2064,2065,Yale POP_MASTER,MSQ-113,,0,HLM-MSQ-113,270,Pashto,2,1350.767944,32.7349,64.6942,HLM,MSQ,Mir Khan Abad,3207,Nawzad,?????,Hilmand,?????,32
2065,2066,Yale POP_MASTER,MSQ-029,,0,HLM-MSQ-029,259,Pashto,2,1359.140015,32.7482,64.7282,HLM,MSQ,Baran Shela,3207,Nawzad,?????,Hilmand,?????,32
2066,2067,Yale POP_MASTER,MSQ-128,,0,HLM-MSQ-128,1363,Pashto,2,1442.68103,32.795,64.7085,HLM,MSQ,Sar Qila,3207,Nawzad,?????,Hilmand,?????,32
2087,2088,Yale POP_MASTER,NWZ-044,,0,HLM-NWZ-044,333,Pashto,2,2042.959961,32.6067,64.2709,HLM,NWZ,Chahak,3207,Nawzad,?????,Hilmand,?????,32
2088,2089,Yale POP_MASTER,NWZ-081,,0,HLM-NWZ-081,685,Dari,1,1825.307983,32.5811,64.2393,HLM,NWZ,Karaiz Mazar,3207,Nawzad,?????,Hilmand,?????,32
2099,2100,Yale POP_MASTER,NWZ-064,,0,HLM-NWZ-064,468,Dari,1,1835.822998,32.5468,64.0804,HLM,NWZ,Ghor Bini,3207,Nawzad,?????,Hilmand,?????,32
2100,2101,Yale POP_MASTER,NWZ-055,,0,HLM-NWZ-055,412,Pashto,2,1681.050049,32.5356,64.1004,HLM,NWZ,Dor Bini,3207,Nawzad,?????,Hilmand,?????,32
2101,2102,Yale POP_MASTER,NWZ-142,,0,HLM-NWZ-142,133,Pashto,2,1748.703979,32.5473,64.1088,HLM,NWZ,Saraye,3207,Nawzad,?????,Hilmand,?????,32
2155,2156,Yale POP_MASTER,GRM-254,,0,HLM-GRM-254,735,Pashto,2,636.9829712000001,30.5029,63.8391,HLM,GRM,Ali Murad Khan Bagat,3209,Garmser,??? ???,Hilmand,?????,32
2156,2157,Yale POP_MASTER,RKN-016,,0,HLM-RKN-016,320,Pashto,2,634.7141723999999,30.5373,63.8155,HLM,RKN,Balochan Raige,3212,Reg,???,Hilmand,?????,32
2157,2158,Yale POP_MASTER,GRM-255,,0,HLM-GRM-255,319,Pashto,2,637.201416,30.5215,63.8077,HLM,GRM,Din M.khan Wa Naqelen Bagat,3209,Garmser,??? ???,Hilmand,?????,32
2158,2159,Yale POP_MASTER,RKN-020,,0,HLM-RKN-020,192,Pashto,2,624.9033812999999,30.5711,63.6792,HLM,RKN,Faizullah Khan Kalay,3212,Reg,???,Hilmand,?????,32
2159,2160,Yale POP_MASTER,RKN-022,,0,HLM-RKN-022,381,Pashto,2,629.8530272999999,30.566999999999997,63.731,HLM,RKN,Ghulam Nabi Khan Kalay,3212,Reg,???,Hilmand,?????,32
2160,2161,Yale POP_MASTER,RKN-023,,0,HLM-RKN-023,355,Pashto,2,630.315979,30.548000000000002,63.7592,HLM,RKN,Ghulaman Kalay,3212,Reg,???,Hilmand,?????,32
2161,2162,Yale POP_MASTER,RKN-024,,0,HLM-RKN-024,369,Pashto,2,633.3814697,30.5397,63.793,HLM,RKN,Haji Shair Kalay,3212,Reg,???,Hilmand,?????,32
2162,2163,Yale POP_MASTER,RKN-025,,0,HLM-RKN-025,344,Pashto,2,621.5385742000001,30.5858,63.6387,HLM,RKN,Hakim Khan Kalay,3212,Reg,???,Hilmand,?????,32
2163,2164,Yale POP_MASTER,RKN-027,,0,HLM-RKN-027,376,Pashto,2,637.3259887999999,30.5411,63.8411,HLM,RKN,Kalo Kalay,3212,Reg,???,Hilmand,?????,32
2164,2165,Yale POP_MASTER,RKN-028,,0,HLM-RKN-028,502,Pashto,2,639.7686157,30.5421,63.8658,HLM,RKN,Karo Bi,3212,Reg,???,Hilmand,?????,32
2165,2166,Yale POP_MASTER,RKN-029,,0,HLM-RKN-029,204,Balochi,5,618.3579712000001,30.5786,63.5986,HLM,RKN,Khair Abad,3212,Reg,???,Hilmand,?????,32
2166,2167,Yale POP_MASTER,NDA-036,,0,HLM-NDA-036,1721,Pashto,2,799.9334717,31.6801,64.3094,HLM,NDA,Chah Anjir Shamai,3203,Nad-e-Ali,??????,Hilmand,?????,32
2167,2168,Yale POP_MASTER,NDA-161,,0,HLM-NDA-161,1385,Pashto,2,807.9262695,31.7092,64.311,HLM,NDA,Wakil Talib Wakil Zahir Kalay,3203,Nad-e-Ali,??????,Hilmand,?????,32
2168,2169,Yale POP_MASTER,NDA-157,,0,HLM-NDA-157,388,Pashto,2,796.3167114,31.6491,64.2864,HLM,NDA,Wakil Ghulam Nabi Kalay,3203,Nad-e-Ali,??????,Hilmand,?????,32
2169,2170,Yale POP_MASTER,NDA-153,,0,HLM-NDA-153,1070,Pashto,2,791.0161743,31.6087,64.2828,HLM,NDA,Toor Khan,3203,Nad-e-Ali,??????,Hilmand,?????,32
2170,2171,Yale POP_MASTER,NDA-142,,0,HLM-NDA-142,825,Pashto,2,792.8328247000001,31.6283,64.2755,HLM,NDA,Sayid Karim Khan Kalay,3203,Nad-e-Ali,??????,Hilmand,?????,32
2171,2172,Yale POP_MASTER,NDA-035,,0,HLM-NDA-035,1168,Pashto,2,796.1771851,31.6742,64.3109,HLM,NDA,Chah Anjir Junobi,3203,Nad-e-Ali,??????,Hilmand,?????,32
2172,2173,Yale POP_MASTER,NDA-029,,0,HLM-NDA-029,1210,Pashto,2,796.2009887999999,31.6543,64.2988,HLM,NDA,Arab Khail Kalay,3203,Nad-e-Ali,??????,Hilmand,?????,32
2173,2174,Yale POP_MASTER,NDA-044,,0,HLM-NDA-044,2024,Pashto,2,788.9827881,31.6002,64.2432,HLM,NDA,Ghulam Dastagir M.yousuf,3203,Nad-e-Ali,??????,Hilmand,?????,32
2174,2175,Yale POP_MASTER,NDA-076,,0,HLM-NDA-076,1191,Pashto,2,817.7874756,31.7387,64.328,HLM,NDA,Lowy Manda Gharbi Hazrat M. Kalay,3203,Nad-e-Ali,??????,Hilmand,?????,32
2175,2176,Yale POP_MASTER,NDA-023,,0,HLM-NDA-023,872,Pashto,2,813.7957153,31.7246,64.3277,HLM,NDA,Abdul Razaq Kalay,3203,Nad-e-Ali,??????,Hilmand,?????,32
2223,2224,USAID AIDVillageView,SAN-007,,0,HLM-SAN-007,0,Pashto,2,1030.4880369999998,32.1833,65.0598,HLM,SAN,Chaydar,3205,Sangin,?????,Hilmand,?????,32
2224,2225,USAID AIDVillageView,SAN-009,,0,HLM-SAN-009,0,Pashto,2,1020.8679810000001,32.105,65.0374,HLM,SAN,De Kanate Latif(kanate Saydal),3205,Sangin,?????,Hilmand,?????,32
2225,2226,USAID AIDVillageView,SAN-021,,0,HLM-SAN-021,0,Pashto,2,992.5911255000001,32.181999999999995,65.0235,HLM,SAN,Qena'at Surat,3205,Sangin,?????,Hilmand,?????,32
2226,2227,USAID AIDVillageView,SAN-023,,0,HLM-SAN-023,0,Pashto,2,1018.953003,32.1111,65.0344,HLM,SAN,Shorab,3205,Sangin,?????,Hilmand,?????,32
2227,2228,USAID AIDVillageView,SAN-003,,0,HLM-SAN-003,0,Pashto,2,1063.337036,32.1201,65.0761,HLM,SAN,Baykhush,3205,Sangin,?????,Hilmand,?????,32
2228,2229,USAID AIDVillageView,SAN-024,,0,HLM-SAN-024,0,Pashto,2,1051.6290279999998,32.139,65.0582,HLM,SAN,Spinkay,3205,Sangin,?????,Hilmand,?????,32
2229,2230,USAID AIDVillageView,SAN-008,,0,HLM-SAN-008,0,Pashto,2,1027.615967,32.1172,65.0534,HLM,SAN,Choghak (2),3205,Sangin,?????,Hilmand,?????,32
2230,2231,USAID AIDVillageView,SAN-015,,0,HLM-SAN-015,0,Pashto,2,1014.228027,32.1107,65.0429,HLM,SAN,Kuchnay Karez,3205,Sangin,?????,Hilmand,?????,32
2231,2232,USAID AIDVillageView,SAN-027,,0,HLM-SAN-027,0,Pashto,2,1023.9270019999999,32.1326,65.0454,HLM,SAN,Zar'alay,3205,Sangin,?????,Hilmand,?????,32
2232,2233,USAID AIDVillageView,SAN-001,,0,HLM-SAN-001,0,Pashto,2,1066.48999,32.1411,65.0673,HLM,SAN,Anjarak,3205,Sangin,?????,Hilmand,?????,32
2233,2234,USAID AIDVillageView,SAN-011,,0,HLM-SAN-011,0,Pashto,2,1079.31604,32.0856,65.0744,HLM,SAN,Gawkhana(gulkhana),3205,Sangin,?????,Hilmand,?????,32
2234,2235,USAID AIDVillageView,SAN-025,,0,HLM-SAN-025,0,Pashto,2,999.5836182,32.1271,65.0273,HLM,SAN,Syahmanzar,3205,Sangin,?????,Hilmand,?????,32
2241,2242,Yale POP_MASTER,MAR-140,,0,HLM-MAR-140,781,Pashto,2,783.0366211,31.5698,64.2117,HLM,MAR,Now Abad Wakil Gawhar,3203,Nad-e-Ali,??????,Hilmand,?????,32
2242,2243,CSO AIMS Villages (ACSOR),NIS-280,,0,HLM-NIS-280,1014,Pashto,2,838.0446777000001,31.82195,64.56769,HLM,NIS,Mohammad Zai (2),3202,Nahr-e-Saraj,??? ????,Hilmand,?????,32
2243,2244,USAID AIDVillageView,NIS-035,,0,HLM-NIS-035,0,Pashto,2,825.5393066,31.8199,64.5746,HLM,NIS,Mohammadza'i,3202,Nahr-e-Saraj,??? ????,Hilmand,?????,32
2244,2245,CCI Field Team,NIS-009,,0,HLM-NIS-009,0,Pashto,2,827.0737915,31.82,64.5705,HLM,NIS,Girishk,3202,Nahr-e-Saraj,??? ????,Hilmand,?????,32
2245,2246,CSO AIMS Villages (ACSOR),NIS-268,,0,HLM-NIS-268,1885,Pashto,2,851.6422118999999,31.837909999999997,64.5783,HLM,NIS,Hajiyan (2),3202,Nahr-e-Saraj,??? ????,Hilmand,?????,32
2246,2247,USAID AIDVillageView,NIS-008,,0,HLM-NIS-008,0,Pashto,2,836.0858764999999,31.8232,64.6367,HLM,NIS,Giman,3202,Nahr-e-Saraj,??? ????,Hilmand,?????,32
2247,2248,USAID AIDVillageView,NIS-034,,0,HLM-NIS-034,0,Pashto,2,829.3479004,31.8176,64.6208,HLM,NIS,Mohammadkarim Kalay,3202,Nahr-e-Saraj,??? ????,Hilmand,?????,32
2248,2249,USAID AIDVillageView,NIS-046,,0,HLM-NIS-046,0,Pashto,2,828.7907104,31.8323,64.5998,HLM,NIS,Shahre Kuhna,3202,Nahr-e-Saraj,??? ????,Hilmand,?????,32
2249,2250,CSO AIMS Villages (ACSOR),NIS-291,,0,HLM-NIS-291,808,Pashto,2,829.2415771000001,31.8349,64.60781999999999,HLM,NIS,Sayidan (3),3202,Nahr-e-Saraj,??? ????,Hilmand,?????,32
2250,2251,CSO AIMS Villages (ACSOR),NIS-279,,0,HLM-NIS-279,369,Pashto,2,831.6491699,31.83967,64.61355999999999,HLM,NIS,Mohammad Zai (1),3202,Nahr-e-Saraj,??? ????,Hilmand,?????,32
2251,2252,USAID AIDVillageView,NIS-001,,0,HLM-NIS-001,0,Pashto,2,847.7078857000001,31.8458,64.6057,HLM,NIS,Abdullah Kor,3202,Nahr-e-Saraj,??? ????,Hilmand,?????,32
2252,2253,Yale POP_MASTER,MAR-145,,0,HLM-MAR-145,966,Pashto,2,783.711792,31.5703,64.1559,HLM,MAR,Shah Wali Kalay,3203,Nad-e-Ali,??????,Hilmand,?????,32
2253,2254,Yale POP_MASTER,MAR-069,,0,HLM-MAR-069,1390,Pashto,2,776.7299805,31.5352,64.1841,HLM,MAR,Kharwaryan Kalay,3203,Nad-e-Ali,??????,Hilmand,?????,32
2254,2255,Yale POP_MASTER,GRM-256,,0,HLM-GRM-256,686,Pashto,2,635.527771,30.5119,63.8142,HLM,GRM,Khudai Nazar Khan Bagat,3209,Garmser,??? ???,Hilmand,?????,32
2255,2256,Yale POP_MASTER,RKN-033,,0,HLM-RKN-033,983,Pashto,2,630.9942017000001,30.5422,63.7697,HLM,RKN,Maranjan Naqelen,3212,Reg,???,Hilmand,?????,32
2256,2257,Yale POP_MASTER,RKN-034,,0,HLM-RKN-034,8,Pashto,2,635.7896118,30.5545,63.786,HLM,RKN,Markaz Khansheen,3212,Reg,???,Hilmand,?????,32
2257,2258,Yale POP_MASTER,RKN-035,,0,HLM-RKN-035,251,Pashto,2,632.6088257,30.5418,63.7862,HLM,RKN,Mir Dost Kalay,3212,Reg,???,Hilmand,?????,32
2258,2259,Yale POP_MASTER,RKN-036,,0,HLM-RKN-036,716,Pashto,2,631.2379761,30.576,63.725,HLM,RKN,Mohammad Omer Kalay,3212,Reg,???,Hilmand,?????,32
2259,2260,Yale POP_MASTER,RKN-037,,0,HLM-RKN-037,393,Pashto,2,628.7520142000001,30.5597,63.7279,HLM,RKN,Naqelen Balochan,3212,Reg,???,Hilmand,?????,32
2260,2261,Yale POP_MASTER,RKN-038,,0,HLM-RKN-038,156,Pashto,2,629.2897949,30.5693,63.7462,HLM,RKN,Naqelen Khansheen,3212,Reg,???,Hilmand,?????,32
2261,2262,Yale POP_MASTER,GRM-257,,0,HLM-GRM-257,65,Pashto,2,634.5045776000001,30.5079,63.7966,HLM,GRM,Naqelen Landi Wa Bagat,3209,Garmser,??? ???,Hilmand,?????,32
2262,2263,Yale POP_MASTER,RKN-040,,0,HLM-RKN-040,975,Pashto,2,614.8779297,30.5648,63.538999999999994,HLM,RKN,Naqelen Qala Sabz Khair Abad,3212,Reg,???,Hilmand,?????,32
2263,2264,Yale POP_MASTER,RKN-041,,0,HLM-RKN-041,621,Pashto,2,627.68927,30.5608,63.7138,HLM,RKN,Qala Now,3212,Reg,???,Hilmand,?????,32
2264,2265,Yale POP_MASTER,RKN-042,,0,HLM-RKN-042,317,Pashto,2,632.3980102999999,30.5573,63.763999999999996,HLM,RKN,Qala Shora,3212,Reg,???,Hilmand,?????,32
2265,2266,Yale POP_MASTER,RKN-043,,0,HLM-RKN-043,300,Pashto,2,622.8206787,30.5858,63.6592,HLM,RKN,Qarya Kharaba,3212,Reg,???,Hilmand,?????,32
2266,2267,Yale POP_MASTER,GRM-258,,0,HLM-GRM-258,547,Balochi,5,644.484375,30.5181,63.9012,HLM,GRM,Rahmatullah Khan,3209,Garmser,??? ???,Hilmand,?????,32
2267,2268,Yale POP_MASTER,RKN-045,,0,HLM-RKN-045,233,Pashto,2,643.2990722999999,30.5476,63.9187,HLM,RKN,Sayid Karim,3212,Reg,???,Hilmand,?????,32
2268,2269,Yale POP_MASTER,RKN-046,,0,HLM-RKN-046,235,Pashto,2,650.1502075,30.5351,63.8961,HLM,RKN,Seya Mardo,3212,Reg,???,Hilmand,?????,32
2269,2270,Yale POP_MASTER,RKN-052,,0,HLM-RKN-052,432,Pashto,2,625.3449707000001,30.5822,63.699,HLM,RKN,Wakil Khudai Rahm,3212,Reg,???,Hilmand,?????,32
2270,2271,Yale POP_MASTER,GRM-259,,0,HLM-GRM-259,276,Pashto,2,631.6497803,30.5236,63.792,HLM,GRM,Wali Mohammad,3209,Garmser,??? ???,Hilmand,?????,32
2271,2272,Yale POP_MASTER,RKN-054,,0,HLM-RKN-054,240,Pashto,2,633.4334717,30.5489,63.8155,HLM,RKN,Yar Mohammad Khan Kalay,3212,Reg,???,Hilmand,?????,32
2272,2273,Yale POP_MASTER,RKN-055,,0,HLM-RKN-055,75,Pashto,2,633.9978027000001,30.5582,63.7967,HLM,RKN,Zaman Khan Kalay,3212,Reg,???,Hilmand,?????,32
2273,2274,Yale POP_MASTER,RKN-056,District,1,HLM-RKN-056,800,Pashto,2,635.5689697,30.5517,63.7879,HLM,RKN,Reg (khan Neshin),3212,Reg,???,Hilmand,?????,32
2274,2275,Yale POP_MASTER,GRM-260,,0,HLM-GRM-260,450,Pashto,2,1547.535034,29.4376,64.0353,HLM,GRM,Bahram Chah,3209,Garmser,??? ???,Hilmand,?????,32
2275,2276,Yale POP_MASTER,GRM-204,,0,HLM-GRM-204,139,Pashto,2,651.0223999,30.5459,63.9785,HLM,GRM,Naqelen Mir Hamza Agha,3209,Garmser,??? ???,Hilmand,?????,32
2276,2277,Yale POP_MASTER,GRM-196,,0,HLM-GRM-196,341,Pashto,2,663.0961304,30.6947,64.0733,HLM,GRM,Mullah Rangin Wa Shah Wali,3209,Garmser,??? ???,Hilmand,?????,32
2277,2278,Yale POP_MASTER,GRM-139,,0,HLM-GRM-139,1016,Pashto,2,657.1895752,30.6228,64.0226,HLM,GRM,Haji Gawhar Khan Wa Hashim Khan,3209,Garmser,??? ???,Hilmand,?????,32
2278,2279,Yale POP_MASTER,GRM-162,,0,HLM-GRM-162,289,Pashto,2,663.270813,30.6496,64.0532,HLM,GRM,Hayatullah,3209,Garmser,??? ???,Hilmand,?????,32
2279,2280,Yale POP_MASTER,GRM-222,,0,HLM-GRM-222,1883,Pashto,2,667.2186279,30.7114,64.0928,HLM,GRM,Sultan Mohammad Khan,3209,Garmser,??? ???,Hilmand,?????,32
2280,2281,Yale POP_MASTER,GRM-186,,0,HLM-GRM-186,988,Pashto,2,663.315979,30.6824,64.0727,HLM,GRM,Mohammad Omer Wa Haji M.akber,3209,Garmser,??? ???,Hilmand,?????,32
2281,2282,Yale POP_MASTER,GRM-214,,0,HLM-GRM-214,211,Pashto,2,651.9312744,30.5554,63.9757,HLM,GRM,Road Khan Kalay,3209,Garmser,??? ???,Hilmand,?????,32
2282,2283,Yale POP_MASTER,GRM-125,,0,HLM-GRM-125,535,Balochi,5,671.1411743,30.7279,64.1112,HLM,GRM,Ghulam Nabi Khan,3209,Garmser,??? ???,Hilmand,?????,32
2283,2284,Yale POP_MASTER,GRM-102,,0,HLM-GRM-102,959,Pashto,2,668.8922729,30.7019,64.0956,HLM,GRM,Abdul Ahmad Wa Aminullah,3209,Garmser,??? ???,Hilmand,?????,32
2284,2285,Yale POP_MASTER,GRM-198,,0,HLM-GRM-198,648,Pashto,2,668.6090697999999,30.705,64.1008,HLM,GRM,Najeebullah Khan Kalay,3209,Garmser,??? ???,Hilmand,?????,32
2285,2286,Yale POP_MASTER,GRM-116,,0,HLM-GRM-116,467,Pashto,2,660.0018921,30.6346,64.0574,HLM,GRM,Be Nader,3209,Garmser,??? ???,Hilmand,?????,32
2286,2287,USAID AIDVillageView,GRM-006,,0,HLM-GRM-006,0,Pashto,2,696.2858276000001,30.7523,64.1624,HLM,GRM,Baqi Khan (1),3209,Garmser,??? ???,Hilmand,?????,32
2287,2288,Yale POP_MASTER,NYB-066,,0,HLM-NYB-066,523,Pashto,2,725.7976074,31.2613,64.2361,HLM,NYB,Baqi Khan Wa Mohammad Khan,3204,Nawa-e-Barakzaiy,???? ????????,Hilmand,?????,32
2288,2289,Yale POP_MASTER,GRM-200,,0,HLM-GRM-200,1582,Pashto,2,702.4746704,31.0539,64.2325,HLM,GRM,Naqelen Abas Abad,3209,Garmser,??? ???,Hilmand,?????,32
2289,2290,Yale POP_MASTER,GRM-122,,0,HLM-GRM-122,695,Pashto,2,703.1948242000001,31.0705,64.2274,HLM,GRM,Esmahel Sayid Mir Wa Qasim,3209,Garmser,??? ???,Hilmand,?????,32
2290,2291,Yale POP_MASTER,GRM-127,,0,HLM-GRM-127,769,Pashto,2,674.8422241000001,30.8326,64.1115,HLM,GRM,Haji Abdul Salam,3209,Garmser,??? ???,Hilmand,?????,32
2291,2292,Yale POP_MASTER,GRM-213,,0,HLM-GRM-213,1885,Pashto,2,673.9843139999999,30.803,64.117,HLM,GRM,Qalandar Zai Kalay,3209,Garmser,??? ???,Hilmand,?????,32
2292,2293,Yale POP_MASTER,GRM-218,,0,HLM-GRM-218,273,Pashto,2,685.5241089,30.8891,64.1459,HLM,GRM,Shad Mir,3209,Garmser,??? ???,Hilmand,?????,32
2293,2294,Yale POP_MASTER,GRM-144,,0,HLM-GRM-144,555,Hazaragi,8,679.9589232999999,30.8098,64.15,HLM,GRM,Haji Karim Dad Baloch,3209,Garmser,??? ???,Hilmand,?????,32
2294,2295,Yale POP_MASTER,GRM-184,,0,HLM-GRM-184,275,Pashto,2,680.7982787999999,30.8933,64.0889,HLM,GRM,Mohammad Mir Wa Abdul Qodos,3209,Garmser,??? ???,Hilmand,?????,32
2295,2296,Yale POP_MASTER,GRM-231,,0,HLM-GRM-231,1822,Pashto,2,684.7172852000001,30.9251,64.1342,HLM,GRM,Wakil Manan,3209,Garmser,??? ???,Hilmand,?????,32
2296,2297,Yale POP_MASTER,GRM-229,,0,HLM-GRM-229,888,Pashto,2,687.7310791,30.9599,64.1475,HLM,GRM,Wakil Kamaludin,3209,Garmser,??? ???,Hilmand,?????,32
2297,2298,Yale POP_MASTER,GRM-170,,0,HLM-GRM-170,1616,Pashto,2,691.7723999,30.9845,64.1965,HLM,GRM,Khuaja Abad Haji Khuday Raham,3209,Garmser,??? ???,Hilmand,?????,32
2298,2299,Yale POP_MASTER,GRM-140,,0,HLM-GRM-140,674,Balochi,5,690.4893799,30.9699,64.1911,HLM,GRM,Haji Ghafor Wa Gullab Shah,3209,Garmser,??? ???,Hilmand,?????,32
2299,2300,Yale POP_MASTER,GRM-165,,0,HLM-GRM-165,660,Pashto,2,693.1516723999999,30.9736,64.1367,HLM,GRM,Jalat Khan,3209,Garmser,??? ???,Hilmand,?????,32
2300,2301,Yale POP_MASTER,GRM-230,,0,HLM-GRM-230,124,Pashto,2,689.3474731000001,30.9611,64.1316,HLM,GRM,Wakil Khan Gul Wa Ata Mohammad,3209,Garmser,??? ???,Hilmand,?????,32
2301,2302,Yale POP_MASTER,GRM-142,,0,HLM-GRM-142,609,Pashto,2,683.9091187000001,30.9043,64.1368,HLM,GRM,Haji Ibrahim Wa Rais,3209,Garmser,??? ???,Hilmand,?????,32
2302,2303,Yale POP_MASTER,GRM-167,,0,HLM-GRM-167,612,Pashto,2,678.039978,30.8191,64.1247,HLM,GRM,Karam Zai Haji Mohammad Nadir,3209,Garmser,??? ???,Hilmand,?????,32
2303,2304,Yale POP_MASTER,GRM-151,,0,HLM-GRM-151,277,Pashto,2,691.0354004,30.9695,64.173,HLM,GRM,Haji Nahim Wa Abdul Wasay Rangen,3209,Garmser,??? ???,Hilmand,?????,32
2304,2305,Yale POP_MASTER,GRM-224,,0,HLM-GRM-224,285,Pashto,2,678.4312133999999,30.87,64.1043,HLM,GRM,Tobe Wa Naqelen,3209,Garmser,??? ???,Hilmand,?????,32
2305,2306,Yale POP_MASTER,GRM-207,,0,HLM-GRM-207,281,Pashto,2,676.3535767000001,30.8186,64.1174,HLM,GRM,Naqeleni Sokhta,3209,Garmser,??? ???,Hilmand,?????,32
2306,2307,Yale POP_MASTER,GRM-208,,0,HLM-GRM-208,778,Pashto,2,675.3477783,30.8527,64.1093,HLM,GRM,Nasrullah Wa Abdul Rashid,3209,Garmser,??? ???,Hilmand,?????,32
2307,2308,Yale POP_MASTER,GRM-202,,0,HLM-GRM-202,1283,Pashto,2,686.3449097,30.9353,64.1488,HLM,GRM,Naqelen Kushti Haji Abdullah Jan,3209,Garmser,??? ???,Hilmand,?????,32
2308,2309,Yale POP_MASTER,GRM-153,,0,HLM-GRM-153,633,Pashto,2,694.97052,30.9845,64.1757,HLM,GRM,Haji Rokhan Wa Najeebullah,3209,Garmser,??? ???,Hilmand,?????,32
2309,2310,Yale POP_MASTER,GRM-178,,0,HLM-GRM-178,1607,Pashto,2,681.4876709,30.8828,64.1324,HLM,GRM,Logari Ha,3209,Garmser,??? ???,Hilmand,?????,32
2310,2311,Yale POP_MASTER,GRM-164,,0,HLM-GRM-164,812,Pashto,2,685.2860718,30.9164,64.1499,HLM,GRM,Hussain Khail Dar Khail,3209,Garmser,??? ???,Hilmand,?????,32
2311,2312,Yale POP_MASTER,GRM-191,,0,HLM-GRM-191,646,Pashto,2,712.9594116000001,30.9201,64.1627,HLM,GRM,Mulla Abdul Gheyas Wa Sayid Abdul Khaliq,3209,Garmser,??? ???,Hilmand,?????,32
2312,2313,Yale POP_MASTER,GRM-193,,0,HLM-GRM-193,104,Pashto,2,689.6121216,30.9498,64.1135,HLM,GRM,Mullah Fakhruldin,3209,Garmser,??? ???,Hilmand,?????,32
2313,2314,Yale POP_MASTER,GRM-155,,0,HLM-GRM-155,923,Pashto,2,683.2387695,30.9003,64.1249,HLM,GRM,Haji Sayid Bahawouldin Wa Mahbob,3209,Garmser,??? ???,Hilmand,?????,32
2314,2315,Yale POP_MASTER,GRM-104,,0,HLM-GRM-104,272,Pashto,2,680.3643799,30.8739,64.1258,HLM,GRM,Abdul Samad Khan,3209,Garmser,??? ???,Hilmand,?????,32
2315,2316,Yale POP_MASTER,GRM-145,,0,HLM-GRM-145,842,Pashto,2,694.4782104,30.8791,64.1484,HLM,GRM,Haji Khan Mohammad,3209,Garmser,??? ???,Hilmand,?????,32
2316,2317,Yale POP_MASTER,GRM-177,,0,HLM-GRM-177,782,Pashto,2,680.6619262999999,30.8634,64.1406,HLM,GRM,Lakari (2),3209,Garmser,??? ???,Hilmand,?????,32
2317,2318,Yale POP_MASTER,GRM-195,,0,HLM-GRM-195,310,Pashto,2,679.2808227999999,30.8416,64.1329,HLM,GRM,Mullah Nazer Wa Haji Yar Mohammad,3209,Garmser,??? ???,Hilmand,?????,32
2318,2319,Yale POP_MASTER,GRM-187,,0,HLM-GRM-187,934,Pashto,2,686.7086792,30.9506,64.16199999999999,HLM,GRM,Mohammad Zahir Kalay,3209,Garmser,??? ???,Hilmand,?????,32
2319,2320,Yale POP_MASTER,GRM-212,,0,HLM-GRM-212,513,Pashto,2,684.649292,30.9372,64.1203,HLM,GRM,Noor Ali,3209,Garmser,??? ???,Hilmand,?????,32
2320,2321,Yale POP_MASTER,GRM-185,,0,HLM-GRM-185,204,Pashto,2,678.4050292999999,30.8663,64.1133,HLM,GRM,Mohammad Omer Khan Wa Naqel,3209,Garmser,??? ???,Hilmand,?????,32
2321,2322,Yale POP_MASTER,GRM-154,,0,HLM-GRM-154,847,Pashto,2,686.1887817,30.9393,64.1402,HLM,GRM,Haji Sallyh Mohammad,3209,Garmser,??? ???,Hilmand,?????,32
2322,2323,Yale POP_MASTER,GRM-121,,0,HLM-GRM-121,73,Pashto,2,689.0786132999999,30.8129,64.093,HLM,GRM,Domak Gorgan,3209,Garmser,??? ???,Hilmand,?????,32
2323,2324,Yale POP_MASTER,GRM-148,,0,HLM-GRM-148,825,Pashto,2,686.9478149,30.9367,64.1612,HLM,GRM,Haji Mohammad Ali,3209,Garmser,??? ???,Hilmand,?????,32
2324,2325,Yale POP_MASTER,GRM-113,,0,HLM-GRM-113,873,Pashto,2,680.6265258999999,30.8819,64.0881,HLM,GRM,Bair Tagag Sufla,3209,Garmser,??? ???,Hilmand,?????,32
2325,2326,Yale POP_MASTER,GRM-215,,0,HLM-GRM-215,1511,Balochi,5,681.0180054,30.8298,64.1427,HLM,GRM,Saba Wa Gorg,3209,Garmser,??? ???,Hilmand,?????,32
2326,2327,Yale POP_MASTER,GRM-180,,0,HLM-GRM-180,96,Pashto,2,682.3433227999999,30.8924,64.1214,HLM,GRM,Mamor Rashid Wa Mohammad Karim,3209,Garmser,??? ???,Hilmand,?????,32
2327,2328,Yale POP_MASTER,GRM-161,,0,HLM-GRM-161,173,Pashto,2,683.0142822,30.9197,64.104,HLM,GRM,Haji Ziauldin,3209,Garmser,??? ???,Hilmand,?????,32
2328,2329,Yale POP_MASTER,GRM-107,,0,HLM-GRM-107,475,Pashto,2,681.196228,30.8818,64.113,HLM,GRM,Abdul Wahid Abdul Ahmad Qudos Khan,3209,Garmser,??? ???,Hilmand,?????,32
2329,2330,Yale POP_MASTER,GRM-220,,0,HLM-GRM-220,627,Pashto,2,704.7305298,31.0863,64.2005,HLM,GRM,Sharafuldin,3209,Garmser,??? ???,Hilmand,?????,32
2330,2331,Yale POP_MASTER,GRM-206,,0,HLM-GRM-206,1153,Pashto,2,707.940979,31.1251,64.2358,HLM,GRM,Naqelen Wakil Masoom Masjedak,3209,Garmser,??? ???,Hilmand,?????,32
2331,2332,Yale POP_MASTER,GRM-133,,0,HLM-GRM-133,1396,Pashto,2,700.7360229,31.0629,64.1707,HLM,GRM,Haji Aqbal,3209,Garmser,??? ???,Hilmand,?????,32
2332,2333,Yale POP_MASTER,GRM-105,,0,HLM-GRM-105,54,Pashto,2,702.6793822999999,31.0511,64.1829,HLM,GRM,Abdul Satar,3209,Garmser,??? ???,Hilmand,?????,32
2333,2334,Yale POP_MASTER,GRM-159,,0,HLM-GRM-159,239,Pashto,2,707.5239257999999,31.0766,64.204,HLM,GRM,Haji Wazer,3209,Garmser,??? ???,Hilmand,?????,32
2334,2335,Yale POP_MASTER,GRM-136,,0,HLM-GRM-136,489,Pashto,2,696.6699829,31.0017,64.184,HLM,GRM,Haji Dost Mohammda Khan,3209,Garmser,??? ???,Hilmand,?????,32
2335,2336,Yale POP_MASTER,GRM-134,,0,HLM-GRM-134,1620,Pashto,2,699.8562012,31.0364,64.1802,HLM,GRM,Haji Asadullha Wa Dost M.khan,3209,Garmser,??? ???,Hilmand,?????,32
2336,2337,Yale POP_MASTER,GRM-149,,0,HLM-GRM-149,700,Pashto,2,711.0603027000001,31.1238,64.1873,HLM,GRM,Haji Mohammad Amin Wa Majnon,3209,Garmser,??? ???,Hilmand,?????,32
2337,2338,Yale POP_MASTER,GRM-238,,0,HLM-GRM-238,50,Pashto,2,711.0385742000001,31.0667,64.1167,HLM,GRM,Kharko,3209,Garmser,??? ???,Hilmand,?????,32
2338,2339,Yale POP_MASTER,GRM-126,,0,HLM-GRM-126,1026,Pashto,2,709.765625,31.1087,64.1922,HLM,GRM,Haji Abdul Hakim Khan,3209,Garmser,??? ???,Hilmand,?????,32
2339,2340,Yale POP_MASTER,GRM-147,,0,HLM-GRM-147,2061,Pashto,2,704.2213135,31.0566,64.1979,HLM,GRM,Haji Mohammad Akbar Khan,3209,Garmser,??? ???,Hilmand,?????,32
2340,2341,Yale POP_MASTER,GRM-123,,0,HLM-GRM-123,935,Pashto,2,695.2832031,30.9953,64.173,HLM,GRM,Faqir Mohammda Khan,3209,Garmser,??? ???,Hilmand,?????,32
2341,2342,Yale POP_MASTER,GRM-108,,0,HLM-GRM-108,645,Pashto,2,696.1171264999999,30.9979,64.1838,HLM,GRM,Abdul Wahid Khan,3209,Garmser,??? ???,Hilmand,?????,32
2342,2343,Yale POP_MASTER,GRM-233,,0,HLM-GRM-233,267,Pashto,2,713.7810059,31.1472,64.1655,HLM,GRM,Yar Mohammad Khan Shamalan,3209,Garmser,??? ???,Hilmand,?????,32
2343,2344,Yale POP_MASTER,GRM-203,,0,HLM-GRM-203,2261,Pashto,2,702.757019,31.0369,64.2052,HLM,GRM,Naqelen Laghmani Wa M.karim Sakhi Dad Darwati,3209,Garmser,??? ???,Hilmand,?????,32
2344,2345,Yale POP_MASTER,GRM-232,,0,HLM-GRM-232,679,Pashto,2,705.5520019999999,31.0621,64.1875,HLM,GRM,Wakil Mohammad Khan,3209,Garmser,??? ???,Hilmand,?????,32
2345,2346,Yale POP_MASTER,GRM-156,,0,HLM-GRM-156,1231,Pashto,2,708.8173218,31.1138,64.1702,HLM,GRM,Haji Sayid Mohammda Khan,3209,Garmser,??? ???,Hilmand,?????,32
2346,2347,Yale POP_MASTER,GRM-172,,0,HLM-GRM-172,1264,Pashto,2,694.0493164,30.9885,64.1881,HLM,GRM,Kochnai Darwishan Shahi,3209,Garmser,??? ???,Hilmand,?????,32
2347,2348,Yale POP_MASTER,GRM-223,,0,HLM-GRM-223,614,Pashto,2,699.117981,31.0225,64.218,HLM,GRM,Tajukan Wa Jakzarer,3209,Garmser,??? ???,Hilmand,?????,32
2348,2349,Yale POP_MASTER,GRM-228,,0,HLM-GRM-228,607,Pashto,2,702.8745117000001,31.0504,64.1968,HLM,GRM,Wakil Kamal Kalay,3209,Garmser,??? ???,Hilmand,?????,32
2349,2350,Yale POP_MASTER,GRM-138,,0,HLM-GRM-138,940,Pashto,2,701.7177734,31.0678,64.2395,HLM,GRM,Haji Faziludin Wa Haji Sultan,3209,Garmser,??? ???,Hilmand,?????,32
2350,2351,Yale POP_MASTER,GRM-174,,0,HLM-GRM-174,591,Pashto,2,705.3640747000001,31.0781,64.2202,HLM,GRM,Kotub Khan,3209,Garmser,??? ???,Hilmand,?????,32
2351,2352,Yale POP_MASTER,GRM-152,,0,HLM-GRM-152,1400,Pashto,2,706.4998779,31.0847,64.1648,HLM,GRM,Haji Nihmatullah,3209,Garmser,??? ???,Hilmand,?????,32
2352,2353,Yale POP_MASTER,GRM-132,,0,HLM-GRM-132,381,Pashto,2,702.5418701,31.0336,64.1913,HLM,GRM,Haji Amin Haji Anwar Wa Wazer,3209,Garmser,??? ???,Hilmand,?????,32
2353,2354,Yale POP_MASTER,GRM-205,,0,HLM-GRM-205,489,Pashto,2,711.1417847,31.1189,64.1955,HLM,GRM,Naqelen Mohammad Auoub Khan,3209,Garmser,??? ???,Hilmand,?????,32
2354,2355,Yale POP_MASTER,GRM-181,,0,HLM-GRM-181,684,Pashto,2,713.416626,31.131,64.1903,HLM,GRM,Markazi Wolluswaly Hazar Jouft,3209,Garmser,??? ???,Hilmand,?????,32
2355,2356,Yale POP_MASTER,GRM-150,,0,HLM-GRM-150,164,Pashto,2,695.0880127,31.0264,64.1686,HLM,GRM,Haji Mohammda Agha,3209,Garmser,??? ???,Hilmand,?????,32
2356,2357,Yale POP_MASTER,GRM-109,,0,HLM-GRM-109,535,Pashto,2,710.2246094,31.1074,64.2075,HLM,GRM,Abdullah Wa Haji Akbar Wa Besmillah Naqel,3209,Garmser,??? ???,Hilmand,?????,32
2357,2358,Yale POP_MASTER,GRM-236,,0,HLM-GRM-236,200,Pashto,2,711.5629272000001,31.1239,64.1989,HLM,GRM,Quryah,3209,Garmser,??? ???,Hilmand,?????,32
2358,2359,Yale POP_MASTER,GRM-211,,0,HLM-GRM-211,690,Pashto,2,711.3303833,31.1308,64.2122,HLM,GRM,Nazar Mohammad Khan,3209,Garmser,??? ???,Hilmand,?????,32
2359,2360,Yale POP_MASTER,GRM-188,,0,HLM-GRM-188,998,Pashto,2,704.2719727000001,31.073,64.1661,HLM,GRM,Mohammd Omer Khan,3209,Garmser,??? ???,Hilmand,?????,32
2360,2361,Yale POP_MASTER,GRM-168,,0,HLM-GRM-168,490,Pashto,2,712.7827758999999,31.1345,64.1737,HLM,GRM,Khair Mohammad Khan,3209,Garmser,??? ???,Hilmand,?????,32
2361,2362,Yale POP_MASTER,GRM-158,,0,HLM-GRM-158,328,Pashto,2,704.1245727999999,31.0857,64.2295,HLM,GRM,Haji Sultan Jan,3209,Garmser,??? ???,Hilmand,?????,32
2362,2363,Yale POP_MASTER,GRM-111,,0,HLM-GRM-111,456,Pashto,2,705.8635254,31.073,64.2108,HLM,GRM,Agha Mir,3209,Garmser,??? ???,Hilmand,?????,32
2363,2364,Yale POP_MASTER,GRM-227,,0,HLM-GRM-227,2209,Pashto,2,708.8397827,31.1023,64.2272,HLM,GRM,Wakil Baz Ohammad,3209,Garmser,??? ???,Hilmand,?????,32
2364,2365,Yale POP_MASTER,GRM-120,,0,HLM-GRM-120,414,Pashto,2,711.4096069,31.1401,64.1691,HLM,GRM,Din Mohammad Haji Ahmad,3209,Garmser,??? ???,Hilmand,?????,32
2365,2366,Yale POP_MASTER,GRM-146,,0,HLM-GRM-146,520,Pashto,2,704.4633789,31.0689,64.2171,HLM,GRM,Haji Malik Nazar Ali Khan,3209,Garmser,??? ???,Hilmand,?????,32
2366,2367,Yale POP_MASTER,GRM-235,District,1,HLM-GRM-235,596,Pashto,2,713.7427978999999,31.1319,64.1948,HLM,GRM,Garm Ser,3209,Garmser,??? ???,Hilmand,?????,32
2367,2368,Yale POP_MASTER,GRM-226,,0,HLM-GRM-226,1061,Pashto,2,703.5545043999999,31.0986,64.2401,HLM,GRM,Wakil Babari,3209,Garmser,??? ???,Hilmand,?????,32
2368,2369,Yale POP_MASTER,GRM-176,,0,HLM-GRM-176,574,Pashto,2,708.5971069,31.1109,64.2328,HLM,GRM,Lahl Mohammad,3209,Garmser,??? ???,Hilmand,?????,32
2369,2370,Yale POP_MASTER,GRM-106,,0,HLM-GRM-106,504,Pashto,2,700.4415283,31.0663,64.204,HLM,GRM,Abdul Wahab,3209,Garmser,??? ???,Hilmand,?????,32
2370,2371,Yale POP_MASTER,GRM-192,,0,HLM-GRM-192,597,Pashto,2,700.9901732999999,31.038,64.223,HLM,GRM,Mullah Abdullah Trak,3209,Garmser,??? ???,Hilmand,?????,32
2371,2372,Yale POP_MASTER,NDA-042,,0,HLM-NDA-042,1768,Pashto,2,754.9835205,31.3624,64.1214,HLM,NDA,Ghalan,3203,Nad-e-Ali,??????,Hilmand,?????,32
2372,2373,Yale POP_MASTER,NDA-104,,0,HLM-NDA-104,422,Pashto,2,757.0936279,31.3756,64.0647,HLM,NDA,Marja Block 9-a-2,3203,Nad-e-Ali,??????,Hilmand,?????,32
2373,2374,Yale POP_MASTER,NDA-113,,0,HLM-NDA-113,1434,Pashto,2,764.2501831000001,31.4403,64.0581,HLM,NDA,Marja Block B-7,3203,Nad-e-Ali,??????,Hilmand,?????,32
2374,2375,Yale POP_MASTER,NDA-101,,0,HLM-NDA-101,730,Pashto,2,759.27771,31.399,64.1124,HLM,NDA,Marja Block 8-f,3203,Nad-e-Ali,??????,Hilmand,?????,32
2375,2376,Yale POP_MASTER,NDA-102,,0,HLM-NDA-102,1098,Pashto,2,762.4296875,31.4174,64.0767,HLM,NDA,Marja Block 8-q,3203,Nad-e-Ali,??????,Hilmand,?????,32
2376,2377,Yale POP_MASTER,NDA-082,,0,HLM-NDA-082,875,Pashto,2,755.4182129,31.3693,64.1018,HLM,NDA,Marja Block 11-b,3203,Nad-e-Ali,??????,Hilmand,?????,32
2377,2378,Yale POP_MASTER,NDA-100,,0,HLM-NDA-100,527,Pashto,2,759.9859008999999,31.4021,64.1033,HLM,NDA,Marja Block 8-e,3203,Nad-e-Ali,??????,Hilmand,?????,32
2378,2379,Yale POP_MASTER,NDA-083,,0,HLM-NDA-083,41,Pashto,2,760.2084961,31.392,64.1252,HLM,NDA,Marja Block 11-c,3203,Nad-e-Ali,??????,Hilmand,?????,32
2379,2380,Yale POP_MASTER,NDA-081,,0,HLM-NDA-081,51,Pashto,2,756.4417725,31.3783,64.1185,HLM,NDA,Marja Block 11-a,3203,Nad-e-Ali,??????,Hilmand,?????,32
2380,2381,Yale POP_MASTER,NDA-078,,0,HLM-NDA-078,1376,Pashto,2,760.8182982999999,31.416999999999998,64.0615,HLM,NDA,Marja Block 10-b,3203,Nad-e-Ali,??????,Hilmand,?????,32
2381,2382,Yale POP_MASTER,NDA-095,,0,HLM-NDA-095,1911,Pashto,2,764.649292,31.4432,64.0774,HLM,NDA,Marja Block 7-d,3203,Nad-e-Ali,??????,Hilmand,?????,32
2382,2383,Yale POP_MASTER,NDA-079,,0,HLM-NDA-079,2059,Pashto,2,760.0186767999999,31.4171,64.0689,HLM,NDA,Marja Block 10-c,3203,Nad-e-Ali,??????,Hilmand,?????,32
2383,2384,Yale POP_MASTER,NDA-099,,0,HLM-NDA-099,899,Pashto,2,760.9732056,31.4027,64.0973,HLM,NDA,Marja Block 8-d,3203,Nad-e-Ali,??????,Hilmand,?????,32
2384,2385,Yale POP_MASTER,NDA-118,,0,HLM-NDA-118,1520,Pashto,2,762.5115967,31.4248,64.0487,HLM,NDA,Marja Block E-10,3203,Nad-e-Ali,??????,Hilmand,?????,32
2385,2386,Yale POP_MASTER,NDA-108,,0,HLM-NDA-108,144,Pashto,2,756.4058227999999,31.3748,64.0912,HLM,NDA,Marja Block 9-d,3203,Nad-e-Ali,??????,Hilmand,?????,32
2386,2387,Yale POP_MASTER,NDA-097,,0,HLM-NDA-097,1395,Pashto,2,761.4116211,31.4138,64.0867,HLM,NDA,Marja Block 8-b,3203,Nad-e-Ali,??????,Hilmand,?????,32
2387,2388,Yale POP_MASTER,NDA-080,,0,HLM-NDA-080,2203,Pashto,2,758.4515991000001,31.4009,64.0602,HLM,NDA,Marja Block 10-d,3203,Nad-e-Ali,??????,Hilmand,?????,32
2388,2389,Yale POP_MASTER,NDA-098,,0,HLM-NDA-098,1104,Pashto,2,760.8339844,31.4064,64.0947,HLM,NDA,Marja Block 8-c,3203,Nad-e-Ali,??????,Hilmand,?????,32
2389,2390,Yale POP_MASTER,NDA-094,,0,HLM-NDA-094,723,Pashto,2,765.0161743,31.4376,64.0653,HLM,NDA,Marja Block 7-c-1,3203,Nad-e-Ali,??????,Hilmand,?????,32
2390,2391,Yale POP_MASTER,NDA-116,,0,HLM-NDA-116,477,Pashto,2,758.8864746,31.3837,64.1588,HLM,NDA,Marja Block D-11,3203,Nad-e-Ali,??????,Hilmand,?????,32
2391,2392,Yale POP_MASTER,NDA-103,,0,HLM-NDA-103,1273,Pashto,2,758.722229,31.3903,64.0634,HLM,NDA,Marja Block 9-a-1,3203,Nad-e-Ali,??????,Hilmand,?????,32
2392,2393,Yale POP_MASTER,NDA-106,,0,HLM-NDA-106,134,Pashto,2,754.5407715,31.369,64.0739,HLM,NDA,Marja Block 9-b-2,3203,Nad-e-Ali,??????,Hilmand,?????,32
2393,2394,Yale POP_MASTER,NDA-031,,0,HLM-NDA-031,226,Pashto,2,759.8776245,31.3934,64.1843,HLM,NDA,Balocan,3203,Nad-e-Ali,??????,Hilmand,?????,32
2394,2395,Yale POP_MASTER,LKG-079,,0,HLM-LKG-079,1267,Pashto,2,792.2182007,31.4775,64.4026,HLM,LKG,Qala Bist Manda Kalay,3201,Lashkargah,???????,Hilmand,?????,32
2395,2396,Yale POP_MASTER,LKG-026,,0,HLM-LKG-026,1942,Pashto,2,758.9588012999999,31.4847,64.3566,HLM,LKG,Bist Hulya,3201,Lashkargah,???????,Hilmand,?????,32
2396,2397,Yale POP_MASTER,NYB-082,,0,HLM-NYB-082,1619,Pashto,2,741.8284912,31.3938,64.3016,HLM,NYB,Gul Aqa Lal M.wa Mussa Kalay,3204,Nawa-e-Barakzaiy,???? ????????,Hilmand,?????,32
2397,2398,Yale POP_MASTER,NYB-083,,0,HLM-NYB-083,1358,Pashto,2,743.6505737000001,31.3447,64.2565,HLM,NYB,Gul Aqa Mohammad Rahim,3204,Nawa-e-Barakzaiy,???? ????????,Hilmand,?????,32
2398,2399,Yale POP_MASTER,NYB-084,,0,HLM-NYB-084,497,Pashto,2,735.3134155,31.4173,64.3437,HLM,NYB,Haji Ibrahim,3204,Nawa-e-Barakzaiy,???? ????????,Hilmand,?????,32
2399,2400,Yale POP_MASTER,NYB-085,,0,HLM-NYB-085,447,Pashto,2,747.4119873,31.3218,64.2538,HLM,NYB,Haji Rustam,3204,Nawa-e-Barakzaiy,???? ????????,Hilmand,?????,32
2400,2401,Yale POP_MASTER,NYB-086,,0,HLM-NYB-086,874,Pashto,2,732.9985962000001,31.3063,64.2393,HLM,NYB,Haji Bari Dad Wa Abdul Rashid,3204,Nawa-e-Barakzaiy,???? ????????,Hilmand,?????,32
2401,2402,Yale POP_MASTER,NYB-087,,0,HLM-NYB-087,892,Pashto,2,734.4729004,31.2973,64.2745,HLM,NYB,Haji Dastagir Hashim Sakhi Dad Abdulhaq Kalay,3204,Nawa-e-Barakzaiy,???? ????????,Hilmand,?????,32
2402,2403,Yale POP_MASTER,NYB-088,,0,HLM-NYB-088,566,Pashto,2,726.0446777000001,31.4403,64.3074,HLM,NYB,Haji Fiyroz Shah,3204,Nawa-e-Barakzaiy,???? ????????,Hilmand,?????,32
2403,2404,Yale POP_MASTER,NYB-089,,0,HLM-NYB-089,876,Pashto,2,754.1766968,31.3747,64.2848,HLM,NYB,Haji Jamal,3204,Nawa-e-Barakzaiy,???? ????????,Hilmand,?????,32
2404,2405,Yale POP_MASTER,NYB-090,,0,HLM-NYB-090,889,Pashto,2,742.1755981000001,31.4244,64.3457,HLM,NYB,Haji Malang Khan,3204,Nawa-e-Barakzaiy,???? ????????,Hilmand,?????,32
2405,2406,Yale POP_MASTER,NYB-091,,0,HLM-NYB-091,956,Pashto,2,747.9061889999999,31.3219,64.2404,HLM,NYB,Haji Mohammad Amin,3204,Nawa-e-Barakzaiy,???? ????????,Hilmand,?????,32
2406,2407,Yale POP_MASTER,NYB-092,,0,HLM-NYB-092,63,Pashto,2,731.9840088,31.4471,64.3149,HLM,NYB,Haji Mohammad Gul Wa Murza Mohammad,3204,Nawa-e-Barakzaiy,???? ????????,Hilmand,?????,32
2407,2408,Yale POP_MASTER,NYB-093,,0,HLM-NYB-093,1072,Pashto,2,755.1029053,31.3897,64.2859,HLM,NYB,Haji Mohammad Omer Khan,3204,Nawa-e-Barakzaiy,???? ????????,Hilmand,?????,32
2408,2409,Yale POP_MASTER,NYB-095,,0,HLM-NYB-095,619,Pashto,2,730.7866211,31.4036,64.2927,HLM,NYB,Haji Mulla Sarwar Akhound Wa Sayyid Lal,3204,Nawa-e-Barakzaiy,???? ????????,Hilmand,?????,32
2409,2410,Yale POP_MASTER,NYB-096,,0,HLM-NYB-096,2746,Pashto,2,745.5264282,31.3858,64.2913,HLM,NYB,Hakim Khan Wa Zarif Shah,3204,Nawa-e-Barakzaiy,???? ????????,Hilmand,?????,32
2410,2411,Yale POP_MASTER,NYB-126,,0,HLM-NYB-126,302,Pashto,2,743.8405151000001,31.4336,64.3584,HLM,NYB,Naqelini Bilak Awal,3204,Nawa-e-Barakzaiy,???? ????????,Hilmand,?????,32
2411,2412,Yale POP_MASTER,NYB-128,,0,HLM-NYB-128,1157,Pashto,2,749.2617187999999,31.4281,64.3656,HLM,NYB,Nigarin,3204,Nawa-e-Barakzaiy,???? ????????,Hilmand,?????,32
2412,2413,Yale POP_MASTER,NYB-134,,0,HLM-NYB-134,694,Pashto,2,724.4124146,31.3533,64.3096,HLM,NYB,Sayfullah Bari Dad Mohammad Nabi,3204,Nawa-e-Barakzaiy,???? ????????,Hilmand,?????,32
2413,2414,Yale POP_MASTER,NYB-136,,0,HLM-NYB-136,424,Pashto,2,740.112915,31.3022,64.2251,HLM,NYB,Sayyid Aqa Noor Wa Qazi Khail,3204,Nawa-e-Barakzaiy,???? ????????,Hilmand,?????,32
2414,2415,Yale POP_MASTER,NYB-137,,0,HLM-NYB-137,390,Pashto,2,737.6812133999999,31.4729,64.3271,HLM,NYB,Sayyid Gul,3204,Nawa-e-Barakzaiy,???? ????????,Hilmand,?????,32
2415,2416,Yale POP_MASTER,NYB-138,,0,HLM-NYB-138,259,Pashto,2,729.9990845,31.3974,64.3169,HLM,NYB,Sayyid Malang Kalay,3204,Nawa-e-Barakzaiy,???? ????????,Hilmand,?????,32
2416,2417,Yale POP_MASTER,NYB-152,,0,HLM-NYB-152,505,Pashto,2,735.8602905,31.373,64.3141,HLM,NYB,Shor Shorak Mullah Mohammad,3204,Nawa-e-Barakzaiy,???? ????????,Hilmand,?????,32
2417,2418,Yale POP_MASTER,NYB-154,,0,HLM-NYB-154,818,Pashto,2,741.8931885,31.3404,64.2865,HLM,NYB,Sor Gul,3204,Nawa-e-Barakzaiy,???? ????????,Hilmand,?????,32
2418,2419,Yale POP_MASTER,NYB-155,,0,HLM-NYB-155,202,Pashto,2,724.9744873,31.4021,64.3286,HLM,NYB,Sultan Haji Sangin,3204,Nawa-e-Barakzaiy,???? ????????,Hilmand,?????,32
2419,2420,Yale POP_MASTER,NYB-156,,0,HLM-NYB-156,1703,Pashto,2,736.286499,31.4861,64.3506,HLM,NYB,Sultan Mohammad Ghulam Nabi,3204,Nawa-e-Barakzaiy,???? ????????,Hilmand,?????,32
2420,2421,Yale POP_MASTER,NYB-159,,0,HLM-NYB-159,727,Pashto,2,724.2144775,31.4685,64.3273,HLM,NYB,Wakil Ghazi-wakil Juma,3204,Nawa-e-Barakzaiy,???? ????????,Hilmand,?????,32
2421,2422,Yale POP_MASTER,NYB-161,,0,HLM-NYB-161,156,Pashto,2,756.6959839,31.4073,64.3084,HLM,NYB,Wazer Kalay,3204,Nawa-e-Barakzaiy,???? ????????,Hilmand,?????,32
2422,2423,Yale POP_MASTER,NYB-162,,0,HLM-NYB-162,323,Pashto,2,726.6676025,31.4133,64.3265,HLM,NYB,Yar Mohammad Kalay Haji Nooruddin,3204,Nawa-e-Barakzaiy,???? ????????,Hilmand,?????,32
2423,2424,Yale POP_MASTER,NYB-163,,0,HLM-NYB-163,154,Pashto,2,746.7512817,31.3934,64.3303,HLM,NYB,Yar Mohammmad Kalay,3204,Nawa-e-Barakzaiy,???? ????????,Hilmand,?????,32
2424,2425,Yale POP_MASTER,LKG-098,,0,HLM-LKG-098,400,Pashto,2,773.960022,31.4402,64.3929,HLM,LKG,Dorani,3201,Lashkargah,???????,Hilmand,?????,32
2425,2426,Yale POP_MASTER,LKG-099,,0,HLM-LKG-099,89,Pashto,2,805.4271851,31.4345,64.3926,HLM,LKG,Lachmi,3201,Lashkargah,???????,Hilmand,?????,32
2426,2427,USAID AIDVillageView,NDA-002,,0,HLM-NDA-002,0,Pashto,2,806.2426757999999,31.6839,64.2535,HLM,NDA,Balochan,3203,Nad-e-Ali,??????,Hilmand,?????,32
2427,2428,USAID AIDVillageView,NDA-007,,0,HLM-NDA-007,0,Pashto,2,804.6898193,31.6719,64.2501,HLM,NDA,Kakaran,3203,Nad-e-Ali,??????,Hilmand,?????,32
2428,2429,USAID AIDVillageView,NDA-004,,0,HLM-NDA-004,0,Pashto,2,788.9442138999999,31.6005,64.2544,HLM,NDA,Gorupe Shash Kalay,3203,Nad-e-Ali,??????,Hilmand,?????,32
2429,2430,USAID AIDVillageView,NDA-016,,0,HLM-NDA-016,0,Pashto,2,799.7172241000001,31.6642,64.2773,HLM,NDA,Zarghun Kalay,3203,Nad-e-Ali,??????,Hilmand,?????,32
2430,2431,CSO AIMS Villages (ACSOR),NDA-169,,0,HLM-NDA-169,1277,Pashto,2,806.0852051,31.67835,64.23344,HLM,NDA,Baloch Ha,3203,Nad-e-Ali,??????,Hilmand,?????,32
2431,2432,USAID AIDVillageView,NDA-003,,0,HLM-NDA-003,0,Pashto,2,807.9417725,31.6846,64.2262,HLM,NDA,Chahe Mirza,3203,Nad-e-Ali,??????,Hilmand,?????,32
2432,2433,USAID AIDVillageView,NDA-006,,0,HLM-NDA-006,0,Pashto,2,799.5692138999999,31.6481,64.2302,HLM,NDA,Hokumati Nade 'ali,3203,Nad-e-Ali,??????,Hilmand,?????,32
2433,2434,CSO AIMS Villages (ACSOR),NDA-172,,0,HLM-NDA-172,1157,Pashto,2,769.4069824,31.46647,64.07559,HLM,NDA,Marja Block D-4,3203,Nad-e-Ali,??????,Hilmand,?????,32
2434,2435,USAID AIDVillageView,NDA-001,,0,HLM-NDA-001,0,Pashto,2,773.1483154,31.4946,64.0964,HLM,NDA,Asekzaio Block,3203,Nad-e-Ali,??????,Hilmand,?????,32
2435,2436,USAID AIDVillageView,NDA-014,,0,HLM-NDA-014,0,Pashto,2,816.6768187999999,31.7339,64.3428,HLM,NDA,Sarbande Shamalan Kalay,3203,Nad-e-Ali,??????,Hilmand,?????,32
2436,2437,USAID AIDVillageView,NDA-005,,0,HLM-NDA-005,0,Pashto,2,767.3405151000001,31.471999999999998,64.1433,HLM,NDA,Haji Bahawuddin,3203,Nad-e-Ali,??????,Hilmand,?????,32
2437,2438,CSO AIMS Villages (ACSOR),NDA-171,,0,HLM-NDA-171,2449,Pashto,2,770.3339232999999,31.465999999999998,64.05232,HLM,NDA,Marja Block A-4,3203,Nad-e-Ali,??????,Hilmand,?????,32
2438,2439,CSO AIMS Villages (ACSOR),NDA-170,,0,HLM-NDA-170,2194,Pashto,2,770.9763793999999,31.48248,64.09638000000001,HLM,NDA,Marja Block 5-f,3203,Nad-e-Ali,??????,Hilmand,?????,32
2439,2440,USAID AIDVillageView,NDA-013,,0,HLM-NDA-013,0,Pashto,2,770.3416748,31.5082,64.1157,HLM,NDA,Panj-famili,3203,Nad-e-Ali,??????,Hilmand,?????,32
2440,2441,USAID AIDVillageView,NIS-026,,0,HLM-NIS-026,0,Pashto,2,815.1016235000001,31.7394,64.37100000000001,HLM,NIS,Lakhshak Kalay (parchaw Kalay),3201,Lashkargah,???????,Hilmand,?????,32
2441,2442,USAID AIDVillageView,MAR-015,,0,HLM-MAR-015,0,Pashto,2,774.5302734,31.4822,64.0536,HLM,MAR,Sistany,3203,Nad-e-Ali,??????,Hilmand,?????,32
2442,2443,Yale POP_MASTER,NWZ-123,,0,HLM-NWZ-123,872,Pashto,2,1819.995972,32.8632,64.5816,HLM,NWZ,Qadam Gah,3207,Nawzad,?????,Hilmand,?????,32
2443,2444,Yale POP_MASTER,NWZ-041,,0,HLM-NWZ-041,343,Pashto,2,1828.8959960000002,32.8609,64.5926,HLM,NWZ,Benafsh,3207,Nawzad,?????,Hilmand,?????,32
2444,2445,Yale POP_MASTER,NWZ-075,,0,HLM-NWZ-075,474,Pashto,2,1678.2919920000002,32.7603,64.5066,HLM,NWZ,Kajaki,3207,Nawzad,?????,Hilmand,?????,32
2445,2446,Yale POP_MASTER,NWZ-120,,0,HLM-NWZ-120,1160,Pashto,2,1632.399048,32.7954,64.5155,HLM,NWZ,Perishan,3207,Nawzad,?????,Hilmand,?????,32
2446,2447,Yale POP_MASTER,NWZ-137,,0,HLM-NWZ-137,248,Pashto,2,1617.026001,32.8158,64.5463,HLM,NWZ,Sar Ghat,3207,Nawzad,?????,Hilmand,?????,32
2447,2448,Yale POP_MASTER,NWZ-121,,0,HLM-NWZ-121,405,Pashto,2,1771.1309809999998,32.8557,64.5604,HLM,NWZ,Poza,3207,Nawzad,?????,Hilmand,?????,32
2448,2449,Yale POP_MASTER,NWZ-115,,0,HLM-NWZ-115,278,Pashto,2,1873.312988,32.8613,64.6031,HLM,NWZ,Nihala,3207,Nawzad,?????,Hilmand,?????,32
2449,2450,Yale POP_MASTER,NWZ-062,,0,HLM-NWZ-062,847,Pashto,2,1631.2619630000002,32.8256,64.5458,HLM,NWZ,Gham Badi,3207,Nawzad,?????,Hilmand,?????,32
2450,2451,Yale POP_MASTER,NWZ-025,,0,HLM-NWZ-025,147,Pashto,2,1772.817017,32.8555,64.5751,HLM,NWZ,Amrot,3207,Nawzad,?????,Hilmand,?????,32
2451,2452,Yale POP_MASTER,NWZ-056,,0,HLM-NWZ-056,782,Pashto,2,1577.602051,32.8015,64.5499,HLM,NWZ,Dordi,3207,Nawzad,?????,Hilmand,?????,32
2452,2453,Yale POP_MASTER,NWZ-161,,0,HLM-NWZ-161,588,Pashto,2,1826.988037,32.8574,64.5857,HLM,NWZ,Warliz,3207,Nawzad,?????,Hilmand,?????,32
2453,2454,Yale POP_MASTER,MSQ-030,,0,HLM-MSQ-030,964,Pashto,2,1368.149048,32.6684,64.6565,HLM,MSQ,Befti,3207,Nawzad,?????,Hilmand,?????,32
2454,2455,Yale POP_MASTER,MSQ-043,,0,HLM-MSQ-043,156,Pashto,2,1373.88501,32.6581,64.6589,HLM,MSQ,Chogi,3207,Nawzad,?????,Hilmand,?????,32
2455,2456,Yale POP_MASTER,MSQ-070,,0,HLM-MSQ-070,185,Pashto,2,1436.053955,32.7105,64.6257,HLM,MSQ,Gul Bina,3207,Nawzad,?????,Hilmand,?????,32
2498,2499,USAID AIDVillageView,MAR-011,,0,HLM-MAR-011,0,Pashto,2,780.5933838,31.5547,64.1538,HLM,MAR,Obidullah,3203,Nad-e-Ali,??????,Hilmand,?????,32
2499,2500,CSO AIMS Villages (ACSOR),MAR-168,,0,HLM-MAR-168,679,Pashto,2,777.3687744,31.55118,64.17774,HLM,MAR,Baloch Ha,3203,Nad-e-Ali,??????,Hilmand,?????,32
2500,2501,Yale POP_MASTER,NDA-040,,0,HLM-NDA-040,677,Pashto,2,810.4317017000001,31.7237,64.285,HLM,NDA,Do Bandi Kalay,3203,Nad-e-Ali,??????,Hilmand,?????,32
2501,2502,Yale POP_MASTER,NDA-166,District,1,HLM-NDA-166,5000,Pashto,2,795.9937744,31.6396,64.2535,HLM,NDA,Nad-e-ali,3203,Nad-e-Ali,??????,Hilmand,?????,32
2502,2503,Yale POP_MASTER,NDA-033,,0,HLM-NDA-033,2226,Pashto,2,807.5737305,31.6801,64.2434,HLM,NDA,Boland Wa Anwar Zai Kalay,3203,Nad-e-Ali,??????,Hilmand,?????,32
2503,2504,Yale POP_MASTER,NDA-147,,0,HLM-NDA-147,1052,Pashto,2,807.0001221,31.6878,64.2582,HLM,NDA,Shamsuldin,3203,Nad-e-Ali,??????,Hilmand,?????,32
2504,2505,Yale POP_MASTER,NDA-070,,0,HLM-NDA-070,3232,Pashto,2,804.7401123,31.6814,64.27199999999999,HLM,NDA,Khudaydad Kalay,3203,Nad-e-Ali,??????,Hilmand,?????,32
2505,2506,Yale POP_MASTER,NDA-138,,0,HLM-NDA-138,517,Pashto,2,805.2592772999999,31.669,64.2093,HLM,NDA,Now Abad Kakaran,3203,Nad-e-Ali,??????,Hilmand,?????,32
2506,2507,Yale POP_MASTER,NDA-141,,0,HLM-NDA-141,1533,Pashto,2,811.1528931,31.7076,64.2736,HLM,NDA,Qari Kalay,3203,Nad-e-Ali,??????,Hilmand,?????,32
2507,2508,Yale POP_MASTER,NDA-072,,0,HLM-NDA-072,1761,Pashto,2,796.1776732999999,31.64,64.3056,HLM,NDA,Kuror Bagh Chah Anjir,3203,Nad-e-Ali,??????,Hilmand,?????,32
2508,2509,Yale POP_MASTER,NDA-146,,0,HLM-NDA-146,2913,Pashto,2,798.0640869,31.6423,64.2152,HLM,NDA,Shamali Shen Kalay,3203,Nad-e-Ali,??????,Hilmand,?????,32
2509,2510,Yale POP_MASTER,NDA-149,,0,HLM-NDA-149,2079,Pashto,2,803.5390014999999,31.6907,64.2878,HLM,NDA,Shpazh Jariban,3203,Nad-e-Ali,??????,Hilmand,?????,32
2510,2511,CCI Field Team,NIS-298,,0,HLM-NIS-298,1196,Pashto,2,825.5723877,31.8273,64.5896,HLM,NIS,Der Adah Khan,3202,Nahr-e-Saraj,??? ????,Hilmand,?????,32
2511,2512,USAID AIDVillageView,NIS-044,,0,HLM-NIS-044,0,Pashto,2,835.5228271000001,31.826,64.57600000000001,HLM,NIS,Sarwarjan Kalay,3202,Nahr-e-Saraj,??? ????,Hilmand,?????,32
2512,2513,CCI Field Team,NIS-295,,0,HLM-NIS-295,1958,Pashto,2,826.3621216,31.8224,64.5797,HLM,NIS,Tajekan,3202,Nahr-e-Saraj,??? ????,Hilmand,?????,32
2513,2514,USAID AIDVillageView,LKG-008,,0,HLM-LKG-008,0,Pashto,2,803.5145263999999,31.6571,64.6549,HLM,LKG,Jarnayl Kala,3202,Nahr-e-Saraj,??? ????,Hilmand,?????,32
2514,2515,CSO AIMS Villages (ACSOR),LKG-095,,0,HLM-LKG-095,245,Pashto,2,799.3012695,31.62084,64.60123,HLM,LKG,Kac,3201,Lashkargah,???????,Hilmand,?????,32
2515,2516,USAID AIDVillageView,NIS-012,,0,HLM-NIS-012,0,Pashto,2,818.460022,31.7098,64.5603,HLM,NIS,Hajitorkhan Kalay(take Heratiha Kala,3202,Nahr-e-Saraj,??? ????,Hilmand,?????,32
2516,2517,USAID AIDVillageView,NIS-039,,0,HLM-NIS-039,0,Pashto,2,823.5761719,31.6909,64.6499,HLM,NIS,Popalza'i,3202,Nahr-e-Saraj,??? ????,Hilmand,?????,32
2517,2518,CSO AIMS Villages (ACSOR),NIS-297,,0,HLM-NIS-297,783,Pashto,2,813.6635742000001,31.67243,64.59011,HLM,NIS,Yak Lang (2),3202,Nahr-e-Saraj,??? ????,Hilmand,?????,32
2518,2519,USAID AIDVillageView,NIS-019,,0,HLM-NIS-019,0,Pashto,2,818.9990234,31.6775,64.6249,HLM,NIS,Khasho Kalay,3202,Nahr-e-Saraj,??? ????,Hilmand,?????,32
2519,2520,USAID AIDVillageView,NIS-006,,0,HLM-NIS-006,0,Pashto,2,822.6599121,31.6971,64.6376,HLM,NIS,De Table Tak,3202,Nahr-e-Saraj,??? ????,Hilmand,?????,32
2520,2521,CSO AIMS Villages (ACSOR),NIS-296,,0,HLM-NIS-296,906,Pashto,2,803.8206787,31.66487,64.61168,HLM,NIS,Yak Lang (1),3202,Nahr-e-Saraj,??? ????,Hilmand,?????,32
2521,2522,CCI Field Team,NIS-299,,0,HLM-NIS-299,102,Pashto,2,819.9050292999999,31.8091,64.5745,HLM,NIS,Saidan Sayd,3202,Nahr-e-Saraj,??? ????,Hilmand,?????,32
2522,2523,USAID AIDVillageView,NIS-010,,0,HLM-NIS-010,0,Pashto,2,806.237793,31.7477,64.4851,HLM,NIS,Hajijamal Kalay,3202,Nahr-e-Saraj,??? ????,Hilmand,?????,32
2523,2524,CSO AIMS Villages (ACSOR),NIS-270,,0,HLM-NIS-270,380,Pashto,2,818.2589111000001,31.80252,64.5461,HLM,NIS,Jamal Khan (2),3202,Nahr-e-Saraj,??? ????,Hilmand,?????,32
2524,2525,USAID AIDVillageView,NIS-043,,0,HLM-NIS-043,0,Pashto,2,815.6732178,31.7919,64.5296,HLM,NIS,Sartakht,3202,Nahr-e-Saraj,??? ????,Hilmand,?????,32
2525,2526,CSO AIMS Villages (ACSOR),NIS-294,,0,HLM-NIS-294,1009,Pashto,2,807.8927002,31.750659999999996,64.48694,HLM,NIS,Tajikan,3202,Nahr-e-Saraj,??? ????,Hilmand,?????,32
2526,2527,USAID AIDVillageView,NIS-005,,0,HLM-NIS-005,0,Pashto,2,815.9265137,31.7868,64.5183,HLM,NIS,Baizai,3202,Nahr-e-Saraj,??? ????,Hilmand,?????,32
2527,2528,CSO AIMS Villages (ACSOR),NIS-287,,0,HLM-NIS-287,92,Pashto,2,816.7794188999999,31.79385,64.53147,HLM,NIS,Sar Takht (1),3202,Nahr-e-Saraj,??? ????,Hilmand,?????,32
2528,2529,CSO AIMS Villages (ACSOR),NIS-289,,0,HLM-NIS-289,221,Pashto,2,816.8214111000001,31.79383,64.54328000000001,HLM,NIS,Sayidan (1),3202,Nahr-e-Saraj,??? ????,Hilmand,?????,32
2529,2530,CSO AIMS Villages (ACSOR),NIS-275,,0,HLM-NIS-275,418,Pashto,2,817.3289185,31.800559999999997,64.53851,HLM,NIS,Kunbad,3202,Nahr-e-Saraj,??? ????,Hilmand,?????,32
2530,2531,USAID AIDVillageView,NIS-011,,0,HLM-NIS-011,0,Pashto,2,802.2261963,31.7328,64.4704,HLM,NIS,Hajimirzakhan Kalay,3202,Nahr-e-Saraj,??? ????,Hilmand,?????,32
2531,2532,CSO AIMS Villages (ACSOR),NIS-269,,0,HLM-NIS-269,336,Pashto,2,806.3447876,31.74747,64.46148000000001,HLM,NIS,Jamal Khan (1),3202,Nahr-e-Saraj,??? ????,Hilmand,?????,32
2532,2533,CSO AIMS Villages (ACSOR),NIS-286,,0,HLM-NIS-286,1905,Pashto,2,805.3764037999999,31.74492,64.47471999999999,HLM,NIS,Payyan Qala,3202,Nahr-e-Saraj,??? ????,Hilmand,?????,32
2533,2534,USAID AIDVillageView,NIS-007,,0,HLM-NIS-007,0,Pashto,2,812.7250977000001,31.7562,64.4623,HLM,NIS,Gholamdastagir Kalay,3202,Nahr-e-Saraj,??? ????,Hilmand,?????,32
2534,2535,CSO AIMS Villages (ACSOR),NIS-272,,0,HLM-NIS-272,529,Pashto,2,816.5947876,31.70308,64.52626,HLM,NIS,Kakaran (3),3202,Nahr-e-Saraj,??? ????,Hilmand,?????,32
2535,2536,USAID AIDVillageView,NIS-013,,0,HLM-NIS-013,0,Pashto,2,803.6715697999999,31.6633,64.5322,HLM,NIS,Hosayni Kala,3202,Nahr-e-Saraj,??? ????,Hilmand,?????,32
2536,2537,CCI Field Team,NIS-098,,0,HLM-NIS-098,3306,Pashto,2,823.9570923,31.8093,64.5559,HLM,NIS,Deh Mazang,3202,Nahr-e-Saraj,??? ????,Hilmand,?????,32
2538,2539,CSO AIMS Villages (ACSOR),NIS-278,,0,HLM-NIS-278,1462,Pashto,2,836.003418,31.85922,64.65671,HLM,NIS,Kunjak (3),3202,Nahr-e-Saraj,??? ????,Hilmand,?????,32
2539,2540,USAID AIDVillageView,NIS-032,,0,HLM-NIS-032,0,Pashto,2,851.1207886,31.8762,64.6669,HLM,NIS,Mohammadgul Jalatkhan Kor,3202,Nahr-e-Saraj,??? ????,Hilmand,?????,32
2540,2541,USAID AIDVillageView,NIS-029,,0,HLM-NIS-029,0,Pashto,2,842.4644164999999,31.7638,64.6998,HLM,NIS,Mohammad Afdzal Shakh,3202,Nahr-e-Saraj,??? ????,Hilmand,?????,32
2541,2542,CSO AIMS Villages (ACSOR),NIS-290,,0,HLM-NIS-290,758,Pashto,2,847.8981934000001,31.7548,64.68478,HLM,NIS,Sayidan (2),3202,Nahr-e-Saraj,??? ????,Hilmand,?????,32
2542,2543,USAID AIDVillageView,NIS-015,,0,HLM-NIS-015,0,Pashto,2,833.1693726,31.8453,64.6444,HLM,NIS,Kakaran (1),3202,Nahr-e-Saraj,??? ????,Hilmand,?????,32
